[{"name": "今山", "name_en": "", "lat": 33.34509444, "lon": 130.87701667, "osm_id": 0, "operator": "九州旅客鉄道", "railway": "station", "wikidata": "Q337862", "wikipedia_tag": "ja:今山駅", "lines": ["日田彦山線"], "pref": "不明", "nearby_bus_stops": [], "source": "wikidata_补完", "nearby_pois": {"飲食店": [{"name": "とり庵", "address": "大分県日田市夜明上町1028", "lat": 33.343895817369, "lon": 130.87471652701, "category": "蕎麦店", "category_id": "0100034", "time": ["11:30-15:00"], "star": 4.35, "review": 10}, {"name": "とり庵三日月山亭", "address": "大分県日田市大字夜明1027", "lat": 33.34388791, "lon": 130.87473462, "category": "蕎麦店", "category_id": "0100034", "time": ["11:30-15:00"], "star": 0.0, "review": 2}]}, "top_restaurant": {"name": "とり庵", "category": "蕎麦店", "star": 4.35, "review": 10}}, {"name": "佐賀", "name_en": "", "lat": 33.264127777, "lon": 130.297411111, "osm_id": 0, "operator": "九州旅客鉄道", "railway": "station", "wikidata": "Q1042665", "wikipedia_tag": "ja:佐賀駅", "lines": ["長崎本線"], "pref": "不明", "nearby_bus_stops": [], "source": "wikidata_补完", "nearby_pois": {"コンビニ": [{"name": "ファミリーマート JR佐賀駅店", "address": "佐賀県佐賀市駅前中央1-11-10", "lat": 33.2642508, "lon": 130.2974659, "category": "コンビニ", "category_id": "0200487", "time": ["06:00-24:00"], "star": 3.95, "review": 61}, {"name": "ファミリーマート 佐賀駅北店", "address": "佐賀県佐賀市駅前中央2-2593", "lat": 33.2650229, "lon": 130.2975659, "category": "コンビニ", "category_id": "0200487", "time": ["00:00-24:00"], "star": 3.75, "review": 57}, {"name": "ファミリーマート 佐賀駅バスセンター店", "address": "佐賀県佐賀市駅前中央1-42", "lat": 33.2645563, "lon": 130.2990991, "category": "コンビニ", "category_id": "0200487", "time": ["06:00-23:00"], "star": 4.1, "review": 56}, {"name": "ファミリーマート 佐賀駅南口店", "address": "佐賀県佐賀市駅前中央1-9-1", "lat": 33.2629703, "lon": 130.2978076, "category": "コンビニ", "category_id": "0200487", "time": ["00:00-24:00"], "star": 3.72, "review": 41}, {"name": "ローソン 九電佐賀ビル", "address": "佐賀県佐賀市神野東2丁目3-6", "lat": 33.2646229, "lon": 130.2954355, "category": "コンビニ", "category_id": "0200487", "time": ["07:00-20:00"], "star": 3.7, "review": 12}, {"name": "ローソン 佐賀神野西三丁目", "address": "佐賀県佐賀市神野西3-1-15", "lat": 33.2675281, "lon": 130.2933523, "category": "コンビニ", "category_id": "0200487", "time": ["00:00-24:00"], "star": 4.03, "review": 27}, {"name": "セブンイレブン 佐賀大財3丁目", "address": "佐賀県佐賀市大財3-205-2", "lat": 33.2624177, "lon": 130.301935, "category": "コンビニ", "category_id": "0200487", "time": ["00:00-24:00"], "star": 4.3, "review": 36}, {"name": "ファミリーマート 佐賀多布施店", "address": "佐賀県佐賀市多布施2-4-16", "lat": 33.2589316, "lon": 130.2924303, "category": "コンビニ", "category_id": "0200487", "time": ["00:00-24:00"], "star": 4.3, "review": 37}, {"name": "セブンイレブン 佐賀愛敬町", "address": "佐賀県佐賀市愛敬町5-14", "lat": 33.2601151, "lon": 130.3006851, "category": "コンビニ", "category_id": "0200487", "time": ["00:00-24:00"], "star": 4.1, "review": 5}, {"name": "セブンイレブン 佐賀駅前中央2丁目", "address": "佐賀県佐賀市駅前中央2-10-41", "lat": 33.2675812, "lon": 130.3012155, "category": "コンビニ", "category_id": "0200487", "time": ["00:00-24:00"], "star": 4.1, "review": 50}, {"name": "セブンイレブン 佐賀商業高校前", "address": "佐賀県佐賀市神野東4-12-33", "lat": 33.2699863, "lon": 130.2960659, "category": "コンビニ", "category_id": "0200487", "time": ["00:00-24:00"], "star": 4.14, "review": 36}, {"name": "セブンイレブン 佐賀天神2丁目", "address": "佐賀県佐賀市天神2-4-19", "lat": 33.2595983, "lon": 130.2942441, "category": "コンビニ", "category_id": "0200487", "time": ["00:00-24:00"], "star": 3.85, "review": 29}, {"name": "セブンイレブン 佐賀成章町", "address": "佐賀県佐賀市成章町7-15", "lat": 33.2572012, "lon": 130.2933581, "category": "コンビニ", "category_id": "0200487", "time": ["00:00-24:00"], "star": 3.85, "review": 25}, {"name": "セブンイレブン 佐賀神野西1丁目", "address": "佐賀県佐賀市神野西1-4-17", "lat": 33.2635672, "lon": 130.2909831, "category": "コンビニ", "category_id": "0200487", "time": ["00:00-24:00"], "star": 3.82, "review": 17}, {"name": "ミニストップ 佐賀神野東3丁目店", "address": "佐賀県佐賀市神野東3丁目1-49", "lat": 33.2672941, "lon": 130.2965097, "category": "コンビニ", "category_id": "0200487", "time": [], "star": 0.0, "review": 1}, {"name": "セブンイレブン 佐賀大財北町", "address": "佐賀県佐賀市大財北町5-10", "lat": 33.2644678, "lon": 130.3081511, "category": "コンビニ", "category_id": "0200487", "time": ["00:00-24:00"], "star": 4.05, "review": 17}, {"name": "セブンイレブン佐賀愛敬町", "address": "佐賀県佐賀市愛敬町5-14", "lat": 33.260209559099, "lon": 130.30060460356, "category": "コンビニ", "category_id": "0200487", "time": ["00:00-24:00"], "star": 3.0, "review": 0}, {"name": "コンフォートホテル佐賀", "address": "佐賀県佐賀市駅前中央1-14-38", "lat": 33.2645285, "lon": 130.2967743, "category": "ビジネスホテル", "category_id": "0300758", "time": [], "star": 3.91, "review": 79}, {"name": "東横INN佐賀駅前", "address": "佐賀県佐賀市駅前中央1-10-36", "lat": 33.2636424, "lon": 130.296691, "category": "ビジネスホテル", "category_id": "0300758", "time": [], "star": 4.03, "review": 73}, {"name": "ホテルルートイン佐賀駅前", "address": "佐賀県佐賀市駅前中央1丁目9番50号", "lat": 33.26322307, "lon": 130.29759926, "category": "ホテル", "category_id": "0300124", "time": ["00:00-24:00"], "star": 3.91, "review": 92}], "ラーメン": [{"name": "駅前ラーメン ビッグワン", "address": "佐賀県佐賀市駅前中央1-13-16", "lat": 33.26458433643, "lon": 130.29811646545, "category": "ラーメン店", "category_id": "0100097", "time": ["11:00-15:00", "19:00-22:00"], "star": 3.93, "review": 79}, {"name": "ラーメン蘭蘭", "address": "佐賀県佐賀市駅前中央1-2-31", "lat": 33.2628943, "lon": 130.30005432, "category": "とんこつラーメン店", "category_id": "0102948", "time": ["11:00-24:00"], "star": 3.52, "review": 47}, {"name": "うふふ ラーメン", "address": "佐賀県佐賀市駅前中央1-11-20", "lat": 33.264403577236, "lon": 130.29854134661, "category": "ラーメン店", "category_id": "0100097", "time": ["10:00-22:30"], "star": 3.76, "review": 17}, {"name": "らーめん八六", "address": "佐賀県佐賀市駅前中央1-11-20", "lat": 33.263947717235, "lon": 130.29647295661, "category": "ラーメン店", "category_id": "0100097", "time": [], "star": 3.04, "review": 13}, {"name": "久留米ラーメン ふくの家 愛敬店", "address": "佐賀県佐賀市愛敬町11-20", "lat": 33.26190134, "lon": 130.30029015, "category": "ラーメン店", "category_id": "0100097", "time": ["11:00-15:00", "17:00-20:00"], "star": 4.03, "review": 90}, {"name": "ららら らーめん 佐賀駅北口店", "address": "佐賀県佐賀市駅前中央1-13-21", "lat": 33.26464878, "lon": 130.29766228, "category": "ラーメン店", "category_id": "0100097", "time": ["11:00-25:00"], "star": 3.84, "review": 58}, {"name": "ラーメン・焼き鳥 チャウちゃん", "address": "佐賀県佐賀市大財1-1-3", "lat": 33.257091357241, "lon": 130.30112424653, "category": "ラーメン店", "category_id": "0100097", "time": ["17:30-27:00"], "star": 4.3, "review": 10}, {"name": "横浜家系ラーメン 龍馬家 大財店", "address": "佐賀県佐賀市大財4-1-10", "lat": 33.2592073, "lon": 130.30451705, "category": "ラーメン店", "category_id": "0100097", "time": ["11:00-23:00"], "star": 3.56, "review": 29}, {"name": "博多ドラゴンラーメン 大財店", "address": "佐賀県佐賀市大財2-1-23", "lat": 33.25837406, "lon": 130.30490897, "category": "ラーメン店", "category_id": "0100097", "time": ["11:00-24:00"], "star": 3.72, "review": 57}, {"name": "いちばん星", "address": "佐賀県佐賀市愛敬町1-1", "lat": 33.258006757241, "lon": 130.30114769654, "category": "ラーメン店", "category_id": "0100097", "time": ["20:00-28:00"], "star": 3.91, "review": 31}, {"name": "らーめんげんこつ", "address": "佐賀県佐賀市愛敬町13-5", "lat": 33.26220382, "lon": 130.30056012, "category": "飲食店", "category_id": "0102732", "time": ["11:00-15:00"], "star": 4.13, "review": 8}, {"name": "麺処応", "address": "佐賀県佐賀市天神2丁目4-23", "lat": 33.2595149, "lon": 130.2937608, "category": "ラーメン店", "category_id": "0100097", "time": [], "star": 4.33, "review": 1}, {"name": "テルテルラーメン", "address": "佐賀県佐賀市大財1-5-1", "lat": 33.25631272, "lon": 130.30147405, "category": "飲食店", "category_id": "0102732", "time": ["11:30-14:00", "18:00-21:00"], "star": 3.81, "review": 9}, {"name": "成竜軒 大財店", "address": "佐賀県佐賀市大財1丁目6-31", "lat": 33.2581265, "lon": 130.30287527, "category": "ラーメン店", "category_id": "0100097", "time": ["11:30-28:00"], "star": 3.84, "review": 16}, {"name": "夢の一歩 佐賀店", "address": "佐賀県佐賀市唐人1丁目5-4", "lat": 33.25847075, "lon": 130.29863815, "category": "飲食店", "category_id": "0102732", "time": ["11:00-14:00", "17:00-22:00"], "star": 4.15, "review": 8}, {"name": "テルテルラーメン", "address": "佐賀県佐賀市大財1丁目5-1", "lat": 33.25623773, "lon": 130.30149738, "category": "ラーメン店", "category_id": "0100097", "time": [], "star": 4.0, "review": 1}, {"name": "サガハツ", "address": "佐賀県佐賀市駅前中央1丁目11-20", "lat": 33.2640841, "lon": 130.2968521, "category": "ショッピングセンター・モール", "category_id": "0200537", "time": [], "star": 4.5, "review": 6}, {"name": "ラーメン伝 星の王子さま", "address": "佐賀県佐賀市愛敬町2-23 エンゼルビル 2F", "lat": 33.25868597448, "lon": 130.3010612331, "category": "飲食店", "category_id": "0102732", "time": ["11:30-13:30"], "star": 0.0, "review": 0}, {"name": "麦キッチン", "address": "佐賀県佐賀市駅前中央1-7-31 サガシティホテル", "lat": 33.26210926, "lon": 130.29722153, "category": "定食屋", "category_id": "0101441", "time": ["17:00-21:00"], "star": 3.67, "review": 24}, {"name": "ギンダコハイボール酒場 佐賀駅店", "address": "佐賀県佐賀市駅前中央1-11-20 サガハツ 1F", "lat": 33.2640841, "lon": 130.2968799, "category": "たこ焼き店", "category_id": "0100134", "time": [], "star": 3.79, "review": 22}], "飲食店": [{"name": "和ごころ", "address": "佐賀県佐賀市駅前中央1丁目14-20", "lat": 33.264322, "lon": 130.295489, "category": "居酒屋", "category_id": "0101495", "time": ["18:00-22:00"], "star": 4.24, "review": 9}, {"name": "ロールプレーイングコーヒー", "address": "佐賀県佐賀市駅前中央1-13-8", "lat": 33.264761055588, "lon": 130.29895093528, "category": "カフェ・喫茶", "category_id": "0100344", "time": [], "star": 4.02, "review": 16}, {"name": "タンしゃぶ処 うし彦馬彦", "address": "佐賀県佐賀市駅前中央1-3-11 千々岩ビル 1F", "lat": 33.263147137237, "lon": 130.2989679866, "category": "しゃぶしゃぶ店", "category_id": "0100095", "time": [], "star": 3.43, "review": 3}, {"name": "麗雅", "address": "佐賀県佐賀市神野東1-6-22", "lat": 33.263507280086, "lon": 130.29505481387, "category": "居酒屋", "category_id": "0101495", "time": [], "star": 4.46, "review": 10}, {"name": "定食 ほげ", "address": "佐賀県佐賀市駅前中央1-7-31 サガシティパーキング 1F", "lat": 33.261849836432, "lon": 130.29751346542, "category": "天ぷら店", "category_id": "0100155", "time": ["11:30-15:00"], "star": 3.64, "review": 11}, {"name": "韓国焼肉サラン", "address": "佐賀県佐賀市駅前中央1-9-3", "lat": 33.262948536431, "lon": 130.29760316543, "category": "焼肉店", "category_id": "0101963", "time": [], "star": 3.25, "review": 2}, {"name": "串カツさくら", "address": "佐賀県佐賀市駅前中央駅前横町 1F1-9-3", "lat": 33.262928811801, "lon": 130.29755017134, "category": "天ぷら店", "category_id": "0100155", "time": [], "star": 0.0, "review": 1}, {"name": "海鮮丼専門店 佐賀", "address": "佐賀県佐賀市愛敬町4-5", "lat": 33.2593056, "lon": 130.3012612, "category": "海鮮丼店", "category_id": "0101882", "time": [], "star": 3.0, "review": 1}, {"name": "鶏居酒 佐賀駅前店", "address": "佐賀県佐賀市駅前中央1-5-14 モードビル2-5F", "lat": 33.262757960536, "lon": 130.29846552975, "category": "居酒屋", "category_id": "0101495", "time": [], "star": 0.0, "review": 0}, {"name": "orutana", "address": "佐賀県佐賀市唐人2-2-14 LINK TOWN 3F", "lat": 33.257068446554, "lon": 130.29961590122, "category": "カフェ・喫茶", "category_id": "0100344", "time": [], "star": 3.97, "review": 27}, {"name": "ハオチーマ", "address": "佐賀県佐賀市栄町2-8 さかえヤマトビル 1F FOOD FACTORY FLEX", "lat": 33.264483937236, "lon": 130.30022886661, "category": "台湾料理店", "category_id": "0101283", "time": ["11:00-14:30", "16:30-21:00"], "star": 2.5, "review": 2}, {"name": "GRILL DINING DEEER", "address": "佐賀県佐賀市大財1-4-8", "lat": 33.257912068665, "lon": 130.30131268034, "category": "フランス料理店", "category_id": "0100264", "time": [], "star": 4.25, "review": 3}, {"name": "nongo-kitchen", "address": "佐賀県佐賀市栄町2-8 さかえヤマトビル 1F FOOD FACTORY FLEX", "lat": 33.264483937236, "lon": 130.30022886661, "category": "カレー店", "category_id": "0100359", "time": [], "star": 4.0, "review": 1}, {"name": "たっとかんBar", "address": "佐賀県佐賀市大財1-1-88", "lat": 33.257498470374, "lon": 130.30144806666, "category": "バー", "category_id": "0100536", "time": [], "star": 4.25, "review": 1}, {"name": "あとりえころ", "address": "佐賀県佐賀市栄町2-8 さかえヤマトビル 1F FOOD FACTORY FLEX", "lat": 33.264483937236, "lon": 130.30022886661, "category": "カフェ・喫茶", "category_id": "0100344", "time": ["11:00-21:00"], "star": 0.0, "review": 0}, {"name": "炭火焼専門店 風流", "address": "佐賀県佐賀市神野東2-4-1", "lat": 33.264482137049264, "lon": 130.29500052871958, "category": "炭火焼き店", "category_id": "0102808", "time": [], "star": 2.0, "review": 1}, {"name": "松屋 / 松のや 佐賀大財店", "address": "佐賀県佐賀市大財3-10-26", "lat": 33.262122272696, "lon": 130.30341786258, "category": "牛丼店", "category_id": "0101974", "time": [], "star": 0.0, "review": 0}, {"name": "サケバー", "address": "佐賀県佐賀市神野東2-4-12", "lat": 33.264282587234, "lon": 130.29390592661, "category": "日本酒バー", "category_id": "0101683", "time": ["21:00-23:00"], "star": 3.5, "review": 1}, {"name": "OVER LAP", "address": "佐賀県佐賀市愛敬町4-8 紅屋館 2F", "lat": 33.25965014724, "lon": 130.30119386656, "category": "バー", "category_id": "0100536", "time": [], "star": 0.0, "review": 1}, {"name": "BELLE EPOQUE", "address": "佐賀県佐賀市天神3-2-23 佐賀新聞社 1F", "lat": 33.26182373643, "lon": 130.29066116543, "category": "カフェ・喫茶", "category_id": "0100344", "time": ["10:00-17:00"], "star": 0.0, "review": 1}], "カフェ": [{"name": "ロールプレーイングコーヒー", "address": "佐賀県佐賀市駅前中央1-13-8", "lat": 33.264761055588, "lon": 130.29895093528, "category": "カフェ・喫茶", "category_id": "0100344", "time": [], "star": 4.02, "review": 16}, {"name": "みのりカフェ 季楽 コムボックス佐賀駅前", "address": "佐賀県佐賀市駅前中央1-4-17 コムボックス佐賀駅前 1F", "lat": 33.2637037, "lon": 130.298306, "category": "カフェ・喫茶", "category_id": "0100344", "time": ["10:00-20:00"], "star": 4.06, "review": 62}, {"name": "orutana", "address": "佐賀県佐賀市唐人2-2-14 LINK TOWN 3F", "lat": 33.257068446554, "lon": 130.29961590122, "category": "カフェ・喫茶", "category_id": "0100344", "time": [], "star": 3.97, "review": 27}, {"name": "シアトルズベストコーヒー JR佐賀駅店", "address": "佐賀県佐賀市駅前中央1-11-10", "lat": 33.2641896, "lon": 130.2974548, "category": "コーヒー店", "category_id": "0100496", "time": ["07:00-23:00"], "star": 3.97, "review": 81}, {"name": "レストラン&スイーツ うふふ", "address": "佐賀県佐賀市駅前中央1-11-1 えきマチ1丁目 東館 1F", "lat": 33.264274667236, "lon": 130.29864484661, "category": "カフェ・喫茶", "category_id": "0100344", "time": ["11:00-21:00"], "star": 4.12, "review": 81}, {"name": "あとりえころ", "address": "佐賀県佐賀市栄町2-8 さかえヤマトビル 1F FOOD FACTORY FLEX", "lat": 33.264483937236, "lon": 130.30022886661, "category": "カフェ・喫茶", "category_id": "0100344", "time": ["11:00-21:00"], "star": 0.0, "review": 0}, {"name": "BELLE EPOQUE", "address": "佐賀県佐賀市天神3-2-23 佐賀新聞社 1F", "lat": 33.26182373643, "lon": 130.29066116543, "category": "カフェ・喫茶", "category_id": "0100344", "time": ["10:00-17:00"], "star": 0.0, "review": 1}, {"name": "Fresh Candy 佐賀店", "address": "佐賀県佐賀市神野東1-7-24", "lat": 33.263524307235, "lon": 130.2946114866, "category": "カフェ・喫茶", "category_id": "0100344", "time": ["11:00-19:00"], "star": 4.23, "review": 9}, {"name": "T-1's バーガーカフェ", "address": "佐賀県佐賀市多布施2-5-22", "lat": 33.25891764, "lon": 130.29126822, "category": "カフェ・喫茶", "category_id": "0100344", "time": ["09:30-23:00"], "star": 4.21, "review": 56}, {"name": "カフェ レトロ", "address": "佐賀県佐賀市神野東4-7-21 内藤ビル 103", "lat": 33.268666377233, "lon": 130.29807362665, "category": "カフェ・喫茶", "category_id": "0100344", "time": ["07:30-15:00"], "star": 3.6, "review": 14}, {"name": "CAFE木と本", "address": "佐賀県佐賀市唐人1-2-18", "lat": 33.25698285, "lon": 130.29920785, "category": "カフェ・喫茶", "category_id": "0100344", "time": ["09:30-20:45"], "star": 4.27, "review": 54}, {"name": "ミール珈屋凪", "address": "佐賀県佐賀市愛敬町10-18", "lat": 33.26130668, "lon": 130.30052292, "category": "カフェ・喫茶", "category_id": "0100344", "time": ["09:00-25:00"], "star": 4.0, "review": 95}, {"name": "パステレリア テテ ホテルマリターレ創世店", "address": "佐賀県佐賀市神野東2-5-15 1F", "lat": 33.265957097233, "lon": 130.29393404663, "category": "カフェ・喫茶", "category_id": "0100344", "time": ["10:00-18:00"], "star": 3.94, "review": 32}, {"name": "カフェ ダイニング バー ラフ", "address": "佐賀県佐賀市駅前中央2-6-7", "lat": 33.266269, "lon": 130.297313, "category": "ダイニングバー", "category_id": "0100645", "time": ["08:00-23:00"], "star": 3.94, "review": 93}, {"name": "カフェ パンゲア", "address": "佐賀県佐賀市天神3-2-15 佐賀市立図書館 1F", "lat": 33.259667297236, "lon": 130.29069384657, "category": "カフェ・喫茶", "category_id": "0100344", "time": ["10:00-19:00"], "star": 4.1, "review": 47}, {"name": "ドトール JR佐賀駅前店", "address": "佐賀県佐賀市駅前中央1-13-20 佐賀新聞ステーションビル 1F", "lat": 33.2645368, "lon": 130.2977242, "category": "コーヒー店", "category_id": "0100496", "time": ["07:00-20:00"], "star": 4.0, "review": 43}, {"name": "flower style Lazuli", "address": "佐賀県佐賀市大財3-1-9 OTAKARABASE 1F", "lat": 33.25836676794923, "lon": 130.30320722333246, "category": "カフェ・喫茶", "category_id": "0100344", "time": ["11:00-19:00"], "star": 4.28, "review": 65}, {"name": "ATTRAENTE", "address": "佐賀県佐賀市天神2-1-15", "lat": 33.259790907238, "lon": 130.29593794656, "category": "カフェ・喫茶", "category_id": "0100344", "time": ["11:00-18:00"], "star": 4.35, "review": 1}, {"name": "路地裏の佐藤家", "address": "佐賀県佐賀市天神2-4-12", "lat": 33.25987824, "lon": 130.29456625, "category": "カフェ・喫茶", "category_id": "0100344", "time": ["11:30-15:00"], "star": 3.95, "review": 11}, {"name": "ラベンダー", "address": "佐賀県佐賀市天神2-2-32", "lat": 33.26133872, "lon": 130.29599499, "category": "カフェ・喫茶", "category_id": "0100344", "time": ["09:00-22:00"], "star": 3.88, "review": 3}], "ドラッグストア": [{"name": "マツモトキヨシ ドラッグストア コムボックス佐賀駅前店", "address": "佐賀県佐賀市駅前中央1-4-17", "lat": 33.263748, "lon": 130.2983325, "category": "ドラッグストア", "category_id": "0200699", "time": ["09:00-21:00"], "star": 3.88, "review": 52}, {"name": "ドラッグストアモリ 愛敬店", "address": "佐賀県佐賀市愛敬町11-15", "lat": 33.2618538, "lon": 130.2999796, "category": "ドラッグストア", "category_id": "0200699", "time": ["09:00-24:00"], "star": 4.03, "review": 115}, {"name": "コクミンドラッグ えきマチ1丁目佐賀駅店", "address": "佐賀県佐賀市駅前中央１－１１－２０", "lat": 33.26433411, "lon": 130.29826306, "category": "ドラッグストア", "category_id": "0200699", "time": [], "star": 3.61, "review": 4}, {"name": "ドラッグストアモリ 佐賀栄町店", "address": "佐賀県佐賀市栄町3-5", "lat": 33.2634121, "lon": 130.3022849, "category": "ドラッグストア", "category_id": "0200699", "time": ["10:00-24:00"], "star": 4.05, "review": 72}, {"name": "ココカラファイン 多布施店", "address": "佐賀県佐賀市多布施1-6-50", "lat": 33.2570484, "lon": 130.29206374, "category": "ドラッグストア", "category_id": "0200699", "time": ["09:00-22:00"], "star": 4.23, "review": 43}, {"name": "えきマチ1丁目佐賀", "address": "佐賀県佐賀市駅前中央1丁目11-20", "lat": 33.2643286, "lon": 130.2982408, "category": "ショッピングセンター・モール", "category_id": "0200537", "time": ["10:00-20:00"], "star": 4.4, "review": 8}, {"name": "福神調剤薬局 佐賀駅前店", "address": "佐賀県佐賀市駅前中央1丁目10-37", "lat": 33.2634569, "lon": 130.29685715767, "category": "調剤薬局", "category_id": "0202315", "time": ["09:00-18:00"], "star": 0.0, "review": 0}, {"name": "溝上薬局 コムボックス佐賀駅前店", "address": "佐賀県佐賀市駅前中央1-4-17 2F", "lat": 33.2637341, "lon": 130.298183, "category": "調剤薬局", "category_id": "0202315", "time": ["09:00-21:00"], "star": 0.0, "review": 0}, {"name": "くましろ薬局神野東店", "address": "佐賀県佐賀市神野東4丁目3-15", "lat": 33.26777356, "lon": 130.29904014, "category": "調剤薬局", "category_id": "0202315", "time": ["09:00-18:00"], "star": 4.5, "review": 2}, {"name": "Aコープ JAファーマーズ街かど畑", "address": "佐賀県佐賀市駅前中央1-4-17", "lat": 33.263748, "lon": 130.2983325, "category": "スーパー", "category_id": "0200612", "time": ["09:30-21:00"], "star": 4.01, "review": 166}, {"name": "中原薬局神野店", "address": "佐賀県佐賀市神野東1丁目3-30", "lat": 33.26238273, "lon": 130.29444954, "category": "調剤薬局", "category_id": "0202315", "time": ["08:30-18:00"], "star": 0.0, "review": 0}, {"name": "アクロスプラザ コムボックス佐賀駅前", "address": "佐賀県佐賀市駅前中央1-4-17", "lat": 33.2637425, "lon": 130.2983353, "category": "ショッピングセンター・モール", "category_id": "0200537", "time": [], "star": 3.98, "review": 52}, {"name": "タカトリ薬局", "address": "佐賀県佐賀市天神2丁目5-2", "lat": 33.26070673, "lon": 130.29349244, "category": "調剤薬局", "category_id": "0202315", "time": ["09:00-19:00"], "star": 0.0, "review": 0}, {"name": "株式会社武田健康堂 神野店", "address": "佐賀県佐賀市神野東 3丁目12-38", "lat": 33.27000427246094, "lon": 130.29537963867188, "category": "調剤薬局", "category_id": "0202315", "time": ["09:00-19:00"], "star": 4.5, "review": 1}, {"name": "駅前第一薬局", "address": "佐賀県佐賀市駅南本町6-4", "lat": 33.26140213012695, "lon": 130.29867553710938, "category": "調剤薬局", "category_id": "0202315", "time": ["09:00-18:00"], "star": 0.0, "review": 0}, {"name": "三漢薬局", "address": "佐賀県佐賀市神野東4丁目1-1", "lat": 33.26726437, "lon": 130.2973953, "category": "調剤薬局", "category_id": "0202315", "time": [], "star": 0.0, "review": 0}, {"name": "有限会社ハロー薬局佐賀天神店", "address": "佐賀県佐賀市天神2丁目1-25", "lat": 33.26000105, "lon": 130.29575365, "category": "調剤薬局", "category_id": "0202315", "time": [], "star": 0.0, "review": 0}, {"name": "虹の薬局", "address": "佐賀県佐賀市神野東4丁目9-21", "lat": 33.269700336117, "lon": 130.2994686, "category": "調剤薬局", "category_id": "0202315", "time": ["09:00-17:00"], "star": 3.5, "review": 1}, {"name": "こうの薬局", "address": "佐賀県佐賀市神野東3丁目7-8", "lat": 33.26683817, "lon": 130.29395254, "category": "調剤薬局", "category_id": "0202315", "time": [], "star": 0.0, "review": 0}, {"name": "クスリのあいけい 神野支店", "address": "佐賀県佐賀市神野東2丁目4-24", "lat": 33.26512269, "lon": 130.29378369, "category": "調剤薬局", "category_id": "0202315", "time": ["09:00-18:00"], "star": 0.0, "review": 0}], "ATM": [{"name": "佐賀共栄銀行 ATM JR佐賀駅店", "address": "佐賀県佐賀市駅前中央1-11-10", "lat": 33.2641313, "lon": 130.297491, "category": "ATM", "category_id": "0402785", "time": [], "star": 0.0, "review": 0}, {"name": "三井住友信託銀行佐賀支店", "address": "佐賀県佐賀市駅前中央1丁目13-20", "lat": 33.2645368, "lon": 130.2977242, "category": "銀行", "category_id": "0402596", "time": [], "star": 3.33, "review": 3}, {"name": "三井住友銀行 佐賀支店", "address": "佐賀県佐賀市駅前中央1-5-10", "lat": 33.262309, "lon": 130.29859, "category": "銀行", "category_id": "0402596", "time": ["09:00-15:00"], "star": 3.5, "review": 5}, {"name": "福岡銀行 佐賀支店", "address": "佐賀県佐賀市駅南本町5-4", "lat": 33.2608483, "lon": 130.2989242, "category": "銀行", "category_id": "0402596", "time": ["09:00-11:30", "12:30-15:00"], "star": 2.57, "review": 5}, {"name": "佐賀銀行 ATM JR佐賀駅", "address": "佐賀県佐賀市駅前中央1-11-10", "lat": 33.2640457, "lon": 130.2968, "category": "ATM", "category_id": "0402785", "time": [], "star": 0.0, "review": 0}, {"name": "佐賀銀行 本店営業部", "address": "佐賀県佐賀市唐人2-7-20", "lat": 33.2599984, "lon": 130.2991575, "category": "銀行", "category_id": "0402596", "time": ["09:00-15:00"], "star": 3.82, "review": 6}, {"name": "佐賀銀行 神野町支店", "address": "佐賀県佐賀市神野東2-5-12", "lat": 33.2656588, "lon": 130.293869, "category": "銀行", "category_id": "0402596", "time": ["09:00-15:00"], "star": 4.14, "review": 3}, {"name": "三井住友銀行 ATM 佐賀駅前出張所", "address": "佐賀県佐賀市駅前中央1-5-10 朝日生命佐賀駅前ビル 1F", "lat": 33.2622761, "lon": 130.298533, "category": "ATM", "category_id": "0402785", "time": [], "star": 0.0, "review": 0}, {"name": "三井住友銀行 ATM 佐賀支店", "address": "佐賀県佐賀市駅前中央1-5-10 朝日生命佐賀駅前ビル 2F", "lat": 33.2622862, "lon": 130.298591, "category": "ATM", "category_id": "0402785", "time": [], "star": 0.0, "review": 0}, {"name": "佐賀銀行 呉服町支店", "address": "佐賀県佐賀市唐人2-7-20", "lat": 33.2600179, "lon": 130.2992325, "category": "銀行", "category_id": "0402596", "time": ["09:00-15:00"], "star": 4.5, "review": 1}, {"name": "JAバンク ATM 佐賀県信用農業協同組合連合会(JA佐賀信連)コムボックス佐賀駅前", "address": "佐賀県佐賀市駅前中央1-4-17", "lat": 33.2637554, "lon": 130.298355, "category": "ATM", "category_id": "0402785", "time": [], "star": 4.0, "review": 1}, {"name": "商工中金 佐賀支店", "address": "佐賀県佐賀市駅前中央1-6-23", "lat": 33.2624337, "lon": 130.29788119, "category": "銀行", "category_id": "0402596", "time": ["09:00-15:00"], "star": 3.5, "review": 1}, {"name": "JAバンク 佐賀市中央農業協同組合(JA佐賀市中央)本店", "address": "佐賀県佐賀市駅前中央1-3-1", "lat": 33.2634203, "lon": 130.299906, "category": "銀行", "category_id": "0402596", "time": ["09:00-15:00"], "star": 4.4, "review": 1}, {"name": "みずほ銀行 ATM えきマチ1丁目佐賀出張所", "address": "佐賀県佐賀市駅前中央1-11-20", "lat": 33.2640941, "lon": 130.297015, "category": "ATM", "category_id": "0402785", "time": [], "star": 0.0, "review": 0}, {"name": "ゆうちょ銀行 佐賀駅前郵便局", "address": "佐賀県佐賀市駅前中央1-6-20", "lat": 33.2627429, "lon": 130.297886, "category": "銀行", "category_id": "0402596", "time": [], "star": 4.0, "review": 0}, {"name": "イオン銀行 ATM えきマチ1丁目佐賀出張所(店内)", "address": "佐賀県佐賀市駅前中央1-11-20", "lat": 33.2640727, "lon": 130.297004, "category": "ATM", "category_id": "0402785", "time": ["06:00-22:00"], "star": 0.0, "review": 0}, {"name": "福岡銀行 ATM 佐賀支店", "address": "佐賀県佐賀市駅南本町5-4", "lat": 33.2608596, "lon": 130.298825, "category": "ATM", "category_id": "0402785", "time": [], "star": 0.0, "review": 0}, {"name": "佐賀銀行 ATM 神野町支店", "address": "佐賀県佐賀市神野東2-5-12", "lat": 33.265614, "lon": 130.2939, "category": "ATM", "category_id": "0402785", "time": [], "star": 0.0, "review": 0}, {"name": "ゆうちょ銀行 佐賀神野町郵便局", "address": "佐賀県佐賀市神野東2-3-23", "lat": 33.2655149, "lon": 130.294947, "category": "銀行", "category_id": "0402596", "time": [], "star": 3.33, "review": 1}, {"name": "佐賀銀行 ATM 本店営業部", "address": "佐賀県佐賀市唐人2-7-20", "lat": 33.2600015, "lon": 130.299224, "category": "ATM", "category_id": "0402785", "time": [], "star": 0.0, "review": 0}], "銭湯 温泉": [{"name": "Villa石の蔵ホテル", "address": "佐賀県佐賀市大財5丁目6-4", "lat": 33.2612625, "lon": 130.306629, "category": "健康ランド", "category_id": "0401106", "time": [], "star": 4.05, "review": 21}], "スーパーマーケット": [{"name": "Aコープ JAファーマーズ街かど畑", "address": "佐賀県佐賀市駅前中央1-4-17", "lat": 33.263748, "lon": 130.2983325, "category": "スーパー", "category_id": "0200612", "time": ["09:30-21:00"], "star": 4.01, "review": 166}, {"name": "A-プライス 佐賀店", "address": "佐賀県佐賀市大財3-11-16", "lat": 33.2623733, "lon": 130.3024794, "category": "スーパー", "category_id": "0200612", "time": ["09:30-18:30"], "star": 4.07, "review": 29}, {"name": "ザ・ビッグ 多布施店", "address": "佐賀県佐賀市多布施1-6-50", "lat": 33.2565984, "lon": 130.2919971, "category": "スーパー", "category_id": "0200612", "time": ["09:00-22:00"], "star": 4.08, "review": 206}, {"name": "業務スーパー 大財店", "address": "佐賀県佐賀市大財5-10-11", "lat": 33.2634401, "lon": 130.3081344, "category": "スーパー", "category_id": "0200612", "time": ["09:00-21:00"], "star": 4.27, "review": 51}, {"name": "アクロスプラザ コムボックス佐賀駅前", "address": "佐賀県佐賀市駅前中央1-4-17", "lat": 33.2637425, "lon": 130.2983353, "category": "ショッピングセンター・モール", "category_id": "0200537", "time": [], "star": 3.98, "review": 52}, {"name": "ドラッグストアモリ 愛敬店", "address": "佐賀県佐賀市愛敬町11-15", "lat": 33.2618538, "lon": 130.2999796, "category": "ドラッグストア", "category_id": "0200699", "time": ["09:00-24:00"], "star": 4.03, "review": 115}, {"name": "ココカラファイン 多布施店", "address": "佐賀県佐賀市多布施1-6-50", "lat": 33.2570484, "lon": 130.29206374, "category": "ドラッグストア", "category_id": "0200699", "time": ["09:00-22:00"], "star": 4.23, "review": 43}]}, "top_restaurant": {"name": "サガハツ", "category": "ショッピングセンター・モール", "star": 4.5, "review": 6}}, {"name": "八十場", "name_en": "", "lat": 34.3133, "lon": 133.885, "osm_id": 0, "operator": "四国旅客鉄道", "railway": "station", "wikidata": "Q5115394", "wikipedia_tag": "ja:八十場駅", "lines": ["予讃線"], "pref": "不明", "nearby_bus_stops": [], "source": "wikidata_补完", "nearby_pois": {"飲食店": [{"name": "本気海鮮 ほんまる", "address": "香川県坂出市西庄町578-3", "lat": 34.31592512, "lon": 133.88879542, "category": "レストラン", "category_id": "0100111", "time": ["11:00-14:00", "17:00-21:00"], "star": 3.86, "review": 15}, {"name": "清水屋", "address": "香川県坂出市西庄町759-1", "lat": 34.31160113, "lon": 133.88051531, "category": "甘味処", "category_id": "0102834", "time": ["09:00-17:00"], "star": 4.11, "review": 50}, {"name": "カラオケ喫茶吹花", "address": "香川県坂出市西庄町983-5", "lat": 34.31348101, "lon": 133.89264469, "category": "カフェ・喫茶", "category_id": "0100344", "time": [], "star": 0.0, "review": 0}, {"name": "株式会社エンター", "address": "香川県坂出市西庄町1026番地4", "lat": 34.31076468, "lon": 133.89392167, "category": "飲食店", "category_id": "0102732", "time": [], "star": 0.0, "review": 0}], "カフェ": [{"name": "清水屋", "address": "香川県坂出市西庄町759-1", "lat": 34.31160113, "lon": 133.88051531, "category": "甘味処", "category_id": "0102834", "time": ["09:00-17:00"], "star": 4.11, "review": 50}, {"name": "カラオケ喫茶吹花", "address": "香川県坂出市西庄町983-5", "lat": 34.31348101, "lon": 133.89264469, "category": "カフェ・喫茶", "category_id": "0100344", "time": [], "star": 0.0, "review": 0}], "ドラッグストア": [{"name": "くすりのレデイ坂出店", "address": "香川県坂出市江尻町1300番地1", "lat": 34.316183, "lon": 133.87551179, "category": "ドラッグストア", "category_id": "0200699", "time": ["09:00-21:00"], "star": 4.3, "review": 21}, {"name": "京町薬局西庄店", "address": "香川県坂出市西庄町178-4", "lat": 34.31959347, "lon": 133.88182713, "category": "調剤薬局", "category_id": "0202315", "time": ["08:30-18:00"], "star": 0.0, "review": 0}]}, "top_restaurant": {"name": "清水屋", "category": "甘味処", "star": 4.11, "review": 50}}, {"name": "串本", "name_en": "", "lat": 33.4757, "lon": 135.7816, "osm_id": 0, "operator": "西日本旅客鉄道", "railway": "station", "wikidata": "Q2682092", "wikipedia_tag": "ja:串本駅", "lines": ["紀勢本線"], "pref": "不明", "nearby_bus_stops": [], "source": "wikidata_补完", "nearby_pois": {"コンビニ": [{"name": "ファミリーマート 串本駅前店", "address": "和歌山県東牟婁郡串本町串本2077", "lat": 33.4755028, "lon": 135.7835386, "category": "コンビニ", "category_id": "0200487", "time": ["00:00-24:00"], "star": 4.72, "review": 28}, {"name": "ローソン 串本町串本", "address": "和歌山県東牟婁郡串本町串本1824", "lat": 33.4728364, "lon": 135.7821165, "category": "コンビニ", "category_id": "0200487", "time": ["00:00-24:00"], "star": 4.53, "review": 11}, {"name": "ビジネスホテル串本駅前", "address": "和歌山県東牟婁郡串本町串本40-70", "lat": 33.47496424, "lon": 135.78204682, "category": "ビジネスホテル", "category_id": "0300758", "time": ["06:30-23:55"], "star": 3.21, "review": 5}, {"name": "オークワ串本店", "address": "和歌山県東牟婁郡串本町串本40-22", "lat": 33.47606107, "lon": 135.78304701, "category": "スーパー", "category_id": "0200612", "time": ["09:00-23:00"], "star": 4.0, "review": 86}, {"name": "ホテルシーカンス", "address": "和歌山県東牟婁郡串本町串本1735-33", "lat": 33.46927846, "lon": 135.78159428, "category": "ビジネスホテル", "category_id": "0300758", "time": [], "star": 2.9, "review": 3}], "ラーメン": [{"name": "地鶏らぁめん彩", "address": "和歌山県東牟婁郡串本町串本1735-64", "lat": 33.469440438852, "lon": 135.78152876484, "category": "ラーメン店", "category_id": "0100097", "time": ["11:00-14:00"], "star": 3.63, "review": 10}, {"name": "麺屋", "address": "和歌山県東牟婁郡串本町串本2153", "lat": 33.47798974855699, "lon": 135.78616897858984, "category": "ラーメン店", "category_id": "0100097", "time": [], "star": 3.75, "review": 12}, {"name": "ロンパ", "address": "和歌山県東牟婁郡串本町串本42-14", "lat": 33.475975638043, "lon": 135.78262886374, "category": "中華料理店", "category_id": "0100990", "time": ["11:00-14:30", "17:00-21:00"], "star": 3.57, "review": 9}, {"name": "大阪王将 串本店", "address": "和歌山県東牟婁郡串本町串本2079", "lat": 33.4763222, "lon": 135.7839025, "category": "餃子店", "category_id": "0102733", "time": ["11:00-21:30"], "star": 3.38, "review": 37}, {"name": "紀州園", "address": "和歌山県東牟婁郡串本町鬮野川1163", "lat": 33.4771331, "lon": 135.7828964, "category": "中華料理店", "category_id": "0100990", "time": [], "star": 3.33, "review": 1}, {"name": "台湾料理 常楽園", "address": "和歌山県東牟婁郡串本町串本2302", "lat": 33.47154794, "lon": 135.78196425, "category": "台湾料理店", "category_id": "0101283", "time": ["11:00-14:00", "17:00-26:00"], "star": 3.56, "review": 17}, {"name": "居酒屋よしくに", "address": "和歌山県東牟婁郡串本町鬮野川1160-3", "lat": 33.47793864, "lon": 135.78261488, "category": "居酒屋", "category_id": "0101495", "time": ["18:00-22:00"], "star": 3.73, "review": 12}], "飲食店": [{"name": "喫茶らる", "address": "和歌山県東牟婁郡串本町串本33-21 岩田ビル 2F", "lat": 33.475243538848, "lon": 135.78202953489, "category": "カフェ・喫茶", "category_id": "0100344", "time": ["08:30-16:30"], "star": 3.5, "review": 1}, {"name": "とり勝", "address": "和歌山県東牟婁郡串本町串本40-50", "lat": 33.474440068849, "lon": 135.78295252489, "category": "焼き鳥店", "category_id": "0101960", "time": ["17:30-22:00"], "star": 3.67, "review": 6}, {"name": "メリー マム", "address": "和歌山県東牟婁郡串本町くじの川1245", "lat": 33.482306548846, "lon": 135.78822837496, "category": "カフェ・喫茶", "category_id": "0100344", "time": ["11:30-18:00"], "star": 4.34, "review": 3}, {"name": "バー マルナル", "address": "和歌山県東牟婁郡串本町串本1735-1", "lat": 33.469452165698, "lon": 135.78096713281, "category": "バー", "category_id": "0100536", "time": ["20:30-26:00"], "star": 3.7, "review": 1}, {"name": "地鶏らぁめん彩", "address": "和歌山県東牟婁郡串本町串本1735-64", "lat": 33.469440438852, "lon": 135.78152876484, "category": "ラーメン店", "category_id": "0100097", "time": ["11:00-14:00"], "star": 3.63, "review": 10}, {"name": "サンドリア", "address": "和歌山県東牟婁郡串本町串本2505", "lat": 33.47367271, "lon": 135.78376242, "category": "レストラン", "category_id": "0100111", "time": ["09:00-22:00"], "star": 3.73, "review": 24}, {"name": "料理 萬口", "address": "和歌山県東牟婁郡串本町串本42-17", "lat": 33.47458011, "lon": 135.78175407, "category": "和食店", "category_id": "0100126", "time": ["11:30-15:00", "17:30-20:30"], "star": 3.81, "review": 63}, {"name": "熊野灘", "address": "和歌山県東牟婁郡串本町サンゴ台1184-10 ホテルアンドリゾーツ 和歌山 串本", "lat": 33.480955093004, "lon": 135.78557080259, "category": "会席・懐石料理店", "category_id": "0101064", "time": ["11:30-14:00"], "star": 4.0, "review": 1}, {"name": "たこ焼き 桜", "address": "和歌山県東牟婁郡串本町串本1733-18", "lat": 33.4681882, "lon": 135.7816394, "category": "たこ焼き店", "category_id": "0100134", "time": [], "star": 0.0, "review": 0}, {"name": "呑", "address": "和歌山県東牟婁郡串本町串本33-22 岩田ビル 2F", "lat": 33.47525554249054, "lon": 135.78199103667686, "category": "居酒屋", "category_id": "0101495", "time": [], "star": 4.64, "review": 8}, {"name": "Book&Turkish Bazaar タイヨウのカフェ", "address": "和歌山県東牟婁郡串本町串本2079-2", "lat": 33.475954318848, "lon": 135.7841368549, "category": "カフェ・喫茶", "category_id": "0100344", "time": ["10:00-19:00"], "star": 4.03, "review": 12}, {"name": "串本旬彩おおはし", "address": "和歌山県東牟婁郡串本町串本2304", "lat": 33.471841838045, "lon": 135.7820642637, "category": "シーフード・海鮮料理店", "category_id": "0100542", "time": ["11:30-14:00", "17:30-21:00"], "star": 3.87, "review": 23}, {"name": "香蔵", "address": "和歌山県東牟婁郡串本町串本40-54", "lat": 33.474624998849, "lon": 135.78298265489, "category": "和食店", "category_id": "0100126", "time": ["17:30-23:00"], "star": 3.89, "review": 16}, {"name": "稲", "address": "和歌山県東牟婁郡串本町串本1757-6", "lat": 33.47299917, "lon": 135.78111217, "category": "シーフード・海鮮料理店", "category_id": "0100542", "time": ["12:00-13:30", "17:00-23:00"], "star": 3.65, "review": 5}, {"name": "ロン", "address": "和歌山県東牟婁郡串本町串本20-81", "lat": 33.47748259, "lon": 135.78481072, "category": "カフェ・喫茶", "category_id": "0100344", "time": ["07:00-14:30"], "star": 3.78, "review": 5}, {"name": "東うなぎ 串本支店", "address": "和歌山県東牟婁郡串本町串本10-12", "lat": 33.47637381, "lon": 135.7825268, "category": "うなぎ料理店", "category_id": "0100035", "time": ["11:00-14:00"], "star": 4.09, "review": 18}, {"name": "居酒屋よしくに", "address": "和歌山県東牟婁郡串本町鬮野川1160-3", "lat": 33.47793864, "lon": 135.78261488, "category": "居酒屋", "category_id": "0101495", "time": ["18:00-22:00"], "star": 3.73, "review": 12}, {"name": "炭火焼肉 匠", "address": "和歌山県東牟婁郡串本町33-21", "lat": 33.475242978848, "lon": 135.78201308489, "category": "焼肉店", "category_id": "0101963", "time": ["17:00-22:00"], "star": 3.91, "review": 7}, {"name": "FLOOD tacos and cafe", "address": "和歌山県東牟婁郡串本町串本2481", "lat": 33.47296799885, "lon": 135.78334038487, "category": "アメリカ料理店", "category_id": "0100255", "time": ["11:00-16:00", "18:00-20:00"], "star": 4.35, "review": 2}, {"name": "がんちゃん", "address": "和歌山県東牟婁郡串本町串本40-54", "lat": 33.474599028849, "lon": 135.78295882489, "category": "居酒屋", "category_id": "0101495", "time": [], "star": 3.0, "review": 18}], "カフェ": [{"name": "喫茶らる", "address": "和歌山県東牟婁郡串本町串本33-21 岩田ビル 2F", "lat": 33.475243538848, "lon": 135.78202953489, "category": "カフェ・喫茶", "category_id": "0100344", "time": ["08:30-16:30"], "star": 3.5, "review": 1}, {"name": "Book&Turkish Bazaar タイヨウのカフェ", "address": "和歌山県東牟婁郡串本町串本2079-2", "lat": 33.475954318848, "lon": 135.7841368549, "category": "カフェ・喫茶", "category_id": "0100344", "time": ["10:00-19:00"], "star": 4.03, "review": 12}, {"name": "メリー マム", "address": "和歌山県東牟婁郡串本町くじの川1245", "lat": 33.482306548846, "lon": 135.78822837496, "category": "カフェ・喫茶", "category_id": "0100344", "time": ["11:30-18:00"], "star": 4.34, "review": 3}, {"name": "エムズカフェアンドダイニング", "address": "和歌山県東牟婁郡串本町サンゴ台1107-10", "lat": 33.48379915, "lon": 135.78355249, "category": "カフェ・喫茶", "category_id": "0100344", "time": ["11:30-14:00", "18:00-22:00"], "star": 3.91, "review": 11}, {"name": "サンドリア", "address": "和歌山県東牟婁郡串本町串本2505", "lat": 33.47367271, "lon": 135.78376242, "category": "レストラン", "category_id": "0100111", "time": ["09:00-22:00"], "star": 3.73, "review": 24}, {"name": "ロン", "address": "和歌山県東牟婁郡串本町串本20-81", "lat": 33.47748259, "lon": 135.78481072, "category": "カフェ・喫茶", "category_id": "0100344", "time": ["07:00-14:30"], "star": 3.78, "review": 5}, {"name": "料理 萬口", "address": "和歌山県東牟婁郡串本町串本42-17", "lat": 33.47458011, "lon": 135.78175407, "category": "和食店", "category_id": "0100126", "time": ["11:30-15:00", "17:30-20:30"], "star": 3.81, "review": 63}, {"name": "カフェ&ランチ 未琉", "address": "和歌山県和歌山市-東牟婁郡串本町串本2481", "lat": 33.4729598, "lon": 135.7833312, "category": "カフェ・喫茶", "category_id": "0100344", "time": [], "star": 0.0, "review": 0}, {"name": "FLOOD tacos and cafe", "address": "和歌山県東牟婁郡串本町串本2481", "lat": 33.47296799885, "lon": 135.78334038487, "category": "アメリカ料理店", "category_id": "0100255", "time": ["11:00-16:00", "18:00-20:00"], "star": 4.35, "review": 2}, {"name": "彩り", "address": "和歌山県東牟婁郡串本町串本2497-101", "lat": 33.4731001, "lon": 135.7835814, "category": "カフェ・喫茶", "category_id": "0100344", "time": [], "star": 0.0, "review": 0}, {"name": "古民家カフェ こより", "address": "和歌山県東牟婁郡串本町串本996 NIPPONIA HOTEL 串本 熊本街道", "lat": 33.46847611326, "lon": 135.7783493396, "category": "カフェ・喫茶", "category_id": "0100344", "time": ["13:00-16:00"], "star": 3.33, "review": 2}, {"name": "純喫茶アミー", "address": "和歌山県東牟婁郡串本町串本1757-1", "lat": 33.4730711, "lon": 135.78126271, "category": "カフェ・喫茶", "category_id": "0100344", "time": [], "star": 0.0, "review": 0}, {"name": "カラオケ喫茶・絆", "address": "和歌山県東牟婁郡 串本町串本40-50", "lat": 33.47443112, "lon": 135.78294264, "category": "カフェ・喫茶", "category_id": "0100344", "time": [], "star": 0.0, "review": 0}, {"name": "喫茶レインボー", "address": "和歌山県東牟婁郡串本町串本1849", "lat": 33.47405239, "lon": 135.78210652, "category": "カフェ・喫茶", "category_id": "0100344", "time": [], "star": 0.0, "review": 0}, {"name": "喫茶・軽食らん", "address": "和歌山県東牟婁郡串本町串本1733-18", "lat": 33.46823135, "lon": 135.78164901, "category": "カフェ・喫茶", "category_id": "0100344", "time": [], "star": 4.0, "review": 1}, {"name": "紬カフェ タイヨウノカフェ", "address": "和歌山県東牟婁郡串本町串本 2079-2 TSUTAYA WAY 内タイヨウノカフェ", "lat": 33.46892166137695, "lon": 135.7806396484375, "category": "飲食店", "category_id": "0102732", "time": [], "star": 0.0, "review": 0}, {"name": "果林", "address": "和歌山県東牟婁郡串本町串本1734", "lat": 33.4688078, "lon": 135.7813371, "category": "カフェ・喫茶", "category_id": "0100344", "time": [], "star": 0.0, "review": 1}, {"name": "藍", "address": "和歌山県東牟婁郡串本町串本2299-1", "lat": 33.48088283, "lon": 135.78854634, "category": "カフェ・喫茶", "category_id": "0100344", "time": [], "star": 3.6, "review": 1}, {"name": "バーデイー", "address": "和歌山県東牟婁郡串本町串本2099", "lat": 33.4771709, "lon": 135.7853086, "category": "カフェ・喫茶", "category_id": "0100344", "time": [], "star": 0.0, "review": 0}, {"name": "カサブランカ", "address": "和歌山県東牟婁郡串本町串本1547", "lat": 33.470301, "lon": 135.780832, "category": "カフェ・喫茶", "category_id": "0100344", "time": [], "star": 0.0, "review": 0}], "ドラッグストア": [{"name": "エバグリーン 串本店", "address": "和歌山県東牟婁郡串本町串本1758", "lat": 33.4746473, "lon": 135.7836247, "category": "ドラッグストア", "category_id": "0200699", "time": ["09:00-23:00"], "star": 4.05, "review": 91}, {"name": "ドラッグセイムス 串本橋杭店", "address": "和歌山県東牟婁郡串本町串本2176", "lat": 33.4793163, "lon": 135.78633564, "category": "ドラッグストア", "category_id": "0200699", "time": ["08:00-22:00"], "star": 3.83, "review": 25}, {"name": "サンライトげんき薬局串本店", "address": "和歌山県東牟婁郡串本町串本1791-1", "lat": 33.47212426, "lon": 135.78120019, "category": "調剤薬局", "category_id": "0202315", "time": ["09:00-18:00"], "star": 0.0, "review": 0}, {"name": "中根薬局", "address": "和歌山県東牟婁郡串本町串本2098", "lat": 33.47768618, "lon": 135.78544983, "category": "調剤薬局", "category_id": "0202315", "time": [], "star": 0.0, "review": 0}, {"name": "有限会社ササヤ薬局", "address": "和歌山県東牟婁郡串本町串本1547-2", "lat": 33.47004587, "lon": 135.78087908, "category": "調剤薬局", "category_id": "0202315", "time": [], "star": 0.0, "review": 0}, {"name": "坂本薬品", "address": "和歌山県東牟婁郡串本町串本964-2", "lat": 33.46846049, "lon": 135.77978284, "category": "薬店", "category_id": "0202316", "time": [], "star": 0.0, "review": 0}, {"name": "エムシー薬品", "address": "和歌山県東牟婁郡 串本町串本1154", "lat": 33.4691876, "lon": 135.77528992, "category": "漢方", "category_id": "0201946", "time": [], "star": 0.0, "review": 0}, {"name": "尾崎漢方薬舗", "address": "和歌山県東牟婁郡 串本町串本1244", "lat": 33.46756816, "lon": 135.77865381, "category": "漢方", "category_id": "0201946", "time": [], "star": 0.0, "review": 0}], "ATM": [{"name": "三十三銀行 ATM オークワ串本店", "address": "和歌山県東牟婁郡串本町串本40-22", "lat": 33.4760463, "lon": 135.783061, "category": "ATM", "category_id": "0402785", "time": ["09:00-21:00"], "star": 0.0, "review": 0}, {"name": "紀陽銀行 ATM オークワ串本店", "address": "和歌山県東牟婁郡串本町串本40-22", "lat": 33.4759607, "lon": 135.78324, "category": "ATM", "category_id": "0402785", "time": [], "star": 0.0, "review": 0}, {"name": "紀陽銀行 ATM 串本郵便局", "address": "和歌山県東牟婁郡串本町串本2377", "lat": 33.4723833, "lon": 135.782291, "category": "ATM", "category_id": "0402785", "time": [], "star": 0.0, "review": 0}, {"name": "ゆうちょ銀行 ATM 串本郵便局", "address": "和歌山県東牟婁郡串本町串本2377", "lat": 33.4723585, "lon": 135.78232, "category": "ATM", "category_id": "0402785", "time": [], "star": 0.0, "review": 0}, {"name": "ゆうちょ銀行 ATM ファミリーマート串本駅前店内出張所", "address": "和歌山県東牟婁郡串本町串本2077", "lat": 33.4755142, "lon": 135.783537, "category": "ATM", "category_id": "0402785", "time": [], "star": 0.0, "review": 0}, {"name": "JAバンク ATM 紀南農業協同組合(JA紀南)串本支所", "address": "和歌山県東牟婁郡串本町串本1735-77", "lat": 33.4707422, "lon": 135.7811277, "category": "ATM", "category_id": "0402785", "time": [], "star": 0.0, "review": 0}, {"name": "ゆうちょ銀行 串本郵便局", "address": "和歌山県東牟婁郡串本町串本2377", "lat": 33.4723585, "lon": 135.78232, "category": "銀行", "category_id": "0402596", "time": [], "star": 0.0, "review": 0}, {"name": "JAバンク 紀南農業協同組合(JA紀南)串本支所", "address": "和歌山県東牟婁郡串本町串本1735-77", "lat": 33.4707712, "lon": 135.781184, "category": "銀行", "category_id": "0402596", "time": [], "star": 3.88, "review": 0}, {"name": "ローソン銀行 串本町串本共同出張所", "address": "和歌山県東牟婁郡串本町串本1824", "lat": 33.4728311, "lon": 135.782155, "category": "ATM", "category_id": "0402785", "time": ["00:00-24:00"], "star": 0.0, "review": 0}, {"name": "宝くじ ATM 紀陽銀行オークワ串本店", "address": "和歌山県東牟婁郡串本町串本40-22", "lat": 33.4760878, "lon": 135.783077, "category": "宝くじ売り場", "category_id": "0401442", "time": ["08:00-20:00"], "star": 0.0, "review": 0}, {"name": "きのくに信用金庫 串本支店", "address": "和歌山県東牟婁郡串本町串本1735", "lat": 33.4693562, "lon": 135.7812665, "category": "信用金庫", "category_id": "0401098", "time": ["09:00-15:00"], "star": 0.0, "review": 0}, {"name": "宝くじ ATM 紀陽銀行串本郵便局", "address": "和歌山県東牟婁郡串本町串本2377", "lat": 33.4723282, "lon": 135.782155, "category": "宝くじ売り場", "category_id": "0401442", "time": ["08:00-20:00"], "star": 0.0, "review": 0}, {"name": "宝くじ ATM 紀陽銀行串本支店", "address": "和歌山県東牟婁郡串本町サンゴ台690-5 串本町役場 1F", "lat": 33.4708397, "lon": 135.780559, "category": "宝くじ売り場", "category_id": "0401442", "time": ["08:00-20:00"], "star": 0.0, "review": 0}], "銭湯 温泉": [{"name": "串本温泉 サンゴの湯", "address": "和歌山県東牟婁郡串本町サンゴ台1123", "lat": 33.4796357, "lon": 135.7836859, "category": "日帰り入浴", "category_id": "0401679", "time": ["11:00-21:00"], "star": 4.0, "review": 9}, {"name": "ビジネスホテル串本 天然温泉 串本温泉", "address": "和歌山県東牟婁郡串本町串本1820-3", "lat": 33.47220314, "lon": 135.78187067, "category": "日帰り入浴", "category_id": "0401679", "time": ["16:00-22:00"], "star": 4.5, "review": 0}, {"name": "大江戸温泉物語 南紀串本", "address": "和歌山県東牟婁郡串本町串本2300-1", "lat": 33.47962691, "lon": 135.7883687, "category": "ホテル", "category_id": "0300124", "time": [], "star": 4.21, "review": 151}, {"name": "メルキュール和歌山串本リゾート&スパ", "address": "和歌山県東牟婁郡串本町サンゴ台1184-10", "lat": 33.4811217, "lon": 135.7857552, "category": "ホテル", "category_id": "0300124", "time": [], "star": 4.25, "review": 694}, {"name": "日帰り入浴 大江戸温泉物語 南紀串本", "address": "和歌山県東牟婁郡串本町串本2300-1", "lat": 33.47962691, "lon": 135.7883687, "category": "日帰り入浴", "category_id": "0401679", "time": ["07:00-10:00", "15:00-24:00"], "star": 0.0, "review": 0}], "スーパーマーケット": [{"name": "オークワ串本店", "address": "和歌山県東牟婁郡串本町串本40-22", "lat": 33.47606107, "lon": 135.78304701, "category": "スーパー", "category_id": "0200612", "time": ["09:00-23:00"], "star": 4.0, "review": 86}, {"name": "全日食チェーン ハイマート串本店", "address": "和歌山県東牟婁郡串本町串本1801", "lat": 33.4722448, "lon": 135.7814804, "category": "スーパー", "category_id": "0200612", "time": ["09:00-18:00"], "star": 0.0, "review": 0}, {"name": "エバグリーン 串本店", "address": "和歌山県東牟婁郡串本町串本1758", "lat": 33.4746473, "lon": 135.7836247, "category": "ドラッグストア", "category_id": "0200699", "time": ["09:00-23:00"], "star": 4.05, "review": 91}, {"name": "岡地かしわ店", "address": "和歌山県東牟婁郡串本町串本790-5", "lat": 33.4696659, "lon": 135.7763099, "category": "スーパー", "category_id": "0200612", "time": [], "star": 0.0, "review": 0}]}, "top_restaurant": {"name": "呑", "category": "居酒屋", "star": 4.64, "review": 8}}, {"name": "五十猛", "name_en": "", "lat": 35.192896, "lon": 132.440888, "osm_id": 0, "operator": "西日本旅客鉄道", "railway": "station", "wikidata": "Q5355692", "wikipedia_tag": "ja:五十猛駅", "lines": ["山陰本線"], "pref": "不明", "nearby_bus_stops": [], "source": "wikidata_补完", "nearby_pois": {"飲食店": [{"name": "海の店 ささき", "address": "島根県大田市五十猛町157-18", "lat": 35.19527684, "lon": 132.44511578, "category": "定食屋", "category_id": "0101441", "time": ["11:30-14:00"], "star": 3.85, "review": 14}, {"name": "ゆめみるキッチン", "address": "島根県大田市五十猛町 292-1", "lat": 35.192161560058594, "lon": 132.43724060058594, "category": "飲食店", "category_id": "0102732", "time": [], "star": 0.0, "review": 0}]}, "top_restaurant": {"name": "海の店 ささき", "category": "定食屋", "star": 3.85, "review": 14}}, {"name": "仁万", "name_en": "", "lat": 35.150716, "lon": 132.403345, "osm_id": 0, "operator": "西日本旅客鉄道", "railway": "station", "wikidata": "Q5355961", "wikipedia_tag": "ja:仁万駅", "lines": ["山陰本線"], "pref": "不明", "nearby_bus_stops": [], "source": "wikidata_补完", "nearby_pois": {"コンビニ": [{"name": "ローソン ポプラ石見銀山", "address": "島根県大田市仁摩町仁万529-1", "lat": 35.1490251, "lon": 132.4045222, "category": "コンビニ", "category_id": "0200487", "time": ["00:00-24:00"], "star": 3.99, "review": 10}], "ラーメン": [{"name": "なき砂らーめん", "address": "島根県大田市仁摩町天河内1110", "lat": 35.1440986, "lon": 132.40225341, "category": "ラーメン店", "category_id": "0100097", "time": [], "star": 4.08, "review": 5}, {"name": "れすとらん ココット", "address": "島根県大田市仁摩町天河内711-1", "lat": 35.14411953, "lon": 132.40225655, "category": "ラーメン店", "category_id": "0100097", "time": ["11:00-20:00"], "star": 3.75, "review": 18}], "飲食店": [{"name": "御食事処たお", "address": "島根県大田市仁摩町仁万1304-3", "lat": 35.15796969, "lon": 132.40833275, "category": "飲食店", "category_id": "0102732", "time": [], "star": 4.25, "review": 13}, {"name": "カフェ&スイーツ ラ・ピーニャ", "address": "島根県大田市仁摩町天河内1110", "lat": 35.144181056712, "lon": 132.40230905412, "category": "カフェ・喫茶", "category_id": "0100344", "time": [], "star": 4.5, "review": 6}, {"name": "桜彩七", "address": "島根県大田市仁摩町天河内721-4 ", "lat": 35.14565326, "lon": 132.40312785, "category": "レストラン", "category_id": "0100111", "time": ["08:00-09:30", "11:30-15:00", "18:00-22:00"], "star": 0.0, "review": 0}, {"name": "おさかな処 料理 かめや", "address": "島根県大田市仁摩町仁万明神1415-5", "lat": 35.15504184, "lon": 132.40430463, "category": "京料理店", "category_id": "0100174", "time": ["11:30-14:30", "17:30-22:00"], "star": 3.99, "review": 15}, {"name": "れすとらん ココット", "address": "島根県大田市仁摩町天河内711-1", "lat": 35.14411953, "lon": 132.40225655, "category": "ラーメン店", "category_id": "0100097", "time": ["11:00-20:00"], "star": 3.75, "review": 18}, {"name": "なき砂らーめん", "address": "島根県大田市仁摩町天河内1110", "lat": 35.1440986, "lon": 132.40225341, "category": "ラーメン店", "category_id": "0100097", "time": [], "star": 4.08, "review": 5}, {"name": "より道", "address": "島根県大田市仁摩町仁万1517", "lat": 35.1536013, "lon": 132.4009003, "category": "シーフード・海鮮料理店", "category_id": "0100542", "time": [], "star": 0.0, "review": 0}, {"name": "仁摩老人福祉センターびしゃもん", "address": "島根県大田市仁摩町天河内895-2", "lat": 35.14480477, "lon": 132.40934964, "category": "定食屋", "category_id": "0101441", "time": [], "star": 0.0, "review": 0}], "カフェ": [{"name": "カフェ&スイーツ ラ・ピーニャ", "address": "島根県大田市仁摩町天河内1110", "lat": 35.144181056712, "lon": 132.40230905412, "category": "カフェ・喫茶", "category_id": "0100344", "time": [], "star": 4.5, "review": 6}, {"name": "れすとらん ココット", "address": "島根県大田市仁摩町天河内711-1", "lat": 35.14411953, "lon": 132.40225655, "category": "ラーメン店", "category_id": "0100097", "time": ["11:00-20:00"], "star": 3.75, "review": 18}], "ドラッグストア": [{"name": "ファーマシィ薬局 さかえ", "address": "島根県大田市仁摩町仁万562-1", "lat": 35.14871402, "lon": 132.40658008, "category": "調剤薬局", "category_id": "0202315", "time": [], "star": 0.0, "review": 0}, {"name": "にま調剤薬局", "address": "島根県大田市仁摩町仁万上本町860", "lat": 35.15358849, "lon": 132.40158894, "category": "調剤薬局", "category_id": "0202315", "time": [], "star": 0.0, "review": 0}], "ATM": [{"name": "ゆうちょ銀行 ATM 仁万郵便局", "address": "島根県大田市仁摩町仁万850-11", "lat": 35.1531086, "lon": 132.402175, "category": "ATM", "category_id": "0402785", "time": [], "star": 0.0, "review": 0}, {"name": "山陰合同銀行 ATM 大田市仁摩支所", "address": "島根県大田市仁摩町仁万562-3 大田市仁摩支所", "lat": 35.1484038, "lon": 132.406541, "category": "ATM", "category_id": "0402785", "time": [], "star": 0.0, "review": 0}, {"name": "JAバンク ATM 島根県農業協同組合(JAしまね)仁摩支店", "address": "島根県大田市仁摩町仁万475-1", "lat": 35.147503, "lon": 132.4070303, "category": "ATM", "category_id": "0402785", "time": [], "star": 0.0, "review": 0}, {"name": "ゆうちょ銀行 仁万郵便局", "address": "島根県大田市仁摩町仁万850-11", "lat": 35.1531086, "lon": 132.402175, "category": "銀行", "category_id": "0402596", "time": [], "star": 0.0, "review": 0}, {"name": "ローソン銀行 ポプラ石見銀山共同出張所", "address": "島根県大田市仁摩町仁万529-1", "lat": 35.149143, "lon": 132.404551, "category": "ATM", "category_id": "0402785", "time": ["00:00-24:00"], "star": 0.0, "review": 0}, {"name": "JAバンク 島根県農業協同組合(JAしまね)仁摩支店", "address": "島根県大田市仁摩町仁万475-1", "lat": 35.1475612, "lon": 132.407052, "category": "銀行", "category_id": "0402596", "time": [], "star": 0.0, "review": 0}, {"name": "島根中央信用金庫 仁摩支店", "address": "島根県大田市仁摩町仁万827-4", "lat": 35.1523108, "lon": 132.4032305, "category": "信用金庫", "category_id": "0401098", "time": [], "star": 0.0, "review": 0}, {"name": "宝くじ ATM 山陰合同銀行大田支店大田市仁摩支所出張所", "address": "島根県大田市仁摩町仁万562-3 大田市仁摩支所", "lat": 35.1483363, "lon": 132.406646, "category": "宝くじ売り場", "category_id": "0401442", "time": ["09:00-19:00"], "star": 0.0, "review": 0}], "スーパーマーケット": [{"name": "有限会社石東酒販 ビーバード店", "address": "島根県大田市仁摩町仁万 810番地2 仁摩ショッピングセンター1階", "lat": 35.15199279785156, "lon": 132.4044952392578, "category": "スーパー", "category_id": "0200612", "time": ["09:30-19:00"], "star": 4.2, "review": 9}, {"name": "仁摩ショッピングセンター", "address": "島根県大田市仁摩町仁万810-2", "lat": 35.1521132, "lon": 132.4045958, "category": "スーパー", "category_id": "0200612", "time": [], "star": 0.0, "review": 0}]}, "top_restaurant": {"name": "カフェ&スイーツ ラ・ピーニャ", "category": "カフェ・喫茶", "star": 4.5, "review": 6}}, {"name": "佐奈", "name_en": "", "lat": 34.478561111, "lon": 136.539072222, "osm_id": 0, "operator": "東海旅客鉄道", "railway": "station", "wikidata": "Q265438", "wikipedia_tag": "ja:佐奈駅", "lines": ["紀勢本線"], "pref": "不明", "nearby_bus_stops": [], "source": "wikidata_补完", "nearby_pois": {"コンビニ": [{"name": "ファミリーマート たき五桂店", "address": "三重県多気郡多気町平谷39-3", "lat": 34.478041, "lon": 136.5418496, "category": "コンビニ", "category_id": "0200487", "time": ["00:00-24:00"], "star": 3.91, "review": 13}], "飲食店": [{"name": "bois de rose", "address": "三重県多気郡多気町五桂48-1", "lat": 34.480304343481, "lon": 136.54552237287, "category": "カフェ・喫茶", "category_id": "0100344", "time": [], "star": 4.0, "review": 2}, {"name": "ドライブイン佐奈", "address": "三重県多気郡多気町平谷373", "lat": 34.477375498453, "lon": 136.53887302449, "category": "レストラン", "category_id": "0100111", "time": [], "star": 4.18, "review": 21}, {"name": "柑里", "address": "三重県多気郡多気町平谷350", "lat": 34.47813956, "lon": 136.54003726, "category": "和食店", "category_id": "0100126", "time": ["11:00-15:15"], "star": 4.08, "review": 22}, {"name": "レストラン アン", "address": "三重県多気郡多気町平谷583", "lat": 34.47550084, "lon": 136.53559146, "category": "レストラン", "category_id": "0100111", "time": ["11:00-20:00"], "star": 3.93, "review": 14}, {"name": "オレンジスタイル", "address": "三重県多気郡多気町平谷350", "lat": 34.478017, "lon": 136.540369, "category": "", "category_id": "", "time": [], "star": 4.8, "review": 5}, {"name": "matsumoto cafe", "address": "三重県多気郡多気町前村1551 松本農場", "lat": 34.471740350515, "lon": 136.53390106546, "category": "カフェ・喫茶", "category_id": "0100344", "time": ["09:00-14:00"], "star": 3.92, "review": 10}, {"name": "ヴィソン 笠庵 賛否両論 VISON店", "address": "三重県多気郡多気町ヴィソン672-1 本草湯2", "lat": 34.47637939453125, "lon": 136.53160095214844, "category": "和食店", "category_id": "0100126", "time": [], "star": 4.29, "review": 7}, {"name": "パブ花瑠男", "address": "三重県多気郡多気町平谷20-1", "lat": 34.47901202, "lon": 136.54271592, "category": "洋食店", "category_id": "0100129", "time": [], "star": 0.0, "review": 0}], "カフェ": [{"name": "bois de rose", "address": "三重県多気郡多気町五桂48-1", "lat": 34.480304343481, "lon": 136.54552237287, "category": "カフェ・喫茶", "category_id": "0100344", "time": [], "star": 4.0, "review": 2}, {"name": "matsumoto cafe", "address": "三重県多気郡多気町前村1551 松本農場", "lat": 34.471740350515, "lon": 136.53390106546, "category": "カフェ・喫茶", "category_id": "0100344", "time": ["09:00-14:00"], "star": 3.92, "review": 10}, {"name": "ドライブイン佐奈", "address": "三重県多気郡多気町平谷373", "lat": 34.477375498453, "lon": 136.53887302449, "category": "レストラン", "category_id": "0100111", "time": [], "star": 4.18, "review": 21}, {"name": "柑里", "address": "三重県多気郡多気町平谷350", "lat": 34.47813956, "lon": 136.54003726, "category": "和食店", "category_id": "0100126", "time": ["11:00-15:15"], "star": 4.08, "review": 22}], "ATM": [{"name": "銀行ATM イーネット ファミリーマートたき五桂 共同出張所", "address": "三重県多気郡多気町平谷39-3 ", "lat": 34.47802156, "lon": 136.54183294, "category": "ATM", "category_id": "0402785", "time": ["00:00-24:00"], "star": 4.0, "review": 1}, {"name": "ゆうちょ銀行 ATM 佐奈郵便局", "address": "三重県多気郡多気町仁田208", "lat": 34.4825578, "lon": 136.548151, "category": "ATM", "category_id": "0402785", "time": [], "star": 0.0, "review": 0}, {"name": "ゆうちょ銀行 佐奈郵便局", "address": "三重県多気郡多気町仁田208", "lat": 34.4825578, "lon": 136.548151, "category": "銀行", "category_id": "0402596", "time": [], "star": 3.0, "review": 0}]}, "top_restaurant": {"name": "オレンジスタイル", "category": "", "star": 4.8, "review": 5}}, {"name": "伊勢市", "name_en": "", "lat": 34.4918, "lon": 136.7098, "osm_id": 0, "operator": "東海旅客鉄道", "railway": "station", "wikidata": "Q6079748", "wikipedia_tag": "ja:伊勢市駅", "lines": ["近鉄山田線", "参宮線"], "pref": "不明", "nearby_bus_stops": [], "source": "wikidata_补完", "nearby_pois": {"コンビニ": [{"name": "ファミリーマート 近鉄伊勢市駅4番ホーム店", "address": "三重県伊勢市吹上1-1-57", "lat": 34.4921494, "lon": 136.7101944, "category": "コンビニ", "category_id": "0200487", "time": ["06:00-20:00"], "star": 3.77, "review": 26}, {"name": "ファミリーマート 伊勢本町店", "address": "三重県伊勢市本町5-19", "lat": 34.489983, "lon": 136.7081363, "category": "コンビニ", "category_id": "0200487", "time": ["00:00-24:00"], "star": 4.34, "review": 30}, {"name": "ローソン 伊勢岩渕", "address": "三重県伊勢市岩渕2-6-7", "lat": 34.4868031, "lon": 136.7151106, "category": "コンビニ", "category_id": "0200487", "time": ["00:00-24:00"], "star": 4.09, "review": 38}, {"name": "ファミリーマート 伊勢河崎店", "address": "三重県伊勢市河崎2-18-3", "lat": 34.49598298327429, "lon": 136.71474094408651, "category": "コンビニ", "category_id": "0200487", "time": ["00:00-24:00"], "star": 4.23, "review": 4}, {"name": "ローソン 伊勢一之木", "address": "三重県伊勢市一之木1-2046", "lat": 34.4939268, "lon": 136.7050616, "category": "コンビニ", "category_id": "0200487", "time": ["00:00-24:00"], "star": 4.04, "review": 47}, {"name": "セブンイレブン 伊勢市岩渕2丁目", "address": "三重県伊勢市岩渕2-2-26", "lat": 34.487253, "lon": 136.713408, "category": "コンビニ", "category_id": "0200487", "time": ["00:00-24:00"], "star": 4.57, "review": 1}, {"name": "ファミリーマート 伊勢外宮西店", "address": "三重県伊勢市八日市場町18-20", "lat": 34.4904828, "lon": 136.7024368, "category": "コンビニ", "category_id": "0200487", "time": ["00:00-24:00"], "star": 4.16, "review": 36}, {"name": "ファミリーマート 近鉄宇治山田駅改札外店", "address": "三重県伊勢市岩渕2-1-13", "lat": 34.4884639, "lon": 136.7137358, "category": "コンビニ", "category_id": "0200487", "time": ["06:00-21:00"], "star": 4.14, "review": 41}, {"name": "ファミリーマート伊勢河崎店", "address": "三重県伊勢市河崎2丁目18-3", "lat": 34.49601707, "lon": 136.71475589, "category": "コンビニ", "category_id": "0200487", "time": [], "star": 4.47, "review": 17}, {"name": "ミニストップ 伊勢宮後店", "address": "三重県伊勢市宮後3-8-53", "lat": 34.4988151, "lon": 136.7096166, "category": "コンビニ", "category_id": "0200487", "time": [], "star": 3.81, "review": 30}, {"name": "セブンイレブン 伊勢市曽祢2丁目", "address": "三重県伊勢市曽祢2-2-1", "lat": 34.4951293, "lon": 136.7001703, "category": "コンビニ", "category_id": "0200487", "time": ["00:00-24:00"], "star": 4.15, "review": 81}, {"name": "伊勢パールピアホテル", "address": "三重県伊勢市宮後2-26-22", "lat": 34.4917718, "lon": 136.7124081, "category": "ホテル", "category_id": "0300124", "time": [], "star": 4.35, "review": 89}, {"name": "コンフォートホテルERA伊勢", "address": "三重県伊勢市吹上1丁目3-26", "lat": 34.4898942, "lon": 136.7096889, "category": "ホテル", "category_id": "0300124", "time": [], "star": 4.27, "review": 276}, {"name": "伊勢シティホテル", "address": "三重県伊勢市吹上1-11-31", "lat": 34.491058, "lon": 136.7122331, "category": "ビジネスホテル", "category_id": "0300758", "time": ["00:00-24:00"], "star": 3.72, "review": 70}, {"name": "伊勢外宮参道 伊勢神泉", "address": "三重県伊勢市本町1-1", "lat": 34.49056325, "lon": 136.70860153, "category": "宿泊施設", "category_id": "0300120", "time": [], "star": 4.5, "review": 295}, {"name": "三交イン伊勢市駅前", "address": "三重県伊勢市宮後1丁目1-1", "lat": 34.4914689, "lon": 136.7084835, "category": "ビジネスホテル", "category_id": "0300758", "time": ["00:00-23:59"], "star": 4.11, "review": 124}, {"name": "fav 伊勢", "address": "三重県伊勢市一之木1-3-7 チェックイン前、チェックアウト後の荷物預かり不可 駐車場予約不可、当日先着順", "lat": 34.4929242, "lon": 136.7046422, "category": "ホテル", "category_id": "0300124", "time": ["00:00-24:00"], "star": 3.89, "review": 61}, {"name": "ビジネスホテル山本", "address": "三重県伊勢市本町6-19", "lat": 34.4896747, "lon": 136.7075669, "category": "ビジネスホテル", "category_id": "0300758", "time": [], "star": 4.11, "review": 41}, {"name": "ぎゅーとら TRY mart.八間通店", "address": "三重県伊勢市吹上2-5-3", "lat": 34.4914107, "lon": 136.7130691, "category": "スーパー", "category_id": "0200612", "time": ["09:00-21:00"], "star": 3.69, "review": 143}, {"name": "東横INN伊勢市駅", "address": "三重県伊勢市大世古2-9-11", "lat": 34.4963153, "lon": 136.7032589, "category": "ビジネスホテル", "category_id": "0300758", "time": [], "star": 4.01, "review": 88}], "ラーメン": [{"name": "goshichiya", "address": "三重県伊勢市吹上1-3-13 つるやビル 1F", "lat": 34.48991490368531, "lon": 136.71018520409186, "category": "ラーメン店", "category_id": "0100097", "time": ["11:30-14:30"], "star": 4.47, "review": 8}, {"name": "蔵deらーめん", "address": "三重県伊勢市宮後1-9-17", "lat": 34.49181881, "lon": 136.70586704, "category": "ラーメン店", "category_id": "0100097", "time": ["11:00-15:00", "17:00-22:00"], "star": 4.11, "review": 97}, {"name": "吉風", "address": "三重県伊勢市宮後2-25-3", "lat": 34.49237718, "lon": 136.71034719, "category": "飲食店", "category_id": "0102732", "time": [], "star": 4.17, "review": 32}, {"name": "RYU-竜", "address": "三重県伊勢市岩渕2-2-18 宇治山田ショッピングセンター", "lat": 34.487389306551, "lon": 136.71401444231, "category": "ラーメン店", "category_id": "0100097", "time": ["11:15-15:00", "17:40-21:00"], "star": 3.8, "review": 20}, {"name": "ちゅうかそば めんめん", "address": "岩渕1-16-1", "lat": 34.486653, "lon": 136.71144431, "category": "ラーメン店", "category_id": "0100097", "time": [], "star": 4.2, "review": 4}, {"name": "ラー麺 あしょろ", "address": "三重県伊勢市神久1丁目4-20", "lat": 34.48894871, "lon": 136.71859947, "category": "ラーメン店", "category_id": "0100097", "time": ["11:30-23:00"], "star": 3.27, "review": 17}, {"name": "拉麺萬", "address": "三重県伊勢市吹上2丁目4", "lat": 34.49123519, "lon": 136.71280167, "category": "飲食店", "category_id": "0102732", "time": ["18:00-24:00"], "star": 4.0, "review": 0}, {"name": "おおさかや", "address": "三重県伊勢市吹上1-8-18", "lat": 34.48997616, "lon": 136.71150625, "category": "うどん店", "category_id": "0100033", "time": ["11:00-14:00"], "star": 3.98, "review": 13}, {"name": "野杏", "address": "三重県伊勢市一之木1-1-28", "lat": 34.49362576, "lon": 136.70541597, "category": "中華料理店", "category_id": "0100990", "time": ["11:30-14:30", "17:30-21:30"], "star": 3.98, "review": 20}, {"name": "拉麺&小皿中華酒家 九龍", "address": "三重県伊勢市一之木2丁目10-7", "lat": 34.49525161, "lon": 136.70449771, "category": "中華料理店", "category_id": "0100990", "time": ["18:00-26:00"], "star": 0.0, "review": 0}, {"name": "若草堂", "address": "三重県伊勢市本町5-1", "lat": 34.49017744, "lon": 136.70862874, "category": "うどん店", "category_id": "0100033", "time": ["06:30-19:00"], "star": 3.96, "review": 33}, {"name": "らーめん屋 だん兵衛", "address": "三重県伊勢市一之木2-11-13", "lat": 34.49571821, "lon": 136.7044727, "category": "飲食店", "category_id": "0102732", "time": [], "star": 0.0, "review": 0}, {"name": "ハーフクレイジイ", "address": "三重県伊勢市宮後1-4-25", "lat": 34.49241321, "lon": 136.70733357, "category": "居酒屋", "category_id": "0101495", "time": ["17:30-23:00"], "star": 4.08, "review": 9}, {"name": "糀屋 本店", "address": "三重県伊勢市宮後1-10-39", "lat": 34.491076528497, "lon": 136.70570185451, "category": "プリン店", "category_id": "0102972", "time": ["09:30-17:00"], "star": 4.14, "review": 46}, {"name": "福野屋", "address": "三重県伊勢市河崎3-2-1", "lat": 34.49211017, "lon": 136.71664214, "category": "麺料理店", "category_id": "0101175", "time": ["11:30-21:00"], "star": 3.75, "review": 15}, {"name": "松阪牛らーめん やま田", "address": "三重県伊勢市本町5-6", "lat": 34.490171938499, "lon": 136.7081080745, "category": "飲食店", "category_id": "0102732", "time": ["11:30-14:00", "18:00-21:30"], "star": 0.0, "review": 0}, {"name": "洋風ダイニングバー 町家バル", "address": "三重県伊勢市吹上1-5-24", "lat": 34.48939656826993, "lon": 136.70940300217552, "category": "ダイニングバー", "category_id": "0100645", "time": ["17:00-24:00"], "star": 4.0, "review": 19}, {"name": "えな蔵", "address": "三重県伊勢市吹上1丁目3-28", "lat": 34.49006165, "lon": 136.70941561, "category": "飲食店", "category_id": "0102732", "time": ["19:00-23:00"], "star": 0.0, "review": 0}, {"name": "つたや", "address": "三重県伊勢市河崎2-22-24", "lat": 34.4963213, "lon": 136.7170937, "category": "うどん店", "category_id": "0100033", "time": ["11:00-16:00"], "star": 4.29, "review": 61}, {"name": "花よりだんご", "address": "三重県伊勢市岩渕1-14-10", "lat": 34.48766151, "lon": 136.7126342, "category": "お好み焼き店", "category_id": "0100046", "time": ["12:00-21:00"], "star": 3.78, "review": 8}], "飲食店": [{"name": "こみせ", "address": "三重県伊勢市宮後2-25-3 山本ビル1階", "lat": 34.492369820951, "lon": 136.71035090614, "category": "居酒屋", "category_id": "0101495", "time": ["17:00-22:30"], "star": 3.48, "review": 5}, {"name": "日本料理 伊せ吟", "address": "三重県伊勢市本町1-1 1F", "lat": 34.490623034876, "lon": 136.70872112192, "category": "和食店", "category_id": "0100126", "time": ["07:00-11:00", "18:00-22:00"], "star": 4.09, "review": 11}, {"name": "酒場森下 別館", "address": "三重県伊勢市本町2-6山雄ビル 2F", "lat": 34.490708, "lon": 136.707948, "category": "居酒屋", "category_id": "0101495", "time": ["17:00-23:00"], "star": 4.46, "review": 10}, {"name": "光林", "address": "三重県伊勢市宮後1-4-25", "lat": 34.492457330455, "lon": 136.70725759144, "category": "カフェ・喫茶", "category_id": "0100344", "time": [], "star": 4.17, "review": 3}, {"name": "コンフォートライブラリーカフェ", "address": "三重県伊勢市吹上1-3-26 コンフォートホテル 1F", "lat": 34.489899241254, "lon": 136.70974301482, "category": "カフェ・喫茶", "category_id": "0100344", "time": ["10:00-24:00"], "star": 3.38, "review": 4}, {"name": "Kamon", "address": "三重県伊勢市本町7-6", "lat": 34.490116568498, "lon": 136.7068330245, "category": "イタリア料理店", "category_id": "0100263", "time": ["18:30-24:00"], "star": 3.61, "review": 8}, {"name": "bar MILLE", "address": "三重県伊勢市本町2-7", "lat": 34.490675548498, "lon": 136.7079014745, "category": "ワインバー", "category_id": "0100954", "time": ["18:00-25:00"], "star": 4.22, "review": 5}, {"name": "松阪牛ホルモン 創", "address": "三重県伊勢市吹上1-3-28", "lat": 34.490056808499, "lon": 136.7094303845, "category": "焼肉店", "category_id": "0101963", "time": [], "star": 4.23, "review": 5}, {"name": "ハート アンド ソウル", "address": "三重県伊勢市宮後2-17-14", "lat": 34.493322918498, "lon": 136.71124004453, "category": "ダイニングバー", "category_id": "0100645", "time": ["18:00-25:00"], "star": 3.8, "review": 2}, {"name": "ハートクラフトバーガーズ", "address": "三重県伊勢市宮後2-17-14", "lat": 34.493326648498, "lon": 136.71122672453, "category": "ハンバーガー店", "category_id": "0100722", "time": ["11:30-14:30"], "star": 3.55, "review": 4}, {"name": "伊勢二", "address": "三重県伊勢市宮後1-7-35 2F", "lat": 34.491579138498, "lon": 136.70796237451, "category": "居酒屋", "category_id": "0101495", "time": ["17:00-22:30"], "star": 3.7, "review": 1}, {"name": "ラスパパス", "address": "三重県伊勢市吹上1-3-6 伊勢駅マーケット", "lat": 34.490118851668, "lon": 136.70961577791, "category": "スペイン料理店", "category_id": "0100581", "time": [], "star": 0.0, "review": 0}, {"name": "伊勢外宮カウンターすき焼きおりにく", "address": "三重県伊勢市本町9-241F", "lat": 34.489903, "lon": 136.704858, "category": "すき焼き店", "category_id": "0100100", "time": ["11:00-14:30"], "star": 4.31, "review": 9}, {"name": "河崎コムズ", "address": "三重県伊勢市河崎2-1-8", "lat": 34.492835728499, "lon": 136.71373868452, "category": "おでん店", "category_id": "0100040", "time": ["17:00-22:00"], "star": 4.17, "review": 3}, {"name": "駅", "address": "三重県伊勢市宮後2-25-3", "lat": 34.492387395077, "lon": 136.71035675994, "category": "焼き鳥店", "category_id": "0101960", "time": [], "star": 0.0, "review": 0}, {"name": "ザ クール ジョジョ", "address": "三重県伊勢市吹上1-8-35", "lat": 34.490165748499, "lon": 136.7108012245, "category": "パブ", "category_id": "0100229", "time": ["11:00-17:00"], "star": 3.3, "review": 2}, {"name": "のらくら", "address": "三重県伊勢市吹上1-3-28", "lat": 34.490066509595, "lon": 136.70944556933, "category": "バー", "category_id": "0100536", "time": [], "star": 0.0, "review": 0}, {"name": "SPICE SALON SUZUKI", "address": "三重県伊勢市吹上1-3-13", "lat": 34.489935273055, "lon": 136.71016647055, "category": "居酒屋", "category_id": "0101495", "time": [], "star": 0.0, "review": 0}, {"name": "10DER'S", "address": "三重県伊勢市岩渕1-6-17", "lat": 34.487610938501, "lon": 136.71027247447, "category": "メキシコ料理店", "category_id": "0100895", "time": ["11:00-15:00", "18:00-22:00"], "star": 3.6, "review": 5}, {"name": "呉屋", "address": "三重県伊勢市岩渕2-8-1", "lat": 34.489059408501, "lon": 136.71444738448, "category": "ワインバー", "category_id": "0100954", "time": ["18:00-25:00"], "star": 4.33, "review": 3}], "カフェ": [{"name": "光林", "address": "三重県伊勢市宮後1-4-25", "lat": 34.492457330455, "lon": 136.70725759144, "category": "カフェ・喫茶", "category_id": "0100344", "time": [], "star": 4.17, "review": 3}, {"name": "コンフォートライブラリーカフェ", "address": "三重県伊勢市吹上1-3-26 コンフォートホテル 1F", "lat": 34.489899241254, "lon": 136.70974301482, "category": "カフェ・喫茶", "category_id": "0100344", "time": ["10:00-24:00"], "star": 3.38, "review": 4}, {"name": "参道TERRACE", "address": "三重県伊勢市本町1 ", "lat": 34.49058715, "lon": 136.70904731, "category": "カフェ・喫茶", "category_id": "0100344", "time": ["10:00-18:00"], "star": 4.25, "review": 123}, {"name": "参道テラス", "address": "三重県伊勢市本町1-1 ホテル神泉", "lat": 34.4906635, "lon": 136.70899815, "category": "カフェ・喫茶", "category_id": "0100344", "time": ["10:00-18:00"], "star": 3.59, "review": 9}, {"name": "Cafeわっく", "address": "三重県伊勢市河崎2-6-8", "lat": 34.493467618499, "lon": 136.71511258453, "category": "カフェ・喫茶", "category_id": "0100344", "time": ["11:00-21:00"], "star": 4.29, "review": 31}, {"name": "アマミリビング", "address": "三重県伊勢市宮後1-7-37", "lat": 34.49134393, "lon": 136.70803212, "category": "カフェ・喫茶", "category_id": "0100344", "time": ["18:00-25:00"], "star": 4.0, "review": 30}, {"name": "jamise", "address": "三重県伊勢市宮後1-6-30", "lat": 34.4921993498, "lon": 136.70753078, "category": "カフェ・喫茶", "category_id": "0100344", "time": ["11:30-14:00", "18:00-23:00"], "star": 4.39, "review": 21}, {"name": "カラオケ喫茶 お笑い横丁", "address": "三重県伊勢市吹上1丁目3-12", "lat": 34.4899748, "lon": 136.710133, "category": "カフェ・喫茶", "category_id": "0100344", "time": [], "star": 4.5, "review": 0}, {"name": "オブザムーン", "address": "三重県伊勢市八日市場町2-11", "lat": 34.49168143769, "lon": 136.70071767336, "category": "カフェ・喫茶", "category_id": "0100344", "time": ["13:00-18:00"], "star": 3.8, "review": 3}, {"name": "寿", "address": "三重県伊勢市宮後1-2-24", "lat": 34.49289875182204, "lon": 136.7075584594954, "category": "カフェ・喫茶", "category_id": "0100344", "time": ["11:00-15:00", "17:00-21:00"], "star": 4.24, "review": 19}, {"name": "cafe cachette", "address": "三重県伊勢市船江1-1-27 kouyousou 103", "lat": 34.496723139157, "lon": 136.71305703494, "category": "カフェ・喫茶", "category_id": "0100344", "time": ["11:00-17:00"], "star": 4.27, "review": 15}, {"name": "うみね", "address": "三重県伊勢市一之木3-11-32", "lat": 34.497018808494, "lon": 136.70619207457, "category": "カフェ・喫茶", "category_id": "0100344", "time": [], "star": 0.0, "review": 0}, {"name": "カミノコーヒー", "address": "三重県伊勢市吹上1-4-13", "lat": 34.48959643, "lon": 136.70909175, "category": "コーヒー店", "category_id": "0100496", "time": ["10:00-17:00"], "star": 4.11, "review": 34}, {"name": "カフェ ビアンカ", "address": "三重県伊勢市岩渕1-1-3", "lat": 34.489180926426556, "lon": 136.70799804155374, "category": "カフェ・喫茶", "category_id": "0100344", "time": ["07:00-17:00"], "star": 3.89, "review": 30}, {"name": "木下茶園 外宮前店　", "address": "三重県伊勢市岩渕1-1-31 豊恩館", "lat": 34.488405118499, "lon": 136.70756436448, "category": "スイーツ店", "category_id": "0100534", "time": ["11:00-17:00"], "star": 4.25, "review": 139}, {"name": "喫茶と雑貨Dali", "address": "三重県伊勢市本町6-13 つやだビル1F", "lat": 34.48922476, "lon": 136.70724192, "category": "カフェ・喫茶", "category_id": "0100344", "time": [], "star": 4.56, "review": 18}, {"name": "マイカフェ", "address": "三重県伊勢市本町5-3 浦田ビル 2F", "lat": 34.4901314, "lon": 136.7085066, "category": "カフェ・喫茶", "category_id": "0100344", "time": [], "star": 4.75, "review": 1}, {"name": "カフェベル", "address": "三重県伊勢市岩渕1-15-11 岡出ビル 2F", "lat": 34.487074328502, "lon": 136.71241681446, "category": "飲食店", "category_id": "0102732", "time": [], "star": 3.8, "review": 1}, {"name": "fufura", "address": "三重県伊勢市宮後2丁目2-9", "lat": 34.49348945, "lon": 136.70754078, "category": "カフェ・喫茶", "category_id": "0100344", "time": ["11:00-17:00"], "star": 4.32, "review": 27}, {"name": "Cafe&Bar TaFFy", "address": "三重県伊勢市岩渕2-1-11", "lat": 34.488956407718, "lon": 136.71428332148, "category": "カフェ・喫茶", "category_id": "0100344", "time": [], "star": 0.0, "review": 0}], "ドラッグストア": [{"name": "ウエルシア伊勢河崎店", "address": "三重県伊勢市河崎1-3-20", "lat": 34.493192, "lon": 136.71275, "category": "ドラッグストア", "category_id": "0200699", "time": ["04:00-26:00"], "star": 4.01, "review": 30}, {"name": "スギ薬局 伊勢宮後店", "address": "三重県伊勢市宮後3-8-56", "lat": 34.4985041, "lon": 136.7094666, "category": "ドラッグストア", "category_id": "0200699", "time": ["09:00-22:00"], "star": 4.11, "review": 22}, {"name": "ウエルシア伊勢神久店", "address": "三重県伊勢市神久3-2-22", "lat": 34.494182, "lon": 136.717806, "category": "ドラッグストア", "category_id": "0200699", "time": ["08:00-23:00"], "star": 4.22, "review": 13}, {"name": "スギ薬局 伊勢船江店", "address": "三重県伊勢市船江2-4-25", "lat": 34.4985092, "lon": 136.715753, "category": "ドラッグストア", "category_id": "0200699", "time": [], "star": 4.67, "review": 0}, {"name": "いせ本町薬局", "address": "三重県伊勢市本町3-15", "lat": 34.49089008, "lon": 136.70691028, "category": "調剤薬局", "category_id": "0202315", "time": ["09:00-18:30"], "star": 0.0, "review": 0}, {"name": "スギ薬局 伊勢宮後店", "address": "三重県伊勢市宮後3-8-56", "lat": 34.49848, "lon": 136.709479, "category": "調剤薬局", "category_id": "0202315", "time": [], "star": 4.38, "review": 8}, {"name": "スギ薬局 伊勢船江店", "address": "三重県伊勢市船江2-4-25", "lat": 34.4985237, "lon": 136.7157438, "category": "調剤薬局", "category_id": "0202315", "time": [], "star": 4.0, "review": 0}, {"name": "みどり調剤薬局岩渕店", "address": "三重県伊勢市吹上1丁目10-16", "lat": 34.48895077, "lon": 136.71238117, "category": "調剤薬局", "category_id": "0202315", "time": [], "star": 0.0, "review": 0}, {"name": "あおぞら薬局", "address": "三重県伊勢市河崎2丁目17", "lat": 34.49545467, "lon": 136.71519059, "category": "調剤薬局", "category_id": "0202315", "time": ["09:00-18:30"], "star": 4.0, "review": 0}, {"name": "ココカラファイン薬局 日赤前店", "address": "三重県伊勢市船江1-10-10", "lat": 34.49991775, "lon": 136.71056373, "category": "調剤薬局", "category_id": "0202315", "time": ["09:00-17:30"], "star": 4.0, "review": 2}, {"name": "新生堂", "address": "三重県伊勢市曽祢2丁目10-17", "lat": 34.4962272, "lon": 136.70145602, "category": "調剤薬局", "category_id": "0202315", "time": [], "star": 4.5, "review": 1}, {"name": "伊勢調剤薬局八間通店", "address": "三重県伊勢市船江1丁目2-35", "lat": 34.4978328, "lon": 136.7146827, "category": "調剤薬局", "category_id": "0202315", "time": ["09:00-19:00"], "star": 4.0, "review": 0}, {"name": "有限会社好生館薬局", "address": "三重県伊勢市本町2-23", "lat": 34.49101759, "lon": 136.70814878, "category": "調剤薬局", "category_id": "0202315", "time": [], "star": 0.0, "review": 0}, {"name": "伊勢調剤薬局", "address": "三重県伊勢市岩渕2丁目7-8", "lat": 34.48791404, "lon": 136.71520202, "category": "調剤薬局", "category_id": "0202315", "time": ["09:00-18:30"], "star": 0.0, "review": 0}, {"name": "まつもと薬局", "address": "三重県伊勢市河崎3丁目11-24", "lat": 34.49507726, "lon": 136.71653991, "category": "漢方", "category_id": "0201946", "time": [], "star": 4.25, "review": 2}, {"name": "昭和薬局", "address": "三重県伊勢市岩渕2丁目2-18", "lat": 34.48739185, "lon": 136.71401671, "category": "調剤薬局", "category_id": "0202315", "time": [], "star": 0.0, "review": 0}, {"name": "ラッコ薬局", "address": "三重県伊勢市一之木4丁目1-29", "lat": 34.49917135, "lon": 136.70631915, "category": "調剤薬局", "category_id": "0202315", "time": [], "star": 0.0, "review": 0}, {"name": "さくら薬局 伊勢八間通店", "address": "三重県伊勢市河崎1-9-36", "lat": 34.49561183, "lon": 136.71403736, "category": "調剤薬局", "category_id": "0202315", "time": [], "star": 0.0, "review": 0}, {"name": "いせ一之木薬局", "address": "三重県伊勢市一之木2丁目12-10", "lat": 34.49598207, "lon": 136.7049421, "category": "調剤薬局", "category_id": "0202315", "time": [], "star": 0.0, "review": 0}, {"name": "健やか薬局 外宮前店", "address": "三重県伊勢市八日市場町5-19", "lat": 34.49075219, "lon": 136.70208128, "category": "調剤薬局", "category_id": "0202315", "time": [], "star": 0.0, "review": 1}], "ATM": [{"name": "ろうきん ATM 東海労働金庫 伊勢支店", "address": "三重県伊勢市吹上1-11-31", "lat": 34.4910012, "lon": 136.712163, "category": "ATM", "category_id": "0402785", "time": [], "star": 3.0, "review": 0}, {"name": "百五銀行 伊勢支店", "address": "三重県伊勢市岡本1-3-3", "lat": 34.4866613, "lon": 136.7104861, "category": "銀行", "category_id": "0402596", "time": ["09:00-15:00"], "star": 3.89, "review": 7}, {"name": "百五銀行 河崎支店", "address": "三重県伊勢市河崎2-16-9", "lat": 34.4955435, "lon": 136.7145607, "category": "銀行", "category_id": "0402596", "time": ["09:00-15:00"], "star": 3.71, "review": 5}, {"name": "三十三銀行 ATM 伊勢市役所", "address": "三重県伊勢市岩淵1-7-29", "lat": 34.4873942, "lon": 136.709722, "category": "ATM", "category_id": "0402785", "time": ["08:30-17:15"], "star": 0.0, "review": 0}, {"name": "百五銀行 ATM 近鉄宇治山田駅", "address": "三重県伊勢市岩渕2-1-43", "lat": 34.488238, "lon": 136.713719, "category": "ATM", "category_id": "0402785", "time": ["07:00-23:00"], "star": 0.0, "review": 0}, {"name": "みずほ銀行 伊勢支店", "address": "三重県伊勢市岩渕1-16-13 ", "lat": 34.48631141, "lon": 136.71268864, "category": "銀行", "category_id": "0402596", "time": ["09:00-15:00"], "star": 3.81, "review": 5}, {"name": "イオン銀行 ATM ウエルシア伊勢河崎店出張所(店内)", "address": "三重県伊勢市河崎1-3-20", "lat": 34.4931958, "lon": 136.712784, "category": "ATM", "category_id": "0402785", "time": ["00:00-24:00"], "star": 4.0, "review": 0}, {"name": "百五銀行 ATM 伊勢市役所内", "address": "三重県伊勢市岩渕1-7-29", "lat": 34.4874347, "lon": 136.70925, "category": "ATM", "category_id": "0402785", "time": ["08:30-17:15"], "star": 0.0, "review": 0}, {"name": "JAバンク 伊勢農業協同組合(JA伊勢)伊勢支店", "address": "三重県伊勢市河崎1-4-35", "lat": 34.4937112, "lon": 136.712505, "category": "銀行", "category_id": "0402596", "time": ["09:00-15:00"], "star": 0.0, "review": 0}, {"name": "銀行ATM イーネット ファミリーマート伊勢本町 共同出張所", "address": "三重県伊勢市本町5-19 ", "lat": 34.489992, "lon": 136.708104, "category": "ATM", "category_id": "0402785", "time": ["00:00-24:00"], "star": 0.0, "review": 0}, {"name": "百五銀行 伊勢御薗支店", "address": "三重県伊勢市河崎2-16-9", "lat": 34.4955435, "lon": 136.7145634, "category": "銀行", "category_id": "0402596", "time": ["09:00-15:00"], "star": 3.5, "review": 0}, {"name": "ゆうちょ銀行 伊勢郵便局", "address": "三重県伊勢市岩渕3-6-10", "lat": 34.4874695, "lon": 136.717361, "category": "銀行", "category_id": "0402596", "time": ["09:00-19:00"], "star": 4.38, "review": 2}, {"name": "ゆうちょ銀行 伊勢河崎郵便局", "address": "三重県伊勢市河崎2-17-19", "lat": 34.4950409, "lon": 136.7154, "category": "銀行", "category_id": "0402596", "time": [], "star": 4.0, "review": 1}, {"name": "百五銀行 伊勢支店 伊勢市役所出張所", "address": "三重県伊勢市岩渕1丁目7番29号「伊勢市役所内」", "lat": 34.4875139, "lon": 136.7092917, "category": "銀行", "category_id": "0402596", "time": ["09:00-15:00"], "star": 0.0, "review": 0}, {"name": "ゆうちょ銀行 伊勢外宮前郵便局", "address": "三重県伊勢市本町20-18", "lat": 34.4881132, "lon": 136.70739, "category": "銀行", "category_id": "0402596", "time": [], "star": 4.0, "review": 0}, {"name": "三十三銀行 伊勢支店", "address": "三重県伊勢市岩渕2丁目5-1", "lat": 34.4863875, "lon": 136.7132242, "category": "銀行", "category_id": "0402596", "time": ["09:00-15:00"], "star": 2.0, "review": 0}, {"name": "百五銀行 ATM 河崎支店", "address": "三重県伊勢市河崎2-16-9", "lat": 34.4955471, "lon": 136.714562, "category": "ATM", "category_id": "0402785", "time": ["07:00-21:00"], "star": 0.0, "review": 0}, {"name": "桑名三重信用金庫 ATM 伊勢支店", "address": "三重県伊勢市吹上1-8-20", "lat": 34.4898792, "lon": 136.711369, "category": "ATM", "category_id": "0402785", "time": ["07:00-21:00"], "star": 0.0, "review": 0}, {"name": "百五銀行 ATM 伊勢支店", "address": "三重県伊勢市岡本1-3-3", "lat": 34.4866629, "lon": 136.710504, "category": "ATM", "category_id": "0402785", "time": ["07:00-21:00"], "star": 0.0, "review": 0}, {"name": "百五銀行 伊勢支店 楠部出張所", "address": "三重県伊勢市岡本1-3-3", "lat": 34.4866724, "lon": 136.7104944, "category": "銀行", "category_id": "0402596", "time": ["09:00-15:00"], "star": 3.0, "review": 0}], "銭湯 温泉": [{"name": "汐湯・おかげ風呂舘 旭湯", "address": "三重県伊勢市神久1丁目1-16", "lat": 34.49192742, "lon": 136.71678435, "category": "銭湯", "category_id": "0400578", "time": ["12:00-24:00"], "star": 4.35, "review": 26}, {"name": "錦水湯", "address": "三重県伊勢市岩渕3-6-39", "lat": 34.48680755, "lon": 136.71615638, "category": "銭湯", "category_id": "0400578", "time": [], "star": 3.27, "review": 11}, {"name": "わくわく温泉いづつ(井筒湯)", "address": "三重県伊勢市曽祢1丁目10-11", "lat": 34.4944553, "lon": 136.7005601, "category": "", "category_id": "", "time": [], "star": 4.0, "review": 1}], "スーパーマーケット": [{"name": "ぎゅーとら TRY mart.八間通店", "address": "三重県伊勢市吹上2-5-3", "lat": 34.4914107, "lon": 136.7130691, "category": "スーパー", "category_id": "0200612", "time": ["09:00-21:00"], "star": 3.69, "review": 143}, {"name": "近鉄ビルサービス株式会社 宇治山田ショッピングセンター 事務所", "address": "三重県伊勢市岩渕2丁目2-18", "lat": 34.48739185, "lon": 136.71401671, "category": "スーパー", "category_id": "0200612", "time": [], "star": 4.83, "review": 0}, {"name": "かのめ屋商店", "address": "三重県伊勢市吹上2丁目1-23", "lat": 34.48914992, "lon": 136.71271641, "category": "青果店", "category_id": "0202677", "time": [], "star": 4.0, "review": 1}]}, "top_restaurant": {"name": "マイカフェ", "category": "カフェ・喫茶", "star": 4.75, "review": 1}}, {"name": "五十鈴ケ丘", "name_en": "", "lat": 34.49581111, "lon": 136.73950278, "osm_id": 0, "operator": "東海旅客鉄道", "railway": "station", "wikidata": "Q6089538", "wikipedia_tag": "ja:五十鈴ケ丘駅", "lines": ["参宮線"], "pref": "不明", "nearby_bus_stops": [], "source": "wikidata_补完", "nearby_pois": {"コンビニ": [{"name": "ローソン 伊勢通町", "address": "三重県伊勢市通町472-1", "lat": 34.4997075, "lon": 136.7408022, "category": "コンビニ", "category_id": "0200487", "time": ["00:00-24:00"], "star": 4.26, "review": 25}, {"name": "ミニストップ 伊勢黒瀬町店", "address": "三重県伊勢市黒瀬町511-1", "lat": 34.4976965, "lon": 136.7327476, "category": "コンビニ", "category_id": "0200487", "time": [], "star": 4.27, "review": 17}, {"name": "ホテルエリアワン伊勢インター", "address": "三重県伊勢市黒瀬町1237", "lat": 34.4949305, "lon": 136.7413885, "category": "ビジネスホテル", "category_id": "0300758", "time": ["00:00-24:00"], "star": 4.02, "review": 50}], "ラーメン": [{"name": "麺狂道 真神", "address": "三重県伊勢市神田久志本町1525", "lat": 34.491122668505, "lon": 136.73024345449, "category": "ラーメン店", "category_id": "0100097", "time": ["11:00-15:00", "17:30-21:00"], "star": 3.63, "review": 9}], "飲食店": [{"name": "夢木香", "address": "三重県伊勢市神田久志本町1551-1", "lat": 34.490297504784, "lon": 136.73191136012, "category": "カフェ・喫茶", "category_id": "0100344", "time": [], "star": 3.83, "review": 1}, {"name": "うどん食堂つばめや", "address": "三重県伊勢市黒瀬町871-1", "lat": 34.492312608506, "lon": 136.7364914445, "category": "うどん店", "category_id": "0100033", "time": [], "star": 3.8, "review": 7}, {"name": "うどん食堂つばめや", "address": "三重県伊勢市 黒瀬町871-1番地", "lat": 34.4922948572658, "lon": 136.73648021778317, "category": "飲食店", "category_id": "0102732", "time": ["11:00-15:00", "17:00-21:00"], "star": 4.4, "review": 52}, {"name": "カフェ・キャラバン", "address": "三重県伊勢市黒瀬町491-1", "lat": 34.49830203, "lon": 136.73364614, "category": "カフェ・喫茶", "category_id": "0100344", "time": ["08:00-19:00"], "star": 4.26, "review": 20}, {"name": "Bar Mosh Pit", "address": "三重県伊勢市通町109-3", "lat": 34.4991771, "lon": 136.7404637, "category": "飲食店", "category_id": "0102732", "time": ["18:00-21:00"], "star": 4.5, "review": 2}, {"name": "伊勢カフェ", "address": "三重県伊勢市通町109-3", "lat": 34.49918401, "lon": 136.74048336, "category": "カフェ・喫茶", "category_id": "0100344", "time": ["11:00-22:00"], "star": 4.06, "review": 20}, {"name": "ななかまど", "address": "三重県伊勢市黒瀬町513", "lat": 34.49750574, "lon": 136.73311484, "category": "定食屋", "category_id": "0101441", "time": ["11:00-15:00"], "star": 4.2, "review": 19}, {"name": "SHERRY's BAR", "address": "三重県伊勢市通町241", "lat": 34.497606742492515, "lon": 136.74376504902838, "category": "カフェ・喫茶", "category_id": "0100344", "time": ["11:00-15:00", "17:00-24:00"], "star": 3.89, "review": 9}, {"name": "さし汐", "address": "三重県伊勢市通町193-3", "lat": 34.49922791, "lon": 136.74150019, "category": "うなぎ料理店", "category_id": "0100035", "time": ["10:30-14:30", "16:00-20:00"], "star": 4.25, "review": 65}, {"name": "ニューエビヤ", "address": "三重県伊勢市黒瀬町1262-2", "lat": 34.49514734, "lon": 136.73990114, "category": "カフェ・喫茶", "category_id": "0100344", "time": [], "star": 0.0, "review": 0}, {"name": "Knott's Berry", "address": "三重県伊勢市黒瀬町859-3", "lat": 34.49252736, "lon": 136.73570592, "category": "ハンバーグ店", "category_id": "0100571", "time": ["11:00-14:15", "17:00-21:15"], "star": 4.25, "review": 77}, {"name": "焼き鳥ハウス 泉竹林", "address": "三重県伊勢市黒瀬町829-1", "lat": 34.49310594, "lon": 136.73828781, "category": "焼き鳥店", "category_id": "0101960", "time": ["17:00-21:30"], "star": 3.89, "review": 16}, {"name": "とんかつ 四十三番 伊勢店", "address": "三重県伊勢市黒瀬町562-23", "lat": 34.492990128505, "lon": 136.73544334451, "category": "とんかつ店", "category_id": "0100159", "time": ["11:00-15:00", "17:00-20:30"], "star": 4.35, "review": 21}, {"name": "アリーラック", "address": "三重県伊勢市黒瀬町260-4", "lat": 34.49595727, "lon": 136.7302402, "category": "カフェ・喫茶", "category_id": "0100344", "time": ["11:00-17:00"], "star": 4.02, "review": 17}, {"name": "力也", "address": "三重県伊勢市黒瀬町869-2", "lat": 34.49223104, "lon": 136.73688469, "category": "すき焼き店", "category_id": "0100100", "time": ["11:30-20:30"], "star": 4.19, "review": 26}, {"name": "の～ズ", "address": "三重県伊勢市通町113-4", "lat": 34.49878351, "lon": 136.74063392, "category": "カフェ・喫茶", "category_id": "0100344", "time": ["11:00-21:00"], "star": 3.8, "review": 1}, {"name": "ともやん", "address": "三重県伊勢市黒瀬町206-1", "lat": 34.49747318, "lon": 136.73097867, "category": "居酒屋", "category_id": "0101495", "time": ["17:00-23:00"], "star": 4.1, "review": 9}, {"name": "伊勢松", "address": "三重県伊勢市黒瀬町1237-22", "lat": 34.49475411, "lon": 136.74217646, "category": "うなぎ料理店", "category_id": "0100035", "time": ["11:00-15:00"], "star": 3.36, "review": 15}, {"name": "喫茶おしん", "address": "三重県伊勢市黒瀬町841-1", "lat": 34.49386972, "lon": 136.73857191, "category": "カフェ・喫茶", "category_id": "0100344", "time": [], "star": 0.0, "review": 0}, {"name": "Ciro", "address": "三重県伊勢市楠部町148-6", "lat": 34.490331318506, "lon": 136.73121822448, "category": "カフェ・喫茶", "category_id": "0100344", "time": ["07:00-18:00"], "star": 3.97, "review": 20}], "カフェ": [{"name": "夢木香", "address": "三重県伊勢市神田久志本町1551-1", "lat": 34.490297504784, "lon": 136.73191136012, "category": "カフェ・喫茶", "category_id": "0100344", "time": [], "star": 3.83, "review": 1}, {"name": "伊勢カフェ", "address": "三重県伊勢市通町109-3", "lat": 34.49918401, "lon": 136.74048336, "category": "カフェ・喫茶", "category_id": "0100344", "time": ["11:00-22:00"], "star": 4.06, "review": 20}, {"name": "カフェ・キャラバン", "address": "三重県伊勢市黒瀬町491-1", "lat": 34.49830203, "lon": 136.73364614, "category": "カフェ・喫茶", "category_id": "0100344", "time": ["08:00-19:00"], "star": 4.26, "review": 20}, {"name": "アリーラック", "address": "三重県伊勢市黒瀬町260-4", "lat": 34.49595727, "lon": 136.7302402, "category": "カフェ・喫茶", "category_id": "0100344", "time": ["11:00-17:00"], "star": 4.02, "review": 17}, {"name": "SHERRY's BAR", "address": "三重県伊勢市通町241", "lat": 34.497606742492515, "lon": 136.74376504902838, "category": "カフェ・喫茶", "category_id": "0100344", "time": ["11:00-15:00", "17:00-24:00"], "star": 3.89, "review": 9}, {"name": "の～ズ", "address": "三重県伊勢市通町113-4", "lat": 34.49878351, "lon": 136.74063392, "category": "カフェ・喫茶", "category_id": "0100344", "time": ["11:00-21:00"], "star": 3.8, "review": 1}, {"name": "ニューエビヤ", "address": "三重県伊勢市黒瀬町1262-2", "lat": 34.49514734, "lon": 136.73990114, "category": "カフェ・喫茶", "category_id": "0100344", "time": [], "star": 0.0, "review": 0}, {"name": "Ciro", "address": "三重県伊勢市楠部町148-6", "lat": 34.490331318506, "lon": 136.73121822448, "category": "カフェ・喫茶", "category_id": "0100344", "time": ["07:00-18:00"], "star": 3.97, "review": 20}, {"name": "喫茶おしん", "address": "三重県伊勢市黒瀬町841-1", "lat": 34.49386972, "lon": 136.73857191, "category": "カフェ・喫茶", "category_id": "0100344", "time": [], "star": 0.0, "review": 0}, {"name": "レジエール", "address": "三重県伊勢市黒瀬町1235-1", "lat": 34.494314, "lon": 136.741709, "category": "カフェ・喫茶", "category_id": "0100344", "time": [], "star": 0.0, "review": 0}, {"name": "喫茶りか", "address": "三重県伊勢市通町71-4", "lat": 34.49918397, "lon": 136.73888133, "category": "カフェ・喫茶", "category_id": "0100344", "time": [], "star": 0.0, "review": 0}, {"name": "藤屋窓月堂 本館", "address": "三重県伊勢市鹿海町1650-2", "lat": 34.49296493, "lon": 136.74265092, "category": "和菓子店", "category_id": "0101310", "time": ["08:30-17:30"], "star": 3.88, "review": 35}, {"name": "カフェレストレジェール", "address": "三重県伊勢市黒瀬町1241-9", "lat": 34.49432111, "lon": 136.74167098, "category": "", "category_id": "", "time": [], "star": 0.0, "review": 0}, {"name": "ヘアーロンドンカフェ", "address": "三重県伊勢市黒瀬町159-5", "lat": 34.49653357, "lon": 136.73004436, "category": "美容院", "category_id": "0400766", "time": [], "star": 4.0, "review": 0}, {"name": "BONTEMPS Ise", "address": "三重県伊勢市黒瀬町159-6", "lat": 34.4964268, "lon": 136.729757, "category": "ドーナツ店", "category_id": "0100701", "time": ["10:00-20:00"], "star": 0.0, "review": 0}], "ドラッグストア": [{"name": "クスリのアオキ 黒瀬店", "address": "三重県伊勢市黒瀬町648", "lat": 34.4976216, "lon": 136.734117, "category": "ドラッグストア", "category_id": "0200699", "time": ["09:00-22:00"], "star": 4.22, "review": 24}, {"name": "サンドラッグ 神田久志本店", "address": "三重県伊勢市楠部町１５６－２", "lat": 34.49145574, "lon": 136.73198133, "category": "ドラッグストア", "category_id": "0200699", "time": ["09:30-19:30"], "star": 4.67, "review": 1}, {"name": "クスリのアオキ調剤 黒瀬店", "address": "三重県伊勢市黒瀬町648", "lat": 34.4977149, "lon": 136.734179, "category": "調剤薬局", "category_id": "0202315", "time": ["09:00-22:00"], "star": 4.0, "review": 0}, {"name": "コスモス薬局神田久志本店", "address": "三重県伊勢市神田久志本町1542-7", "lat": 34.49091164, "lon": 136.73156139, "category": "調剤薬局", "category_id": "0202315", "time": [], "star": 0.0, "review": 0}, {"name": "チェリー調剤薬局黒瀬店", "address": "三重県伊勢市黒瀬町1478-5", "lat": 34.49853345, "lon": 136.7363161, "category": "調剤薬局", "category_id": "0202315", "time": ["09:00-18:00"], "star": 0.0, "review": 0}], "ATM": [{"name": "ゆうちょ銀行 伊勢浜郷郵便局", "address": "三重県伊勢市黒瀬町488-4", "lat": 34.4982246, "lon": 136.733387, "category": "銀行", "category_id": "0402596", "time": [], "star": 3.0, "review": 0}, {"name": "ゆうちょ銀行 ATM 伊勢浜郷郵便局", "address": "三重県伊勢市黒瀬町488-4", "lat": 34.4982246, "lon": 136.733387, "category": "ATM", "category_id": "0402785", "time": [], "star": 0.0, "review": 0}, {"name": "イオン銀行 ATM ミニストップ伊勢黒瀬町店出張所(店内)", "address": "三重県伊勢市黒瀬町511-1", "lat": 34.4976812, "lon": 136.732729, "category": "ATM", "category_id": "0402785", "time": ["00:00-24:00"], "star": 0.0, "review": 0}, {"name": "ローソン銀行 伊勢通町共同出張所", "address": "三重県伊勢市通町472-1", "lat": 34.4997095, "lon": 136.740742, "category": "ATM", "category_id": "0402785", "time": ["00:00-24:00"], "star": 0.0, "review": 0}, {"name": "みずほ銀行 ATM ミニストップ伊勢黒瀬町店出張所", "address": "三重県伊勢市黒瀬町511-1", "lat": 34.4976867, "lon": 136.732756, "category": "ATM", "category_id": "0402785", "time": [], "star": 0.0, "review": 0}, {"name": "みずほ銀行 ATM ザ・ビッグエクスプレス神田久志本店出張所", "address": "三重県伊勢市楠部町156-2", "lat": 34.4920002, "lon": 136.730922, "category": "ATM", "category_id": "0402785", "time": [], "star": 0.0, "review": 0}, {"name": "イオン銀行 ATM ザ・ビッグエクスプレス神田久志本店出張所(サービスカウンター横)", "address": "三重県伊勢市楠部町156-2", "lat": 34.4919954, "lon": 136.730895, "category": "ATM", "category_id": "0402785", "time": ["07:00-21:00"], "star": 0.0, "review": 0}, {"name": "伊勢浜郷郵便局", "address": "三重県伊勢市黒瀬町488-4", "lat": 34.49822423, "lon": 136.7333865, "category": "郵便局", "category_id": "0400993", "time": ["09:00-17:00"], "star": 4.0, "review": 1}], "スーパーマーケット": [{"name": "ザ・ビッグ エクスプレス神田久志本店", "address": "三重県伊勢市楠部町156-2", "lat": 34.49145574, "lon": 136.73198133, "category": "ディスカウントストア", "category_id": "0200677", "time": ["07:00-21:00"], "star": 3.94, "review": 160}, {"name": "クスリのアオキ 黒瀬店", "address": "三重県伊勢市黒瀬町648", "lat": 34.4976216, "lon": 136.734117, "category": "ドラッグストア", "category_id": "0200699", "time": ["09:00-22:00"], "star": 4.22, "review": 24}, {"name": "セリア 生活良品 神田久志本店", "address": "三重県伊勢市楠部町156-2", "lat": 34.4919445, "lon": 136.7316619, "category": "100円ショップ", "category_id": "0200001", "time": ["09:30-20:00"], "star": 4.3, "review": 28}]}, "top_restaurant": {"name": "Bar Mosh Pit", "category": "飲食店", "star": 4.5, "review": 2}}, {"name": "ケーブル八幡宮山上", "name_en": "", "lat": 34.8809, "lon": 135.6998, "osm_id": 0, "operator": "京阪電気鉄道", "railway": "station", "wikidata": "Q7108964", "wikipedia_tag": "ja:ケーブル八幡宮山上駅", "lines": ["京阪鋼索線"], "pref": "不明", "nearby_bus_stops": [], "source": "wikidata_补完", "nearby_pois": {"コンビニ": [{"name": "ファミリーマート 八幡千束店", "address": "京都府八幡市八幡千束18-1", "lat": 34.884695, "lon": 135.7042346, "category": "コンビニ", "category_id": "0200487", "time": ["00:00-24:00"], "star": 3.64, "review": 15}, {"name": "アンスリー八幡店", "address": "京都府八幡市八幡高坊9-2", "lat": 34.88446569, "lon": 135.70101478, "category": "コンビニ", "category_id": "0200487", "time": [], "star": 4.25, "review": 7}, {"name": "ローソン 八幡吉野", "address": "京都府八幡市八幡吉野垣内21", "lat": 34.8820705, "lon": 135.7062428, "category": "コンビニ", "category_id": "0200487", "time": ["00:00-24:00"], "star": 3.85, "review": 37}, {"name": "セブンイレブン 八幡源氏垣外", "address": "京都府八幡市八幡源氏垣外28-1", "lat": 34.8803429, "lon": 135.7064263, "category": "コンビニ", "category_id": "0200487", "time": ["00:00-24:00"], "star": 3.62, "review": 9}, {"name": "もより市 石清水八幡宮駅前店", "address": "京都府八幡市八幡高坊9-2 石清水八幡宮駅改札外", "lat": 34.884476337927, "lon": 135.70107087919, "category": "", "category_id": "", "time": ["06:30-23:00"], "star": 3.2, "review": 1}], "ラーメン": [{"name": "麻婆豆腐専門店 からいもんや 八幡店", "address": "京都府八幡市八幡三本橋18-10", "lat": 34.87667537, "lon": 135.70639532, "category": "つけ麺店", "category_id": "0102844", "time": ["11:00-22:00"], "star": 3.66, "review": 20}, {"name": "麺屋 楽食酒 礎", "address": "京都府八幡市八幡三本橋35-1", "lat": 34.87512503713, "lon": 135.70633697793, "category": "居酒屋", "category_id": "0101495", "time": ["11:00-15:00", "17:00-21:00"], "star": 3.59, "review": 15}], "飲食店": [{"name": "和ダイニング 和幸", "address": "京都府八幡市八幡源氏垣外19", "lat": 34.879214127932, "lon": 135.70594370913, "category": "居酒屋", "category_id": "0101495", "time": [], "star": 4.2, "review": 1}, {"name": "一休庵", "address": "京都府八幡市八幡高坊10", "lat": 34.883902326294, "lon": 135.70029068883, "category": "定食屋", "category_id": "0101441", "time": [], "star": 0.0, "review": 0}, {"name": "コロッケCafe&Dining Mitoraya-三寅屋-", "address": "京都府八幡市八幡三本橋35-6", "lat": 34.8756069, "lon": 135.706356, "category": "洋食店", "category_id": "0100129", "time": [], "star": 0.0, "review": 0}, {"name": "八幡市文化センター 喫茶室", "address": "京都府八幡市八幡高畑5-3 八幡市文化センター 1F", "lat": 34.874690937936, "lon": 135.70769577908, "category": "カフェ・喫茶", "category_id": "0100344", "time": ["10:00-18:00"], "star": 3.25, "review": 4}, {"name": "大心", "address": "京都府八幡市八幡沓田5-7", "lat": 34.87466663713, "lon": 135.70636887792, "category": "居酒屋", "category_id": "0101495", "time": [], "star": 4.17, "review": 2}, {"name": "炭火焼き 鳥米 2号店", "address": "京都府八幡市八幡源氏垣外35-6", "lat": 34.879974747932, "lon": 135.70653680914, "category": "焼き鳥店", "category_id": "0101960", "time": ["17:00-23:00"], "star": 3.8, "review": 1}, {"name": "マダムのキッチンカー", "address": "京都府八幡市八幡沓田10-3", "lat": 34.874505117935, "lon": 135.70666274908, "category": "からあげ店", "category_id": "0100067", "time": ["11:00-17:00"], "star": 0.0, "review": 0}, {"name": "茶房 石翠亭", "address": "京都府八幡市八幡高坊30 石清水八幡宮", "lat": 34.87824152, "lon": 135.70011756, "category": "定食屋", "category_id": "0101441", "time": ["11:00-16:00"], "star": 3.92, "review": 26}, {"name": "小谷食堂", "address": "京都府八幡市八幡山本2-1", "lat": 34.878981537126, "lon": 135.70352647797, "category": "定食屋", "category_id": "0101441", "time": ["11:00-20:00"], "star": 3.85, "review": 14}, {"name": "キャンドル", "address": "京都府八幡市八幡高坊8-16", "lat": 34.88422958, "lon": 135.70062013, "category": "カフェ・喫茶", "category_id": "0100344", "time": [], "star": 3.92, "review": 16}, {"name": "石清水八幡宮", "address": "京都府八幡市八幡高坊30", "lat": 34.87971985, "lon": 135.7000326, "category": "神社", "category_id": "0402090", "time": ["06:00-18:00"], "star": 4.36, "review": 241}, {"name": "自家焙煎 Comorebi", "address": "京都府八幡市八幡山路35", "lat": 34.88135743, "lon": 135.70512248, "category": "カフェ・喫茶", "category_id": "0100344", "time": [], "star": 4.22, "review": 4}, {"name": "カラオケ喫茶コスモス", "address": "京都府八幡市八幡山本2", "lat": 34.87898127, "lon": 135.70349715, "category": "カフェ・喫茶", "category_id": "0100344", "time": [], "star": 4.5, "review": 0}, {"name": "朝日屋", "address": "京都府八幡市八幡高坊11-4", "lat": 34.884371, "lon": 135.700137, "category": "寿司店", "category_id": "0100101", "time": ["11:00-15:00", "17:00-22:00"], "star": 4.11, "review": 35}, {"name": "カフェド・モア", "address": "京都府八幡市八幡三本橋60-27", "lat": 34.87888341, "lon": 135.7068099, "category": "カフェ・喫茶", "category_id": "0100344", "time": [], "star": 4.17, "review": 3}, {"name": "走井餅老舗", "address": "京都府八幡市八幡高坊19", "lat": 34.88380829, "lon": 135.70144671, "category": "和菓子店", "category_id": "0101310", "time": ["09:00-17:30"], "star": 4.02, "review": 84}, {"name": "がんこ 石清水店", "address": "京都府八幡市八幡高坊３０　 石清水八幡宮青少年文化体育研修センター内", "lat": 34.87967304, "lon": 135.70005219, "category": "寿司店", "category_id": "0100101", "time": [], "star": 0.0, "review": 0}, {"name": "alt. coffee roasters Iwashimizu", "address": "京都府八幡市八幡土井108-28", "lat": 34.88546651725, "lon": 135.70131651684, "category": "カフェ・喫茶", "category_id": "0100344", "time": [], "star": 0.0, "review": 0}, {"name": "和食麺処 サガミ 京都八幡店", "address": "京都府八幡市八幡源氏垣外40", "lat": 34.879695, "lon": 135.706986, "category": "蕎麦店", "category_id": "0100034", "time": ["11:00-22:00"], "star": 3.8, "review": 153}, {"name": "佳奈", "address": "京都府八幡市八幡源氏垣外35-6", "lat": 34.8793584, "lon": 135.7064645, "category": "蕎麦店", "category_id": "0100034", "time": [], "star": 4.0, "review": 1}], "カフェ": [{"name": "コロッケCafe&Dining Mitoraya-三寅屋-", "address": "京都府八幡市八幡三本橋35-6", "lat": 34.8756069, "lon": 135.706356, "category": "洋食店", "category_id": "0100129", "time": [], "star": 0.0, "review": 0}, {"name": "八幡市文化センター 喫茶室", "address": "京都府八幡市八幡高畑5-3 八幡市文化センター 1F", "lat": 34.874690937936, "lon": 135.70769577908, "category": "カフェ・喫茶", "category_id": "0100344", "time": ["10:00-18:00"], "star": 3.25, "review": 4}, {"name": "キャンドル", "address": "京都府八幡市八幡高坊8-16", "lat": 34.88422958, "lon": 135.70062013, "category": "カフェ・喫茶", "category_id": "0100344", "time": [], "star": 3.92, "review": 16}, {"name": "カフェド・モア", "address": "京都府八幡市八幡三本橋60-27", "lat": 34.87888341, "lon": 135.7068099, "category": "カフェ・喫茶", "category_id": "0100344", "time": [], "star": 4.17, "review": 3}, {"name": "自家焙煎 Comorebi", "address": "京都府八幡市八幡山路35", "lat": 34.88135743, "lon": 135.70512248, "category": "カフェ・喫茶", "category_id": "0100344", "time": [], "star": 4.22, "review": 4}, {"name": "カラオケ喫茶コスモス", "address": "京都府八幡市八幡山本2", "lat": 34.87898127, "lon": 135.70349715, "category": "カフェ・喫茶", "category_id": "0100344", "time": [], "star": 4.5, "review": 0}, {"name": "ワイズカフェ", "address": "京都府八幡市八幡源氏垣外1-4", "lat": 34.8795389, "lon": 135.7053618, "category": "飲食店", "category_id": "0102732", "time": ["08:00-17:00"], "star": 3.0, "review": 0}, {"name": "alt. coffee roasters Iwashimizu", "address": "京都府八幡市八幡土井108-28", "lat": 34.88546651725, "lon": 135.70131651684, "category": "カフェ・喫茶", "category_id": "0100344", "time": [], "star": 0.0, "review": 0}, {"name": "モモ29ダイニングカフェ", "address": "京都府八幡市八幡科手2-6", "lat": 34.8851298, "lon": 135.70118527, "category": "ダイニングバー", "category_id": "0100645", "time": ["18:00-23:30"], "star": 3.75, "review": 2}, {"name": "喫茶コトン", "address": "京都府八幡市八幡三本橋1-7", "lat": 34.87889942, "lon": 135.70559424, "category": "カフェ・喫茶", "category_id": "0100344", "time": [], "star": 3.2, "review": 1}, {"name": "走井餅老舗", "address": "京都府八幡市八幡高坊19", "lat": 34.88380829, "lon": 135.70144671, "category": "和菓子店", "category_id": "0101310", "time": ["09:00-17:30"], "star": 4.02, "review": 84}, {"name": "茶房 石翠亭", "address": "京都府八幡市八幡高坊30 石清水八幡宮", "lat": 34.87824152, "lon": 135.70011756, "category": "定食屋", "category_id": "0101441", "time": ["11:00-16:00"], "star": 3.92, "review": 26}, {"name": "カフェらいふ", "address": "京都府八幡市八幡三本橋1-7", "lat": 34.8787704, "lon": 135.7056649, "category": "カフェ・喫茶", "category_id": "0100344", "time": [], "star": 0.0, "review": 0}, {"name": "すかいらーく", "address": "京都府八幡市八幡沓田13-5", "lat": 34.874904697935, "lon": 135.70637567909, "category": "カフェ・喫茶", "category_id": "0100344", "time": [], "star": 3.25, "review": 2}, {"name": "ファミレYAWATA", "address": "京都府八幡市八幡源氏垣外1-4", "lat": 34.8794013, "lon": 135.7053709, "category": "ショッピングセンター・モール", "category_id": "0200537", "time": ["09:00-21:00"], "star": 3.67, "review": 4}], "ドラッグストア": [{"name": "キリン堂ドラッグストア 八幡店", "address": "京都府八幡市八幡源氏垣外46-1", "lat": 34.8802708, "lon": 135.7073817, "category": "ドラッグストア", "category_id": "0200699", "time": ["09:00-21:45"], "star": 4.0, "review": 82}, {"name": "石川薬局八幡店", "address": "京都府八幡市八幡源氏垣外1-4", "lat": 34.87950349, "lon": 135.70533604, "category": "調剤薬局", "category_id": "0202315", "time": ["09:00-20:00"], "star": 0.0, "review": 0}, {"name": "八幡あい薬局", "address": "京都府八幡市八幡山柴34-4", "lat": 34.88119065, "lon": 135.70336413, "category": "調剤薬局", "category_id": "0202315", "time": [], "star": 0.0, "review": 0}, {"name": "ツバサ薬局八幡店", "address": "京都府八幡市八幡三本橋1-9", "lat": 34.87889722, "lon": 135.70592086, "category": "調剤薬局", "category_id": "0202315", "time": ["09:00-20:00"], "star": 0.0, "review": 0}, {"name": "ファミレYAWATA", "address": "京都府八幡市八幡源氏垣外1-4", "lat": 34.8794013, "lon": 135.7053709, "category": "ショッピングセンター・モール", "category_id": "0200537", "time": ["09:00-21:00"], "star": 3.67, "review": 4}, {"name": "ダンチセンター薬局市役所前店", "address": "京都府八幡市八幡三本橋18-10", "lat": 34.8766451, "lon": 135.70640088, "category": "薬店", "category_id": "0202316", "time": ["09:00-19:00"], "star": 0.0, "review": 0}, {"name": "株式会社富士薬品京都営業所", "address": "京都府八幡市八幡園内2-6", "lat": 34.87889046, "lon": 135.70809083, "category": "漢方", "category_id": "0201946", "time": [], "star": 0.0, "review": 0}], "ATM": [{"name": "京都銀行 ATM 京阪石清水八幡宮駅", "address": "京都府八幡市八幡高坊9-2", "lat": 34.8846924, "lon": 135.700001, "category": "ATM", "category_id": "0402785", "time": [], "star": 0.0, "review": 0}, {"name": "関西みらい銀行 ATM ファミレやわた出張所", "address": "京都府八幡市八幡源氏垣外1-4 ファミレやわた 1F", "lat": 34.8796793, "lon": 135.705368, "category": "ATM", "category_id": "0402785", "time": [], "star": 0.0, "review": 0}, {"name": "京都銀行 ATM 八幡市役所", "address": "京都府八幡市八幡園内75", "lat": 34.87606443, "lon": 135.70743492, "category": "ATM", "category_id": "0402785", "time": [], "star": 0.0, "review": 0}, {"name": "京都銀行 八幡中央支店", "address": "京都府八幡市八幡沓田10-5", "lat": 34.8741272, "lon": 135.7066709, "category": "銀行", "category_id": "0402596", "time": ["09:00-15:00"], "star": 4.5, "review": 1},