[{"name": "せんげん台", "name_en": "Sengendai", "lat": 35.9358561, "lon": 139.7744756, "osm_id": 7481834867, "operator": "", "railway": "station", "wikidata": "Q842516", "wikipedia_tag": "ja:せんげん台駅", "lines": [], "pref": "埼玉県", "nearby_bus_stops": [{"name": "せんげん台駅(東口)", "lat": 35.9362206, "lon": 139.7747451, "distance_m": 47, "operator": ""}, {"name": "せんげん台駅(西口)", "lat": 35.9356963, "lon": 139.7737141, "distance_m": 71, "operator": ""}, {"name": "せんげん台駅(西口)", "lat": 35.9354062, "lon": 139.7737527, "distance_m": 82, "operator": "朝日自動車"}, {"name": "せんげん台駅(東口)", "lat": 35.9365246, "lon": 139.7748819, "distance_m": 83, "operator": ""}, {"name": "せんげん台駅入口", "lat": 35.9361402, "lon": 139.7765234, "distance_m": 187, "operator": "茨城急行自動車"}], "wikipedia_text": "せんげん台駅（せんげんだいえき）は、埼玉県越谷市千間台東一丁目にある、東武鉄道伊勢崎線の駅である。「東武スカイツリーライン」の愛称区間に含まれている。駅番号はTS 24。", "wikipedia_image": "https://upload.wikimedia.org/wikipedia/commons/e/eb/Tobu-railway-TS24-Sengendai-station-building-west-20241208-145850.jpg", "nearest_convenience": {"name": "セブン-イレブン", "lat": 35.9353371, "lon": 139.773323, "address": "", "distance_m": 119, "brand": "セブン-イレブン"}, "nearest_restaurant": {"name": "餃子の満州", "lat": 35.9358399, "lon": 139.7747669, "address": "", "distance_m": 26, "cuisine": "chinese"}, "nearby_pois": {"コンビニ": [{"name": "ファミリーマート せんげん台駅前店", "address": "埼玉県越谷市千間台東町61", "lat": 35.9362487, "lon": 139.7746304, "category": "コンビニ", "category_id": "0200487", "time": ["00:00-24:00"], "star": 4.14, "review": 50}, {"name": "セブンイレブン 越谷千間台東1丁目", "address": "埼玉県越谷市千間台東1-1-5", "lat": 35.936307, "lon": 139.7758442, "category": "コンビニ", "category_id": "0200487", "time": ["00:00-24:00"], "star": 4.16, "review": 23}, {"name": "セブンイレブン 越谷せんげん台駅西口", "address": "埼玉県越谷市千間台西1-4-4", "lat": 35.9352656, "lon": 139.7732277, "category": "コンビニ", "category_id": "0200487", "time": ["00:00-24:00"], "star": 4.04, "review": 32}, {"name": "ローソン 越谷千間台西", "address": "埼玉県越谷市千間台西2-7-11", "lat": 35.9334993, "lon": 139.773, "category": "コンビニ", "category_id": "0200487", "time": ["00:00-24:00"], "star": 3.96, "review": 31}, {"name": "ミニストップ せんげん台駅前店", "address": "埼玉県越谷市千間台西1-10-19", "lat": 35.9359404, "lon": 139.7730638, "category": "コンビニ", "category_id": "0200487", "time": ["03:00-26:00"], "star": 3.74, "review": 22}, {"name": "ローソン 武里団地", "address": "埼玉県春日部市大枝232-18", "lat": 35.9392064, "lon": 139.7723555, "category": "コンビニ", "category_id": "0200487", "time": ["00:00-24:00"], "star": 3.83, "review": 19}, {"name": "セブンイレブン 越谷千間台西2丁目", "address": "埼玉県越谷市千間台西2-9-1", "lat": 35.9321746, "lon": 139.7707752, "category": "コンビニ", "category_id": "0200487", "time": ["00:00-24:00"], "star": 4.2, "review": 17}, {"name": "ファミリーマート 千間台西一丁目店", "address": "埼玉県越谷市千間台西1-14-2", "lat": 35.9358182, "lon": 139.7710862, "category": "コンビニ", "category_id": "0200487", "time": ["00:00-24:00"], "star": 3.83, "review": 15}, {"name": "セブンイレブン 越谷千間台東", "address": "埼玉県越谷市千間台東2-6-7", "lat": 35.9359348, "lon": 139.7811855, "category": "コンビニ", "category_id": "0200487", "time": ["00:00-24:00"], "star": 3.48, "review": 11}, {"name": "ローソン 越谷平方南町", "address": "埼玉県越谷市平方南町6-9", "lat": 35.943636, "lon": 139.7800048, "category": "コンビニ", "category_id": "0200487", "time": ["00:00-24:00"], "star": 4.23, "review": 17}, {"name": "セブンイレブン 越谷間久里団地前", "address": "埼玉県越谷市上間久里46-1", "lat": 35.929775, "lon": 139.7809496, "category": "コンビニ", "category_id": "0200487", "time": ["00:00-24:00"], "star": 4.46, "review": 12}, {"name": "ミニストップ 春日部大枝店", "address": "埼玉県春日部市大枝498-2", "lat": 35.942278, "lon": 139.7760913, "category": "コンビニ", "category_id": "0200487", "time": [], "star": 3.6, "review": 20}, {"name": "セブンイレブン JS武里団地", "address": "埼玉県春日部市大枝89", "lat": 35.9431499, "lon": 139.7687362, "category": "コンビニ", "category_id": "0200487", "time": ["00:00-24:00"], "star": 4.03, "review": 10}, {"name": "カーコンビニ倶楽部 せんげん台東口店", "address": "埼玉県越谷市千間台東2-16-4", "lat": 35.9354155, "lon": 139.7778496, "category": "自動車修理・整備店", "category_id": "0400986", "time": [], "star": 3.92, "review": 0}, {"name": "ラーテルマルサン 武里店", "address": "埼玉県春日部市大枝330-1", "lat": 35.9404478, "lon": 139.7736498, "category": "スーパー", "category_id": "0200612", "time": ["10:00-20:00"], "star": 4.14, "review": 0}, {"name": "ヨークフーズ せんげん台店", "address": "埼玉県越谷市千間台東2-707", "lat": 35.9368263, "lon": 139.7780718, "category": "スーパー", "category_id": "0200612", "time": ["09:00-21:00"], "star": 3.78, "review": 242}, {"name": "カスミ フードスクエア春日部武里店", "address": "埼玉県春日部市大畑524-7", "lat": 35.9427528, "lon": 139.7695778, "category": "スーパー", "category_id": "0200612", "time": ["09:00-24:00"], "star": 4.13, "review": 161}, {"name": "Big-A 越谷千間台西店", "address": "埼玉県越谷市千間台西3-4-12", "lat": 35.9347321, "lon": 139.7691058, "category": "スーパー", "category_id": "0200612", "time": ["04:00-26:00"], "star": 4.23, "review": 29}], "ラーメン": [{"name": "ラーメンじょっぴん亭", "address": "埼玉県越谷市千間台東1-6-15", "lat": 35.9370346, "lon": 139.77619691, "category": "ラーメン店", "category_id": "0100097", "time": ["11:45-14:00", "18:00-24:00"], "star": 4.17, "review": 3}, {"name": "紅苑", "address": "埼玉県越谷市千間台西1丁目7-24", "lat": 35.93424165, "lon": 139.7714715, "category": "ラーメン店", "category_id": "0100097", "time": ["11:00-15:00", "17:30-20:00"], "star": 4.03, "review": 12}, {"name": "輪", "address": "埼玉県越谷市千間台東1-22-1", "lat": 35.933310988559, "lon": 139.77608627692, "category": "ラーメン店", "category_id": "0100097", "time": ["11:30-14:30", "17:00-20:30"], "star": 4.02, "review": 11}, {"name": "日高屋 せんげん台駅ビル店", "address": "埼玉県越谷市千間台西1-67 駅ビル内", "lat": 35.93578489, "lon": 139.77414709, "category": "定食屋", "category_id": "0101441", "time": ["10:00-26:00"], "star": 3.89, "review": 41}, {"name": "ぎょうざの満洲 せんげん台駅店", "address": "埼玉県越谷市千間台東1-61", "lat": 35.93588014, "lon": 139.77474954, "category": "餃子店", "category_id": "0102733", "time": ["11:00-21:00"], "star": 4.02, "review": 58}, {"name": "麺カフェ ひまわり", "address": "埼玉県春日部市大枝89 武里団地2-11-113", "lat": 35.94335610584547, "lon": 139.769016157003, "category": "ラーメン店", "category_id": "0100097", "time": ["09:00-15:00", "17:00-22:00"], "star": 3.84, "review": 17}, {"name": "餃子の王将 せんげん台店", "address": "埼玉県春日部市大枝448-1", "lat": 35.9386037, "lon": 139.7767746, "category": "餃子店", "category_id": "0102733", "time": ["11:15-22:00"], "star": 3.93, "review": 38}, {"name": "栄楽飯店", "address": "埼玉県春日部市大枝419-3", "lat": 35.94006897, "lon": 139.77570383, "category": "中華料理店", "category_id": "0100990", "time": ["11:00-20:00"], "star": 3.84, "review": 16}, {"name": "中華料理 喜", "address": "埼玉県越谷市千間台西4-1-44", "lat": 35.93330357, "lon": 139.76469062, "category": "中華料理店", "category_id": "0100990", "time": ["11:30-14:00", "17:30-21:30"], "star": 3.9, "review": 20}, {"name": "孫悟空", "address": "埼玉県越谷市千間台東2-439-4", "lat": 35.93368606, "lon": 139.78323482, "category": "中華料理店", "category_id": "0100990", "time": ["11:00-14:00", "17:00-20:00"], "star": 3.44, "review": 9}, {"name": "まぐろやモンキー せんげん台店", "address": "埼玉県越谷市千間台東1-1-13", "lat": 35.936459, "lon": 139.77622, "category": "居酒屋", "category_id": "0101495", "time": ["16:30-25:00"], "star": 3.72, "review": 16}, {"name": "はかた商店 せんげん台店", "address": "埼玉県越谷市千間台東1-1-3川口ビル 2F", "lat": 35.936258, "lon": 139.775695, "category": "居酒屋", "category_id": "0101495", "time": ["16:00-24:00"], "star": 3.68, "review": 19}, {"name": "リンガーハット 埼玉せんげん台店", "address": "埼玉県越谷市千間台東3-28-12", "lat": 35.9312747, "lon": 139.7795968, "category": "ちゃんぽん店", "category_id": "0100146", "time": ["11:00-24:00"], "star": 3.89, "review": 57}, {"name": "海花苑", "address": "埼玉県越谷市千間台西5-3-25", "lat": 35.93209086, "lon": 139.76563393, "category": "焼肉店", "category_id": "0101963", "time": [], "star": 4.03, "review": 29}, {"name": "小樽らーめん豆の木株式会社", "address": "埼玉県越谷市大字下間久里977番地12", "lat": 35.92920844, "lon": 139.78034406, "category": "企業・オフィス", "category_id": "0502930", "time": [], "star": 0.0, "review": 0}], "飲食店": [{"name": "ル・レガル", "address": "埼玉県越谷市千間台東1-21-1 1F", "lat": 35.933347208559, "lon": 139.77586972692, "category": "洋食店", "category_id": "0100129", "time": ["11:30-21:00"], "star": 4.2, "review": 15}, {"name": "Again.", "address": "埼玉県越谷市千間台東2-361-6 ヴィーナスフォートせんげん台 2F", "lat": 35.934838637755, "lon": 139.78249068577, "category": "カフェ・喫茶", "category_id": "0100344", "time": ["18:00-23:00"], "star": 4.0, "review": 1}, {"name": "中華バル 光龍房", "address": "埼玉県越谷市千間台東1-8-8 1F", "lat": 35.934820938558, "lon": 139.77736958694, "category": "中華料理店", "category_id": "0100990", "time": ["18:00-23:00"], "star": 0.0, "review": 0}, {"name": "焼しゃぶ亭 翼（かがやき）", "address": "埼玉県越谷市千間台東1-9-12 池澤第2ビル2F", "lat": 35.93571, "lon": 139.775595, "category": "レストラン", "category_id": "0100111", "time": [], "star": 3.45, "review": 5}, {"name": "個室 やきとり道場 さくら せんげん台西口店", "address": "埼玉県越谷市千間台西1-67 せんげん台駅ビル2～3F", "lat": 35.935762, "lon": 139.774185, "category": "レストラン", "category_id": "0100111", "time": [], "star": 4.0, "review": 4}, {"name": "宅配とんかつ かさねや せんげん台店", "address": "埼玉県越谷市大字下間久里976-1 K2マンション 1F", "lat": 35.929299237758, "lon": 139.78029218572, "category": "とんかつ店", "category_id": "0100159", "time": ["10:00-22:00"], "star": 2.25, "review": 4}, {"name": "熊本馬肉専門店 馬映", "address": "埼玉県越谷市千間台東１-５-３スカイフラワーマンション１０１", "lat": 35.937117, "lon": 139.775639, "category": "飲食店", "category_id": "0102732", "time": [], "star": 3.9, "review": 2}, {"name": "九州人情酒場 魚星 せんげん台東口店", "address": "埼玉県越谷市千間台東1-10-1せんげん台パークプラザ 2F", "lat": 35.935669, "lon": 139.775129, "category": "居酒屋", "category_id": "0101495", "time": ["16:00-24:00"], "star": 3.87, "review": 23}, {"name": "中華料理飛龍", "address": "埼玉県越谷市千間台西2丁目4-16", "lat": 35.93438745, "lon": 139.77359356, "category": "飲食店", "category_id": "0102732", "time": ["11:30-16:00", "17:00-21:00"], "star": 3.83, "review": 2}, {"name": "カフェ・ド・クリエ せんげん台駅店", "address": "埼玉県越谷市千間台西1丁目67 トスカせんげん台1F", "lat": 35.93575434, "lon": 139.77416375, "category": "カフェ・喫茶", "category_id": "0100344", "time": ["06:45-21:00"], "star": 4.0, "review": 44}, {"name": "サンミシェル", "address": "埼玉県越谷市千間台西1-10-19", "lat": 35.93588709, "lon": 139.77308772, "category": "カフェ・喫茶", "category_id": "0100344", "time": ["11:00-17:30"], "star": 3.58, "review": 14}, {"name": "もつ焼 ともや", "address": "埼玉県越谷市千間台東1-5-3", "lat": 35.937244088556, "lon": 139.77565177696, "category": "居酒屋", "category_id": "0101495", "time": ["17:00-23:00"], "star": 4.24, "review": 13}, {"name": "厨sawa", "address": "埼玉県越谷市千間台西1-23-16", "lat": 35.937626, "lon": 139.76981958, "category": "洋食店", "category_id": "0100129", "time": ["11:30-13:30", "18:00-21:00"], "star": 3.95, "review": 44}, {"name": "花笠", "address": "埼玉県越谷市千間台西 1-6-9", "lat": 35.93462371826172, "lon": 139.7728271484375, "category": "飲食店", "category_id": "0102732", "time": ["17:00-20:00"], "star": 4.75, "review": 1}, {"name": "カジュアルバー ライラック 来楽", "address": "埼玉県春日部市大枝467-1", "lat": 35.941292639519, "lon": 139.77600390552, "category": "バー", "category_id": "0100536", "time": [], "star": 0.0, "review": 0}, {"name": "日高屋 せんげん台駅ビル店", "address": "埼玉県越谷市千間台西1-67 駅ビル内", "lat": 35.93578489, "lon": 139.77414709, "category": "定食屋", "category_id": "0101441", "time": ["10:00-26:00"], "star": 3.89, "review": 41}, {"name": "珈琲屋珈人 千間台東店", "address": "埼玉県越谷市千間台東2-15-4", "lat": 35.935860818558, "lon": 139.77871877695, "category": "カフェ・喫茶", "category_id": "0100344", "time": ["09:00-19:00"], "star": 4.06, "review": 41}, {"name": "創作イタリアン肉バル CRAFT", "address": "埼玉県越谷市千間台東1-7-26ララせんげん台 2", "lat": 35.936974, "lon": 139.776837, "category": "飲食店", "category_id": "0102732", "time": ["11:00-15:00", "17:00-23:00"], "star": 4.05, "review": 8}, {"name": "千間台 一丁目酒場", "address": "埼玉県越谷市千間台東1-2-2 ララせんげん台 1F", "lat": 35.936878948557, "lon": 139.77554944696, "category": "居酒屋", "category_id": "0101495", "time": ["17:00-29:00"], "star": 3.94, "review": 4}, {"name": "まぐろやモンキー せんげん台店", "address": "埼玉県越谷市千間台東1-1-13", "lat": 35.936459, "lon": 139.77622, "category": "居酒屋", "category_id": "0101495", "time": ["16:30-25:00"], "star": 3.72, "review": 16}], "カフェ": [{"name": "カフェ・ド・クリエ せんげん台駅店", "address": "埼玉県越谷市千間台西1丁目67 トスカせんげん台1F", "lat": 35.93575434, "lon": 139.77416375, "category": "カフェ・喫茶", "category_id": "0100344", "time": ["06:45-21:00"], "star": 4.0, "review": 44}, {"name": "Again.", "address": "埼玉県越谷市千間台東2-361-6 ヴィーナスフォートせんげん台 2F", "lat": 35.934838637755, "lon": 139.78249068577, "category": "カフェ・喫茶", "category_id": "0100344", "time": ["18:00-23:00"], "star": 4.0, "review": 1}, {"name": "サンミシェル", "address": "埼玉県越谷市千間台西1-10-19", "lat": 35.93588709, "lon": 139.77308772, "category": "カフェ・喫茶", "category_id": "0100344", "time": ["11:00-17:30"], "star": 3.58, "review": 14}, {"name": "珈琲屋珈人 千間台東店", "address": "埼玉県越谷市千間台東2-15-4", "lat": 35.935860818558, "lon": 139.77871877695, "category": "カフェ・喫茶", "category_id": "0100344", "time": ["09:00-19:00"], "star": 4.06, "review": 41}, {"name": "hanacafe", "address": "埼玉県越谷市大字大泊1031-1", "lat": 35.93708345, "lon": 139.78065242, "category": "カフェ・喫茶", "category_id": "0100344", "time": ["11:30-18:00"], "star": 3.95, "review": 5}, {"name": "サウンドスペースビジョン", "address": "埼玉県越谷市千間台東1-7-2", "lat": 35.93755115, "lon": 139.77686879, "category": "カフェ・喫茶", "category_id": "0100344", "time": [], "star": 3.25, "review": 2}, {"name": "cafe essen", "address": "埼玉県越谷市千間台西3-1-23", "lat": 35.934216761737, "lon": 139.76883189184, "category": "カフェ・喫茶", "category_id": "0100344", "time": ["11:00-19:00"], "star": 3.85, "review": 11}, {"name": "珈人 千間台西店", "address": "埼玉県越谷市千間台西2-9-8", "lat": 35.93242486, "lon": 139.7713835, "category": "カフェ・喫茶", "category_id": "0100344", "time": ["09:00-19:00"], "star": 4.16, "review": 31}, {"name": "ドトールキッチン EneJetせんげん台店", "address": "埼玉県越谷市千間台東3-6-1", "lat": 35.9330191, "lon": 139.7787255, "category": "カフェ・喫茶", "category_id": "0100344", "time": ["07:00-21:00"], "star": 3.69, "review": 33}, {"name": "カフェ ラファイエット", "address": "埼玉県越谷市千間台東1-8-82F", "lat": 35.934821, "lon": 139.777383, "category": "洋食店", "category_id": "0100129", "time": ["18:00-25:00"], "star": 3.58, "review": 7}, {"name": "came came 30", "address": "埼玉県春日部市大枝104-53", "lat": 35.937946428554, "lon": 139.76831849698, "category": "カフェ・喫茶", "category_id": "0100344", "time": ["11:30-15:00"], "star": 3.61, "review": 12}, {"name": "珈琲館 春日部武里店", "address": "埼玉県春日部市大畑919-18 ", "lat": 35.94266383, "lon": 139.76852512, "category": "コーヒー店", "category_id": "0100496", "time": ["08:00-21:00"], "star": 3.69, "review": 24}, {"name": "SORAHA", "address": "埼玉県越谷市千間台西1丁目10-13 千間台プラザ101", "lat": 35.9359055, "lon": 139.7724609, "category": "カフェ・喫茶", "category_id": "0100344", "time": [], "star": 0.0, "review": 0}, {"name": "noix", "address": "埼玉県越谷市千間台西5-3-2 アメックスグリム 1F", "lat": 35.932596238556, "lon": 139.76535048692, "category": "カフェ・喫茶", "category_id": "0100344", "time": ["11:00-17:00"], "star": 3.25, "review": 2}, {"name": "珈琲百貨店 イオンせんげん台店", "address": "埼玉県越谷市千間台西3丁目2-12 イオンスタイルせんげん台 1F", "lat": 35.933548, "lon": 139.7666473, "category": "カフェ・喫茶", "category_id": "0100344", "time": [], "star": 4.5, "review": 2}, {"name": "すとろべりーふぁーむ", "address": "埼玉県越谷市千間台西5丁目2-11", "lat": 35.9325194, "lon": 139.7662595, "category": "カフェ・喫茶", "category_id": "0100344", "time": [], "star": 4.0, "review": 1}, {"name": "カフェ・ピエロ", "address": "埼玉県越谷市千間台東1丁目8-20", "lat": 35.93581069, "lon": 139.77693411, "category": "カフェ・喫茶", "category_id": "0100344", "time": [], "star": 0.0, "review": 0}, {"name": "快活CLUB せんげん台駅東口店", "address": "埼玉県越谷市千間台東1-10-1 せんげん台パークプラザ 3F", "lat": 35.9356905, "lon": 139.7751359, "category": "ネットカフェ", "category_id": "0100271", "time": [], "star": 3.96, "review": 9}, {"name": "ガスト 越谷大袋店", "address": "埼玉県越谷市大字上間久里築堤49-1", "lat": 35.92987792713546, "lon": 139.78058017696245, "category": "カフェ・喫茶", "category_id": "0100344", "time": ["07:00-23:30"], "star": 3.78, "review": 55}, {"name": "カラオケスタジオめい", "address": "埼玉県越谷市千間台東1丁目6-15", "lat": 35.93702348, "lon": 139.77622941, "category": "カフェ・喫茶", "category_id": "0100344", "time": [], "star": 0.0, "review": 0}], "ドラッグストア": [{"name": "ドラッグストアスマイル せんげん台店", "address": "埼玉県越谷市千間台東町1-10-1", "lat": 35.935704296462085, "lon": 139.77510082484233, "category": "ドラッグストア", "category_id": "0200699", "time": ["09:00-22:45"], "star": 4.06, "review": 27}, {"name": "カワチ薬品 千間台店", "address": "埼玉県越谷市千間台西1-8-16", "lat": 35.9346962, "lon": 139.7710224, "category": "ドラッグストア", "category_id": "0200699", "time": ["09:00-21:00"], "star": 4.42, "review": 76}, {"name": "マツモトキヨシ ドラッグストア セブンタウンせんげん台店", "address": "埼玉県越谷市千間台東2-707", "lat": 35.9368263, "lon": 139.7780718, "category": "ドラッグストア", "category_id": "0200699", "time": ["09:00-21:00"], "star": 4.0, "review": 2}, {"name": "ドラッグストアセキ 千間台店", "address": "埼玉県越谷市千間台東3-28-7", "lat": 35.9307748, "lon": 139.7799746, "category": "ドラッグストア", "category_id": "0200699", "time": ["09:00-23:00"], "star": 4.46, "review": 154}, {"name": "ドラッグセイムス せんげん台店", "address": "埼玉県越谷市千間台西1-9-7", "lat": 35.93508212, "lon": 139.7700113, "category": "ドラッグストア", "category_id": "0200699", "time": ["00:00-24:00"], "star": 4.56, "review": 57}, {"name": "ドラッグストアーイコー", "address": "埼玉県越谷市千間台東1丁目1-6", "lat": 35.9363914, "lon": 139.776028, "category": "ドラッグストア", "category_id": "0200699", "time": [], "star": 3.8, "review": 1}, {"name": "ウエルシア春日部武里店", "address": "埼玉県春日部市大畑524-7", "lat": 35.942503, "lon": 139.769281, "category": "ドラッグストア", "category_id": "0200699", "time": ["09:00-24:00"], "star": 4.1, "review": 5}, {"name": "コスモス せんげん台店", "address": "埼玉県越谷市千間台西3-3-37", "lat": 35.9338403, "lon": 139.7661588, "category": "ドラッグストア", "category_id": "0200699", "time": [], "star": 4.12, "review": 95}, {"name": "エスシーグループ 東口薬局", "address": "埼玉県越谷市千間台東1-9-12", "lat": 35.935708, "lon": 139.775632, "category": "調剤薬局", "category_id": "0202315", "time": ["10:00-19:00"], "star": 4.0, "review": 1}, {"name": "ドラッグストアひらき", "address": "埼玉県越谷市千間台東1丁目7-2", "lat": 35.93745617, "lon": 139.77688296, "category": "ドラッグストア", "category_id": "0200699", "time": [], "star": 0.0, "review": 0}, {"name": "マツモトキヨシ ドラッグストア セブンタウンせんげん台店", "address": "埼玉県越谷市千間台東2-707", "lat": 35.9369083, "lon": 139.778061, "category": "調剤薬局", "category_id": "0202315", "time": [], "star": 0.0, "review": 0}, {"name": "エスシーグループ 鈴木薬局", "address": "埼玉県越谷市千間台西1-67 せんげん台トスカ 4F", "lat": 35.9357046, "lon": 139.774205, "category": "調剤薬局", "category_id": "0202315", "time": ["09:00-18:30"], "star": 0.0, "review": 1}, {"name": "富士薬品 ドラッグセイムスせんげん台店", "address": "埼玉県越谷市千間台西1-9-7", "lat": 35.9350083, "lon": 139.77012, "category": "調剤薬局", "category_id": "0202315", "time": [], "star": 4.0, "review": 1}, {"name": "CHARGE SPOT ドラッグストアスマイル せんげん台店", "address": "埼玉県越谷市千間台東1丁目10-1", "lat": 35.9356584, "lon": 139.775134, "category": "モバイルバッテリーレンタルスポット", "category_id": "0403001", "time": [], "star": 0.0, "review": 0}, {"name": "コスモス調剤薬局 せんげん台店", "address": "埼玉県越谷市千間台西3丁目3-37", "lat": 35.9335258, "lon": 139.7655772, "category": "調剤薬局", "category_id": "0202315", "time": ["10:00-21:00"], "star": 0.0, "review": 0}, {"name": "たから薬局大枝店", "address": "埼玉県春日部市大枝314-1", "lat": 35.9390067, "lon": 139.77432617, "category": "調剤薬局", "category_id": "0202315", "time": [], "star": 4.5, "review": 0}, {"name": "クスリの石川", "address": "埼玉県春日部市大枝352-3", "lat": 35.94003472, "lon": 139.77465557, "category": "調剤薬局", "category_id": "0202315", "time": [], "star": 0.0, "review": 0}, {"name": "コジマ薬局本店", "address": "埼玉県越谷市千間台西1丁目10-9", "lat": 35.93567187, "lon": 139.77226112, "category": "調剤薬局", "category_id": "0202315", "time": [], "star": 0.0, "review": 0}, {"name": "ひまわり薬局せんげん台", "address": "埼玉県越谷市千間台西2丁目6-13", "lat": 35.9339101, "lon": 139.7729867, "category": "調剤薬局", "category_id": "0202315", "time": [], "star": 0.0, "review": 0}, {"name": "昭和堂薬局 せんげん台薬局", "address": "埼玉県越谷市千間台西1丁目13-9", "lat": 35.93633919127, "lon": 139.77276662, "category": "調剤薬局", "category_id": "0202315", "time": ["10:00-19:00"], "star": 0.0, "review": 0}], "ATM": [{"name": "三菱UFJ銀行 ATM せんげん台駅前", "address": "埼玉県越谷市千間台西1-10-19", "lat": 35.93582683, "lon": 139.77299967, "category": "ATM", "category_id": "0402785", "time": [], "star": 4.75, "review": 0}, {"name": "埼玉りそな銀行武里支店", "address": "埼玉県越谷市千間台西1-5-17", "lat": 35.9352934, "lon": 139.7725444, "category": "銀行", "category_id": "0402596", "time": ["09:00-17:00"], "star": 3.75, "review": 2}, {"name": "みずほ銀行 ATM 東武せんげん台駅出張所", "address": "埼玉県越谷市千間台東1-62-1", "lat": 35.9358216, "lon": 139.774271, "category": "ATM", "category_id": "0402785", "time": [], "star": 0.0, "review": 0}, {"name": "セブン銀行 東武鉄道 伊勢崎線 せんげん台駅", "address": "埼玉県越谷市千間台東1-62-1", "lat": 35.9357529, "lon": 139.774524, "category": "ATM", "category_id": "0402785", "time": ["05:00-24:00"], "star": 0.0, "review": 0}, {"name": "埼玉りそな銀行 せんげん台支店", "address": "埼玉県越谷市千間台西1-5-17", "lat": 35.9352961, "lon": 139.7725361, "category": "銀行", "category_id": "0402596", "time": ["09:00-17:00"], "star": 2.25, "review": 0}, {"name": "埼玉りそな銀行 ATM せんげん台支店", "address": "埼玉県越谷市千間台西1-5-17", "lat": 35.9352805, "lon": 139.772545, "category": "ATM", "category_id": "0402785", "time": [], "star": 0.0, "review": 0}, {"name": "栃木銀行 ATM せんげん台支店", "address": "埼玉県越谷市千間台東2-16-1", "lat": 35.9357226, "lon": 139.777862, "category": "ATM", "category_id": "0402785", "time": [], "star": 0.0, "review": 0}, {"name": "埼玉りそな銀行 ATM 武里支店", "address": "埼玉県越谷市千間台西1-5-17", "lat": 35.9352805, "lon": 139.772545, "category": "ATM", "category_id": "0402785", "time": [], "star": 0.0, "review": 0}, {"name": "栃木銀行 せんげん台支店", "address": "埼玉県越谷市千間台東2-16-1", "lat": 35.9361459, "lon": 139.7783218, "category": "銀行", "category_id": "0402596", "time": [], "star": 3.33, "review": 2}, {"name": "みずほ銀行 ATM セブンタウンせんげん台出張所", "address": "埼玉県越谷市千間台東2-707", "lat": 35.9367531, "lon": 139.778122, "category": "ATM", "category_id": "0402785", "time": [], "star": 0.0, "review": 0}, {"name": "ゆうちょ銀行 ATM ファミリーマートせんげん台駅前店内出張所", "address": "埼玉県越谷市千間台東町61", "lat": 35.9362491, "lon": 139.774622, "category": "ATM", "category_id": "0402785", "time": [], "star": 0.0, "review": 0}, {"name": "セブン銀行 セブンタウン せんげん台", "address": "埼玉県越谷市千間台東2-707", "lat": 35.936978, "lon": 139.777977, "category": "ATM", "category_id": "0402785", "time": ["09:00-21:00"], "star": 0.0, "review": 0}, {"name": "ゆうちょ銀行 越谷千間台西郵便局", "address": "埼玉県越谷市千間台西3-4-14", "lat": 35.9349788, "lon": 139.769128, "category": "銀行", "category_id": "0402596", "time": [], "star": 4.67, "review": 0}, {"name": "銀行ATM イーネット ファミリーマート千間台西一丁目 共同出張所", "address": "埼玉県越谷市千間台西1-14-2 ", "lat": 35.935843, "lon": 139.77112, "category": "ATM", "category_id": "0402785", "time": ["00:00-24:00"], "star": 0.0, "review": 0}, {"name": "セブン銀行 越谷せんげん台駅西口店", "address": "埼玉県越谷市千間台西1-4-4", "lat": 35.9352579, "lon": 139.773239, "category": "ATM", "category_id": "0402785", "time": ["00:00-24:00"], "star": 0.0, "review": 0}, {"name": "埼玉縣信用金庫 ATM セブンタウンせんげん台出張所", "address": "埼玉県越谷市千間台東2-707", "lat": 35.9369151, "lon": 139.778047, "category": "ATM", "category_id": "0402785", "time": [], "star": 0.0, "review": 0}, {"name": "埼玉りそな銀行 ATM 武里団地出張所", "address": "埼玉県春日部市大枝89", "lat": 35.94324, "lon": 139.76965, "category": "ATM", "category_id": "0402785", "time": [], "star": 0.0, "review": 0}, {"name": "セブン銀行 越谷千間台東1丁目店", "address": "埼玉県越谷市千間台東1-1-5", "lat": 35.9362479, "lon": 139.775814, "category": "ATM", "category_id": "0402785", "time": ["00:00-24:00"], "star": 0.0, "review": 0}, {"name": "みずほ銀行 ATM ミニストップせんげん台駅前店出張所", "address": "埼玉県越谷市千間台西1-10-19", "lat": 35.9359778, "lon": 139.773108, "category": "ATM", "category_id": "0402785", "time": [], "star": 0.0, "review": 0}, {"name": "イオン銀行 ATM ミニストップせんげん台駅前店出張所(店内)", "address": "埼玉県越谷市千間台西1-10-19", "lat": 35.9359778, "lon": 139.77309, "category": "ATM", "category_id": "0402785", "time": ["00:00-24:00"], "star": 0.0, "review": 0}], "スーパーマーケット": [{"name": "TOBU食鮮市場せんげん台店", "address": "埼玉県越谷市千間台西1丁目1-1", "lat": 35.9351665, "lon": 139.7736755, "category": "スーパー", "category_id": "0200612", "time": [], "star": 4.21, "review": 65}, {"name": "イオン スタイルせんげん台", "address": "埼玉県越谷市千間台西3-2-12", "lat": 35.9334794, "lon": 139.7672643, "category": "スーパー", "category_id": "0200612", "time": ["07:00-22:00"], "star": 4.07, "review": 386}, {"name": "ヨークフーズ せんげん台店", "address": "埼玉県越谷市千間台東2-707", "lat": 35.9368263, "lon": 139.7780718, "category": "スーパー", "category_id": "0200612", "time": ["09:00-21:00"], "star": 3.78, "review": 242}, {"name": "ラーテルマルサン 武里店", "address": "埼玉県春日部市大枝330-1", "lat": 35.9404478, "lon": 139.7736498, "category": "スーパー", "category_id": "0200612", "time": ["10:00-20:00"], "star": 4.14, "review": 0}, {"name": "カスミ フードスクエア春日部武里店", "address": "埼玉県春日部市大畑524-7", "lat": 35.9427528, "lon": 139.7695778, "category": "スーパー", "category_id": "0200612", "time": ["09:00-24:00"], "star": 4.13, "review": 161}, {"name": "スーパーマルサン 武里店", "address": "埼玉県春日部市大枝330-1", "lat": 35.9403701, "lon": 139.77369, "category": "スーパー", "category_id": "0200612", "time": [], "star": 0.0, "review": 0}, {"name": "Big-A 越谷千間台西店", "address": "埼玉県越谷市千間台西3-4-12", "lat": 35.9347321, "lon": 139.7691058, "category": "スーパー", "category_id": "0200612", "time": ["04:00-26:00"], "star": 4.23, "review": 29}, {"name": "Big-A せんげん台駅東口店", "address": "埼玉県越谷市千間台東1-3-1", "lat": 35.936568, "lon": 139.7746054, "category": "スーパー", "category_id": "0200612", "time": ["03:15-26:00"], "star": 0.0, "review": 0}, {"name": "コープみらい 千間台店", "address": "埼玉県越谷市千間台西5-3-8", "lat": 35.9316795, "lon": 139.7655673, "category": "スーパー", "category_id": "0200612", "time": ["09:00-20:00"], "star": 3.87, "review": 12}, {"name": "彩鮮マート", "address": "埼玉県春日部市大枝109-12", "lat": 35.9387124, "lon": 139.7685636, "category": "スーパー", "category_id": "0200612", "time": [], "star": 3.5, "review": 8}, {"name": "セブンタウンせんげん台", "address": "埼玉県越谷市千間台東2丁目707", "lat": 35.9368513, "lon": 139.7780884, "category": "ショッピングセンター・モール", "category_id": "0200537", "time": ["09:00-21:00"], "star": 4.06, "review": 73}, {"name": "キャン・ドゥ せんげん台駅前店", "address": "埼玉県越谷市千間台西1-1-1 2F", "lat": 35.9351573, "lon": 139.7736805, "category": "100円ショップ", "category_id": "0200001", "time": [], "star": 3.99, "review": 34}, {"name": "ダイソー セブンタウンせんげん台店", "address": "埼玉県越谷市千間台東２-７０７ セブンタウンせんげん台内２階", "lat": 35.93690128, "lon": 139.77808567, "category": "100円ショップ", "category_id": "0200001", "time": ["09:00-21:00"], "star": 3.94, "review": 37}, {"name": "パトリアせんげん台店", "address": "埼玉県越谷市千間台西3-2-12", "lat": 35.9334711, "lon": 139.7672588, "category": "ショッピングセンター・モール", "category_id": "0200537", "time": [], "star": 4.08, "review": 6}, {"name": "ドラッグストアセキ 千間台店", "address": "埼玉県越谷市千間台東3-28-7", "lat": 35.9307748, "lon": 139.7799746, "category": "ドラッグストア", "category_id": "0200699", "time": ["09:00-23:00"], "star": 4.46, "review": 154}]}, "top_restaurant": {"name": "花笠", "category": "飲食店", "star": 4.75, "review": 1}}, {"name": "つきのわ", "name_en": "Tsukinowa", "lat": 36.0434929, "lon": 139.3453972, "osm_id": 7864999264, "operator": "東武鉄道", "railway": "station", "wikidata": "Q7850076", "wikipedia_tag": "ja:つきのわ駅", "lines": [], "pref": "埼玉県", "wikipedia_text": "つきのわ駅（つきのわえき）は、埼玉県比企郡滑川町月の輪一丁目にある、東武鉄道東上本線の駅である。駅番号はTJ 31。\n東上本線では、2020年10月31日に開業したみなみ寄居駅に次いで2番目に新しい駅である。", "wikipedia_image": "https://upload.wikimedia.org/wikipedia/commons/2/23/Tsukinowa_Station_North_Entrance_20120905.JPG", "nearest_convenience": {"name": "ローソン", "lat": 36.0395967, "lon": 139.3400822, "address": "", "distance_m": 645, "brand": "ローソン"}, "nearest_restaurant": {"name": "えもり食堂", "lat": 36.0329998, "lon": 139.350498, "address": "", "distance_m": 1254, "cuisine": "regional"}, "nearby_pois": {"コンビニ": [{"name": "セブンイレブン つきのわ駅北", "address": "埼玉県比企郡滑川町月の輪3-10-3", "lat": 36.0469191, "lon": 139.3442355, "category": "コンビニ", "category_id": "0200487", "time": ["00:00-24:00"], "star": 3.92, "review": 21}, {"name": "ローソン 東松山バイパス", "address": "埼玉県東松山市上唐子1411-24", "lat": 36.0395533, "lon": 139.3400808, "category": "コンビニ", "category_id": "0200487", "time": ["00:00-24:00"], "star": 3.9, "review": 14}, {"name": "ミニストップ 滑川月輪店", "address": "埼玉県比企郡滑川町月輪1519-8", "lat": 36.043414, "lon": 139.3551515, "category": "コンビニ", "category_id": "0200487", "time": [], "star": 4.19, "review": 8}], "ラーメン": [{"name": "つきのわ食堂", "address": "埼玉県比企郡滑川町大字月輪913-8", "lat": 36.04575903, "lon": 139.33704446, "category": "ラーメン店", "category_id": "0100097", "time": [], "star": 0.0, "review": 1}], "飲食店": [{"name": "カモミール", "address": "埼玉県東松山市下唐子2014-1", "lat": 36.038132338357, "lon": 139.35047284828, "category": "カフェ・喫茶", "category_id": "0100344", "time": ["11:00-17:00"], "star": 3.4, "review": 2}, {"name": "HAWAIIランチボックスHONU", "address": "埼玉県比企郡滑川町月の輪2-26-2", "lat": 36.044141348353, "lon": 139.35125961834, "category": "ハワイ料理店", "category_id": "0100719", "time": ["11:00-14:00", "16:00-19:00"], "star": 0.0, "review": 0}, {"name": "會津野茂三郎", "address": "埼玉県比企郡滑川町月輪879ー1", "lat": 36.04494162, "lon": 139.33844996, "category": "蕎麦店", "category_id": "0100034", "time": ["11:00-19:00"], "star": 3.71, "review": 33}, {"name": "キッチンありむ", "address": "埼玉県比企郡滑川町月輪1521-17", "lat": 36.04538177, "lon": 139.35421063, "category": "洋食店", "category_id": "0100129", "time": ["11:00-15:00", "17:30-21:30"], "star": 4.1, "review": 23}, {"name": "キッチン ひより", "address": "埼玉県比企郡滑川町月輪1634-5", "lat": 36.03889865, "lon": 139.35200691, "category": "洋食店", "category_id": "0100129", "time": ["11:30-14:30", "17:30-20:30"], "star": 3.97, "review": 21}, {"name": "旬菜 善", "address": "埼玉県比企郡滑川町月輪950-1", "lat": 36.0454999, "lon": 139.33598206, "category": "和食店", "category_id": "0100126", "time": ["11:30-22:00"], "star": 4.45, "review": 11}, {"name": "コヤナギコーヒーニッポン", "address": "埼玉県東松山市下唐子1967-2", "lat": 36.03586763, "lon": 139.3501248, "category": "コーヒー店", "category_id": "0100496", "time": ["10:00-15:00"], "star": 3.8, "review": 3}, {"name": "そば処義三郎", "address": "埼玉県比企郡滑川町大字月輪879-1", "lat": 36.04496523, "lon": 139.33843913, "category": "蕎麦店", "category_id": "0100034", "time": [], "star": 0.0, "review": 1}, {"name": "居酒屋 いこい", "address": "埼玉県比企郡滑川町月輪894-7", "lat": 36.04573346, "lon": 139.33843352, "category": "居酒屋", "category_id": "0101495", "time": ["11:00-14:00", "17:00-22:00"], "star": 3.6, "review": 3}, {"name": "芝", "address": "埼玉県東松山市上唐子1038-2", "lat": 36.03741274, "lon": 139.34504449, "category": "とんかつ店", "category_id": "0100159", "time": [], "star": 3.55, "review": 14}, {"name": "居酒屋えん", "address": "埼玉県東松山市大字下唐子2007-2", "lat": 36.03843816, "lon": 139.34889913, "category": "居酒屋", "category_id": "0101495", "time": [], "star": 3.0, "review": 1}, {"name": "焼鳥みやこ", "address": "埼玉県比企郡滑川町大字月輪795-1", "lat": 36.0476776, "lon": 139.34702075, "category": "焼き鳥店", "category_id": "0101960", "time": [], "star": 3.0, "review": 2}, {"name": "焼き鳥 岡ちゃん", "address": "埼玉県比企郡滑川町月の輪6-7-20", "lat": 36.04695799, "lon": 139.34315167, "category": "焼き鳥店", "category_id": "0101960", "time": [], "star": 3.0, "review": 1}, {"name": "つきのわ食堂", "address": "埼玉県比企郡滑川町大字月輪913-8", "lat": 36.04575903, "lon": 139.33704446, "category": "ラーメン店", "category_id": "0100097", "time": [], "star": 0.0, "review": 1}, {"name": "居酒屋にこにこ", "address": "埼玉県東松山市大字上唐子1115", "lat": 36.03594986, "lon": 139.34563817, "category": "居酒屋", "category_id": "0101495", "time": [], "star": 3.0, "review": 1}, {"name": "焼肉じゅうじゅう", "address": "埼玉県比企郡嵐山町川島2391-6", "lat": 36.04629146, "lon": 139.33658973, "category": "焼肉店", "category_id": "0101963", "time": ["11:00-23:00"], "star": 4.0, "review": 5}, {"name": "居酒屋ほっと川島店", "address": "埼玉県比企郡嵐山町大字川島2376-8", "lat": 36.04575904, "lon": 139.33558124, "category": "居酒屋", "category_id": "0101495", "time": [], "star": 3.0, "review": 2}, {"name": "5STAR MYANMAR つきのわ店", "address": "埼玉県比企郡滑川町月輪439-1", "lat": 36.048615478351, "lon": 139.35423687838, "category": "アジア料理店", "category_id": "0100123", "time": ["11:00-15:00"], "star": 3.4, "review": 2}, {"name": "増田屋", "address": "埼玉県比企郡嵐山町大字川島2391-4", "lat": 36.04619176, "lon": 139.33651585, "category": "うどん店", "category_id": "0100033", "time": [], "star": 1.5, "review": 0}, {"name": "牛たん伝説 和顔 東松山市大字上唐子1411-24", "address": "埼玉県東松山市上唐子1411-24", "lat": 36.0395646, "lon": 139.340426, "category": "牛タン店", "category_id": "0101973", "time": [], "star": 0.0, "review": 0}], "カフェ": [{"name": "カモミール", "address": "埼玉県東松山市下唐子2014-1", "lat": 36.038132338357, "lon": 139.35047284828, "category": "カフェ・喫茶", "category_id": "0100344", "time": ["11:00-17:00"], "star": 3.4, "review": 2}, {"name": "コヤナギコーヒーニッポン", "address": "埼玉県東松山市下唐子1967-2", "lat": 36.03586763, "lon": 139.3501248, "category": "コーヒー店", "category_id": "0100496", "time": ["10:00-15:00"], "star": 3.8, "review": 3}, {"name": "キッチンありむ", "address": "埼玉県比企郡滑川町月輪1521-17", "lat": 36.04538177, "lon": 139.35421063, "category": "洋食店", "category_id": "0100129", "time": ["11:00-15:00", "17:30-21:30"], "star": 4.1, "review": 23}, {"name": "キッチン ひより", "address": "埼玉県比企郡滑川町月輪1634-5", "lat": 36.03889865, "lon": 139.35200691, "category": "洋食店", "category_id": "0100129", "time": ["11:30-14:30", "17:30-20:30"], "star": 3.97, "review": 21}], "ドラッグストア": [{"name": "ドラッグストアセキ つきのわ店", "address": "埼玉県比企郡滑川町月の輪5-27-1", "lat": 36.0440112, "lon": 139.3385111, "category": "ドラッグストア", "category_id": "0200699", "time": ["09:00-23:00"], "star": 3.96, "review": 19}, {"name": "ウエルシア滑川つきのわ店", "address": "埼玉県比企郡滑川町月の輪7-29-1", "lat": 36.046414, "lon": 139.338588, "category": "ドラッグストア", "category_id": "0200699", "time": ["09:00-24:00"], "star": 4.5, "review": 7}, {"name": "エスシーグループ つきのわクローバ薬局", "address": "埼玉県比企郡滑川町月の輪1-4-1", "lat": 36.04209745, "lon": 139.34605822, "category": "調剤薬局", "category_id": "0202315", "time": ["09:00-18:00"], "star": 0.0, "review": 0}, {"name": "セキ薬局 つきのわ店", "address": "埼玉県比企郡滑川町月の輪5-27-1", "lat": 36.04382647, "lon": 139.33860392, "category": "調剤薬局", "category_id": "0202315", "time": ["09:00-19:00"], "star": 4.33, "review": 3}, {"name": "Photo-Me ドラッグストアセキ つきのわ店", "address": "埼玉県比企郡滑川町月の輪5-27-1", "lat": 36.0439555, "lon": 139.338614, "category": "証明写真機", "category_id": "0402784", "time": [], "star": 0.0, "review": 0}], "ATM": [{"name": "セブン銀行 東武鉄道 東上線 つきのわ駅", "address": "埼玉県比企郡滑川町月の輪1-1-1", "lat": 36.0434943, "lon": 139.34536, "category": "ATM", "category_id": "0402785", "time": ["05:00-24:00"], "star": 0.0, "review": 0}, {"name": "武蔵野銀行 ATM ヤオコーつきのわ駅前店", "address": "埼玉県比企郡滑川町月の輪1-4-1", "lat": 36.0418574, "lon": 139.345369, "category": "ATM", "category_id": "0402785", "time": [], "star": 0.0, "review": 0}, {"name": "武蔵野銀行ATM", "address": "埼玉県比企郡滑川町月の輪1丁目4-1", "lat": 36.04168778, "lon": 139.34514332, "category": "銀行", "category_id": "0402596", "time": [], "star": 0.0, "review": 1}, {"name": "セブン銀行 つきのわ駅北店", "address": "埼玉県比企郡滑川町月の輪3-10-3", "lat": 36.0469187, "lon": 139.344335, "category": "ATM", "category_id": "0402785", "time": ["00:00-24:00"], "star": 0.0, "review": 0}, {"name": "イオン銀行 ATM ウエルシア滑川つきのわ店出張所(店内)", "address": "埼玉県比企郡滑川町月の輪7-29-1", "lat": 36.0464148, "lon": 139.338588, "category": "ATM", "category_id": "0402785", "time": ["09:00-24:00"], "star": 0.0, "review": 0}, {"name": "みずほ銀行 ATM ウエルシア滑川つきのわ店出張所", "address": "埼玉県比企郡滑川町月の輪7-29-1", "lat": 36.0463035, "lon": 139.33863, "category": "ATM", "category_id": "0402785", "time": [], "star": 0.0, "review": 0}, {"name": "みずほ銀行 ATM ミニストップ滑川月輪店出張所", "address": "埼玉県比企郡滑川町月輪1519-8", "lat": 36.0434279, "lon": 139.355149, "category": "ATM", "category_id": "0402785", "time": [], "star": 0.0, "review": 0}, {"name": "ローソン銀行 東松山バイパス共同出張所", "address": "埼玉県東松山市上唐子1411-24", "lat": 36.039559, "lon": 139.340067, "category": "ATM", "category_id": "0402785", "time": ["00:00-24:00"], "star": 0.0, "review": 0}, {"name": "イオン銀行 ATM ミニストップ滑川月輪店出張所(店内)", "address": "埼玉県比企郡滑川町月輪1519-8", "lat": 36.0434347, "lon": 139.355128, "category": "ATM", "category_id": "0402785", "time": ["00:00-24:00"], "star": 0.0, "review": 0}], "スーパーマーケット": [{"name": "ヤオコー つきのわ駅前店", "address": "埼玉県比企郡滑川町月の輪1-4-1", "lat": 36.0419475, "lon": 139.3454219, "category": "スーパー", "category_id": "0200612", "time": ["09:00-21:30"], "star": 3.83, "review": 26}, {"name": "ベイシアマートつきのわ店", "address": "埼玉県比企郡滑川町月の輪7丁目29-1", "lat": 36.0463414, "lon": 139.338662, "category": "スーパー", "category_id": "0200612", "time": [], "star": 0.0, "review": 0}]}, "top_restaurant": {"name": "旬菜 善", "category": "和食店", "star": 4.45, "review": 11}}, {"name": "はくぶつかんきた", "name_en": "", "lat": 35.92353, "lon": 139.6173608, "osm_id": 11542331391, "operator": "", "railway": "halt", "wikidata": "", "wikipedia_tag": "", "lines": [], "pref": "埼玉県", "nearby_bus_stops": [{"name": "大成四丁目自治会館", "lat": 35.9241846, "lon": 139.6152768, "distance_m": 201, "operator": ""}, {"name": "富士フィルム大宮事業所入口", "lat": 35.9240689, "lon": 139.6219759, "distance_m": 420, "operator": "東武バスウエスト"}, {"name": "鉄道博物館南", "lat": 35.9191862, "lon": 139.6165789, "distance_m": 488, "operator": ""}], "nearest_convenience": {"name": "ミニストップ", "lat": 35.9211146, "lon": 139.6167911, "address": "", "distance_m": 273, "brand": "MINISTOP"}, "nearest_restaurant": {"name": "キズカフェ", "lat": 35.9223236, "lon": 139.6176512, "address": "", "distance_m": 137, "cuisine": ""}, "nearby_pois": {"コンビニ": [{"name": "ミニストップ 鉄道博物館前店", "address": "埼玉県さいたま市大宮区大成町3-283-1", "lat": 35.9211255, "lon": 139.6168242, "category": "コンビニ", "category_id": "0200487", "time": [], "star": 3.97, "review": 37}, {"name": "ファミリーマート さいたま大成橋南店", "address": "埼玉県さいたま市北区大成町4-514-2", "lat": 35.9267467, "lon": 139.615177, "category": "コンビニ", "category_id": "0200487", "time": ["00:00-24:00"], "star": 4.1, "review": 26}, {"name": "ローソン さいたま大成町四丁目", "address": "埼玉県さいたま市北区大成町4-458", "lat": 35.9245859, "lon": 139.6133133, "category": "コンビニ", "category_id": "0200487", "time": ["00:00-24:00"], "star": 4.14, "review": 3}, {"name": "ローソン さいたま東大成町一丁目", "address": "埼玉県さいたま市北区東大成町1-581-1", "lat": 35.9221478, "lon": 139.6228348, "category": "コンビニ", "category_id": "0200487", "time": ["00:00-24:00"], "star": 4.24, "review": 50}, {"name": "セブンイレブン 鉄道博物館前", "address": "埼玉県さいたま市大宮区大成町3-263-1", "lat": 35.919773, "lon": 139.6170103, "category": "コンビニ", "category_id": "0200487", "time": ["00:00-24:00"], "star": 3.86, "review": 72}, {"name": "セブンイレブン さいたま植竹町1丁目", "address": "埼玉県さいたま市北区植竹町1-41-1", "lat": 35.9213008, "lon": 139.6252569, "category": "コンビニ", "category_id": "0200487", "time": ["00:00-24:00"], "star": 3.94, "review": 8}, {"name": "ファミリーマート さいたま櫛引町二丁目店", "address": "埼玉県さいたま市北区櫛引町2-263-1", "lat": 35.9188202, "lon": 139.6102997, "category": "コンビニ", "category_id": "0200487", "time": ["00:00-24:00"], "star": 4.28, "review": 28}, {"name": "セブンイレブン さいたま大成町3丁目", "address": "埼玉県さいたま市大宮区大成町3-545", "lat": 35.9189008, "lon": 139.6131967, "category": "コンビニ", "category_id": "0200487", "time": ["00:00-24:00"], "star": 4.22, "review": 21}, {"name": "ファミリーマート さいたま大成町四丁目店", "address": "埼玉県さいたま市北区大成町4-721-1", "lat": 35.9293906, "lon": 139.6143465, "category": "コンビニ", "category_id": "0200487", "time": ["00:00-24:00"], "star": 3.67, "review": 9}, {"name": "セブンイレブン さいたま櫛引町2丁目", "address": "埼玉県さいたま市北区櫛引町2-754", "lat": 35.9226444, "lon": 139.607911, "category": "コンビニ", "category_id": "0200487", "time": ["00:00-24:00"], "star": 4.04, "review": 27}, {"name": "ローソン さいたま植竹町一丁目", "address": "埼玉県さいたま市北区植竹町1-588-1", "lat": 35.9276192, "lon": 139.6251012, "category": "コンビニ", "category_id": "0200487", "time": ["00:00-24:00"], "star": 3.98, "review": 50}, {"name": "ファミリーマート さいたま宮原町一丁目店", "address": "埼玉県さいたま市北区宮原町1-38-3", "lat": 35.9321403, "lon": 139.6179739, "category": "コンビニ", "category_id": "0200487", "time": ["00:00-24:00"], "star": 3.86, "review": 6}, {"name": "ファミリーマート 北大宮駅前店", "address": "埼玉県さいたま市大宮区土手町3-285", "lat": 35.9170376, "lon": 139.6246848, "category": "コンビニ", "category_id": "0200487", "time": ["00:00-24:00"], "star": 0.0, "review": 1}, {"name": "ロヂャース 大成店", "address": "埼玉県さいたま市北区大成町4-298-2", "lat": 35.9219309, "lon": 139.614741, "category": "ディスカウントストア", "category_id": "0200677", "time": ["09:30-21:30"], "star": 3.86, "review": 496}, {"name": "マルエツ 大成店", "address": "埼玉県さいたま市北区東大成町1-507", "lat": 35.9219644, "lon": 139.6221377, "category": "スーパー", "category_id": "0200612", "time": ["00:00-24:00"], "star": 3.54, "review": 109}, {"name": "マミーマート 生鮮市場TOP 大成店", "address": "埼玉県さいたま市北区大成町4-224", "lat": 35.9201505, "lon": 139.613734, "category": "スーパー", "category_id": "0200612", "time": ["09:00-21:00"], "star": 2.5, "review": 2}, {"name": "ヤオコー 大宮盆栽町店", "address": "埼玉県さいたま市北区盆栽町485-1", "lat": 35.9284635, "lon": 139.6260206, "category": "スーパー", "category_id": "0200612", "time": ["09:00-21:45"], "star": 3.94, "review": 420}, {"name": "まいばすけっと 鉄道博物館駅南", "address": "埼玉県さいたま市大宮区大成町3-249", "lat": 35.919137, "lon": 139.6170937, "category": "スーパー", "category_id": "0200612", "time": ["08:00-23:00"], "star": 0.0, "review": 1}, {"name": "オーケー 大宮宮原店", "address": "埼玉県さいたま市北区植竹町1-820-5", "lat": 35.9301713, "lon": 139.6207181, "category": "スーパー", "category_id": "0200612", "time": ["10:00-20:00"], "star": 4.12, "review": 657}], "ラーメン": [{"name": "綾川 大成店", "address": "埼玉県さいたま市北区大成町4-399", "lat": 35.92379998, "lon": 139.61512151, "category": "ラーメン店", "category_id": "0100097", "time": ["11:00-23:00"], "star": 4.14, "review": 75}, {"name": "りゅうとら", "address": "埼玉県さいたま市北区大成町4-510", "lat": 35.92580408, "lon": 139.61530257, "category": "ラーメン店", "category_id": "0100097", "time": ["11:30-15:00", "18:00-22:30"], "star": 3.54, "review": 20}, {"name": "麺匠たかや", "address": "埼玉県さいたま市北区東大成町2-268-26", "lat": 35.9275054, "lon": 139.62121957, "category": "ラーメン店", "category_id": "0100097", "time": ["11:30-15:00", "18:00-26:00"], "star": 3.43, "review": 18}, {"name": "狼煙 本店", "address": "埼玉県さいたま市北区東大成町1-544", "lat": 35.92400382, "lon": 139.62216568, "category": "つけ麺店", "category_id": "0102844", "time": ["11:00-20:20"], "star": 4.38, "review": 280}, {"name": "ラーメン日の輪", "address": "埼玉県さいたま市北区櫛引町2-574-1 イオン大宮フードコート", "lat": 35.92336374, "lon": 139.60947751, "category": "飲食店", "category_id": "0102732", "time": [], "star": 0.0, "review": 0}, {"name": "時は餃子成り", "address": "埼玉県さいたま市北区東大成町1丁目606", "lat": 35.92111329, "lon": 139.62429919, "category": "飲食店", "category_id": "0102732", "time": ["11:30-15:00"], "star": 0.0, "review": 1}, {"name": "アデッソラボ", "address": "埼玉県さいたま市大宮区大成町3丁目306-1", "lat": 35.92111991, "lon": 139.61516627, "category": "中華料理店", "category_id": "0100990", "time": ["11:00-21:00"], "star": 3.77, "review": 6}, {"name": "ビューレストラン", "address": "埼玉県さいたま市大宮区大成町3-47 鉄道博物館 南館 4F", "lat": 35.919403999751, "lon": 139.61847448151, "category": "レストラン", "category_id": "0100111", "time": ["11:00-17:00"], "star": 3.99, "review": 45}, {"name": "中華料理 華星 横浜中華 イオン大宮", "address": "埼玉県さいたま市北区櫛引町2-574-1 イオン大宮店 1F", "lat": 35.9232419, "lon": 139.609297, "category": "飲食店", "category_id": "0102732", "time": ["10:30-21:00"], "star": 3.92, "review": 3}, {"name": "江南春", "address": "埼玉県さいたま市北区櫛引町2-574-1 大宮サティ 1F", "lat": 35.923741108512, "lon": 139.60922216694, "category": "中華料理店", "category_id": "0100990", "time": ["11:00-21:30"], "star": 3.85, "review": 42}, {"name": "中国&無国籍海山", "address": "埼玉県さいたま市北区植竹町1-594-12", "lat": 35.9277602, "lon": 139.62374215, "category": "中華料理店", "category_id": "0100990", "time": ["11:00-14:00", "17:00-22:30"], "star": 4.12, "review": 17}, {"name": "餃子の王将 東大成店", "address": "埼玉県さいたま市北区東大成町2-488-6", "lat": 35.9324401, "lon": 139.6163157, "category": "餃子店", "category_id": "0102733", "time": ["11:00-22:00"], "star": 4.04, "review": 88}, {"name": "香新", "address": "埼玉県さいたま市大宮区大成町3-403-3", "lat": 35.916490739485, "lon": 139.61520884442, "category": "中華料理店", "category_id": "0100990", "time": ["11:00-13:30"], "star": 3.67, "review": 13}, {"name": "迎春軒", "address": "埼玉県さいたま市北区日進町2-508", "lat": 35.92605627, "lon": 139.60848199, "category": "中華料理店", "category_id": "0100990", "time": [], "star": 3.3, "review": 5}, {"name": "味楽", "address": "埼玉県さいたま市大宮区大成町3-615-14", "lat": 35.91631955, "lon": 139.61283987, "category": "中華料理店", "category_id": "0100990", "time": [], "star": 3.2, "review": 1}, {"name": "焼肉ホルモン 口火", "address": "埼玉県さいたま市北区櫛引町2-286", "lat": 35.91862237, "lon": 139.60902485, "category": "焼肉店", "category_id": "0101963", "time": ["17:00-23:00"], "star": 4.04, "review": 17}], "飲食店": [{"name": "キッズカフェ", "address": "埼玉県さいたま市大宮区大成町3-47 鉄道博物館本館1F キッズプラザ内", "lat": 35.920931538517, "lon": 139.61814898691, "category": "カフェ・喫茶", "category_id": "0100344", "time": ["10:00-17:00"], "star": 4.06, "review": 83}, {"name": "ことこと", "address": "埼玉県さいたま市北区東大成町2-453", "lat": 35.930004298511, "lon": 139.619277127, "category": "カフェ・喫茶", "category_id": "0100344", "time": ["07:00-17:00"], "star": 3.86, "review": 13}, {"name": "トレインレストラン日本食堂", "address": "埼玉県さいたま市大宮区大成町3-47 鉄道博物館 本館 2F", "lat": 35.920852637711, "lon": 139.61818988575, "category": "レストラン", "category_id": "0100111", "time": ["11:00-17:00"], "star": 4.25, "review": 52}, {"name": "鉄板焼ひろた", "address": "埼玉県さいたま市北区東大成町1-590", "lat": 35.921047288518, "lon": 139.62308917691, "category": "鉄板焼き店", "category_id": "0101964", "time": ["17:00-22:00"], "star": 0.0, "review": 0}, {"name": "立喰・立呑 波音", "address": "埼玉県さいたま市大宮区土手町3-247-1", "lat": 35.91831528163, "lon": 139.62532087514, "category": "蕎麦店", "category_id": "0100034", "time": [], "star": 0.0, "review": 1}, {"name": "鎌倉光悦 イオン大宮店", "address": "埼玉県さいたま市北区櫛引町2-574-1 イオン大宮店 1F", "lat": 35.923316968512, "lon": 139.60944913694, "category": "とんかつ店", "category_id": "0100159", "time": ["09:00-21:00"], "star": 4.75, "review": 1}, {"name": "インド ネパール レストラン ティルパティ", "address": "埼玉県さいたま市北区東大成町1-512-5", "lat": 35.922261, "lon": 139.62246, "category": "インド料理店", "category_id": "0100282", "time": ["11:00-15:00", "17:00-22:00"], "star": 3.43, "review": 4}, {"name": "カラオケ喫茶マリオン", "address": "埼玉県さいたま市北区東大成町1-231-10", "lat": 35.920336058518, "lon": 139.6214895169, "category": "カフェ・喫茶", "category_id": "0100344", "time": [], "star": 0.0, "review": 0}, {"name": "Cafe Belax", "address": "埼玉県さいたま市北区植竹町1-816-8", "lat": 35.930670158512, "lon": 139.623888197, "category": "カフェ・喫茶", "category_id": "0100344", "time": [], "star": 3.58, "review": 14}, {"name": "カフェレストケイ", "address": "埼玉県さいたま市北区大成町4-57-11", "lat": 35.921314778515, "lon": 139.61523445692, "category": "ダイニングバー", "category_id": "0100645", "time": ["11:00-15:00", "17:00-23:00"], "star": 0.0, "review": 0}, {"name": "レッツイート イオン大宮店", "address": "埼玉県さいたま市北区櫛引町2-574-1イオン大宮店 1F フードコート", "lat": 35.9232521, "lon": 139.6096713, "category": "洋食店", "category_id": "0100129", "time": [], "star": 4.5, "review": 1}, {"name": "家庭料理 ゆうき", "address": "埼玉県さいたま市北区植竹町1-795", "lat": 35.928107037709, "lon": 139.62446888582, "category": "定食屋", "category_id": "0101441", "time": [], "star": 3.58, "review": 5}, {"name": "NRE「旅のレストラン 日本食堂」", "address": "埼玉県さいたま市大宮区大成町3丁目47番", "lat": 35.9208395, "lon": 139.61818521, "category": "飲食店", "category_id": "0102732", "time": ["11:00-18:00"], "star": 4.5, "review": 2}, {"name": "居酒屋 赤とうがらし", "address": "埼玉県さいたま市大宮区土手町3-247", "lat": 35.918272858521, "lon": 139.62531481688, "category": "居酒屋", "category_id": "0101495", "time": ["17:00-23:00"], "star": 3.3, "review": 3}, {"name": "とりあえずここで いつものとこで", "address": "埼玉県さいたま市北区東大成町1-606", "lat": 35.921140313486, "lon": 139.62427291203, "category": "居酒屋", "category_id": "0101495", "time": [], "star": 0.0, "review": 0}, {"name": "レ・スリジェ", "address": "埼玉県さいたま市北区東大成町2-214 クレセントビル 2F", "lat": 35.925946637708, "lon": 139.6192942858, "category": "イタリア料理店", "category_id": "0100263", "time": ["11:30-15:00", "17:30-22:00"], "star": 4.68, "review": 25}, {"name": "ビューレストラン", "address": "埼玉県さいたま市大宮区大成町3-47 鉄道博物館 南館 4F", "lat": 35.919403999751, "lon": 139.61847448151, "category": "レストラン", "category_id": "0100111", "time": ["11:00-17:00"], "star": 3.99, "review": 45}, {"name": "綾川 大成店", "address": "埼玉県さいたま市北区大成町4-399", "lat": 35.92379998, "lon": 139.61512151, "category": "ラーメン店", "category_id": "0100097", "time": ["11:00-23:00"], "star": 4.14, "review": 75}, {"name": "プリマヴェーラ北大宮", "address": "埼玉県さいたま市北区東大成町1丁目489-1 ", "lat": 35.92007782483312, "lon": 139.62290152724168, "category": "飲食店", "category_id": "0102732", "time": ["17:00-24:00"], "star": 4.05, "review": 8}, {"name": "生ラムジンギスカン めいごる", "address": "埼玉県さいたま市北区植竹町1-157-1", "lat": 35.92153907, "lon": 139.62477914, "category": "飲食店", "category_id": "0102732", "time": ["17:00-23:00"], "star": 4.48, "review": 18}], "カフェ": [{"name": "キッズカフェ", "address": "埼玉県さいたま市大宮区大成町3-47 鉄道博物館本館1F キッズプラザ内", "lat": 35.920931538517, "lon": 139.61814898691, "category": "カフェ・喫茶", "category_id": "0100344", "time": ["10:00-17:00"], "star": 4.06, "review": 83}, {"name": "ことこと", "address": "埼玉県さいたま市北区東大成町2-453", "lat": 35.930004298511, "lon": 139.619277127, "category": "カフェ・喫茶", "category_id": "0100344", "time": ["07:00-17:00"], "star": 3.86, "review": 13}, {"name": "Cafe Belax", "address": "埼玉県さいたま市北区植竹町1-816-8", "lat": 35.930670158512, "lon": 139.623888197, "category": "カフェ・喫茶", "category_id": "0100344", "time": [], "star": 3.58, "review": 14}, {"name": "カフェレストケイ", "address": "埼玉県さいたま市北区大成町4-57-11", "lat": 35.921314778515, "lon": 139.61523445692, "category": "ダイニングバー", "category_id": "0100645", "time": ["11:00-15:00", "17:00-23:00"], "star": 0.0, "review": 0}, {"name": "てんとう虫。", "address": "埼玉県さいたま市北区植竹町1-594-14", "lat": 35.92769993, "lon": 139.62366549, "category": "パフェ店", "category_id": "0102837", "time": ["11:00-16:00"], "star": 4.07, "review": 27}, {"name": "カラオケ喫茶マリオン", "address": "埼玉県さいたま市北区東大成町1-231-10", "lat": 35.920336058518, "lon": 139.6214895169, "category": "カフェ・喫茶", "category_id": "0100344", "time": [], "star": 0.0, "review": 0}, {"name": "家庭料理 ゆうき", "address": "埼玉県さいたま市北区植竹町1-795", "lat": 35.928107037709, "lon": 139.62446888582, "category": "定食屋", "category_id": "0101441", "time": [], "star": 3.58, "review": 5}, {"name": "おふろcafe utatane", "address": "埼玉県さいたま市北区大成町4-179-3", "lat": 35.92715445, "lon": 139.6160638, "category": "日帰り入浴", "category_id": "0401679", "time": ["10:00-33:00"], "star": 4.11, "review": 384}, {"name": "カフェビモータ", "address": "埼玉県さいたま市北区植竹町1丁目151", "lat": 35.92236063, "lon": 139.62541547, "category": "カフェ・喫茶", "category_id": "0100344", "time": ["09:00-19:00"], "star": 3.9, "review": 4}, {"name": "フーデリア", "address": "埼玉県さいたま市北区東大成町1-492-5 フーデリア 1F", "lat": 35.92035392, "lon": 139.62292431, "category": "コーヒー店", "category_id": "0100496", "time": ["10:30-21:00"], "star": 4.08, "review": 10}, {"name": "NRE「旅のレストラン 日本食堂」", "address": "埼玉県さいたま市大宮区大成町3丁目47番", "lat": 35.9208395, "lon": 139.61818521, "category": "飲食店", "category_id": "0102732", "time": ["11:00-18:00"], "star": 4.5, "review": 2}, {"name": "珈琲館 大宮西店", "address": "埼玉県さいたま市北区櫛引町2-200-1 ", "lat": 35.91835909, "lon": 139.60935538, "category": "コーヒー店", "category_id": "0100496", "time": ["07:30-21:00"], "star": 3.92, "review": 39}, {"name": "とりあえずここで いつものとこで", "address": "埼玉県さいたま市北区東大成町1-606", "lat": 35.921140313486, "lon": 139.62427291203, "category": "居酒屋", "category_id": "0101495", "time": [], "star": 0.0, "review": 0}, {"name": "TICO", "address": "埼玉県さいたま市大宮区大成町3-615-10", "lat": 35.9163126, "lon": 139.61278015, "category": "カフェ・喫茶", "category_id": "0100344", "time": ["10:00-16:00"], "star": 3.69, "review": 6}, {"name": "yoh", "address": "埼玉県さいたま市北区櫛引町2-501", "lat": 35.919833043519, "lon": 139.60874447185, "category": "カフェ・喫茶", "category_id": "0100344", "time": [], "star": 3.33, "review": 7}, {"name": "カフェレストランガスト大宮大成店", "address": "埼玉県さいたま市大宮区大成町3丁目516-1", "lat": 35.91851367, "lon": 139.61461247, "category": "カフェ・喫茶", "category_id": "0100344", "time": [], "star": 3.0, "review": 1}, {"name": "トレインレストラン日本食堂", "address": "埼玉県さいたま市大宮区大成町3-47 鉄道博物館 本館 2F", "lat": 35.920852637711, "lon": 139.61818988575, "category": "レストラン", "category_id": "0100111", "time": ["11:00-17:00"], "star": 4.25, "review": 52}, {"name": "鉄道博物館", "address": "埼玉県さいたま市大宮区大成町3丁目47番", "lat": 35.92140978, "lon": 139.6179124, "category": "博物館", "category_id": "0301255", "time": ["10:00-17:00"], "star": 4.37, "review": 1152}, {"name": "舞WAY", "address": "埼玉県さいたま市北区東大成町2丁目80-1", "lat": 35.9249561, "lon": 139.621977, "category": "カフェ・喫茶", "category_id": "0100344", "time": [], "star": 0.0, "review": 0}, {"name": "アジアン料理カフェ&バー NIMTA", "address": "埼玉県さいたま市大宮区土手町3-203 第三小島ビル1F", "lat": 35.916946110123, "lon": 139.62488825398, "category": "飲食店", "category_id": "0102732", "time": ["09:00-21:00"], "star": 4.5, "review": 20}], "ドラッグストア": [{"name": "ドラッグストアセキ 大成町店", "address": "埼玉県さいたま市大宮区大成町3-394-3", "lat": 35.915757, "lon": 139.6156911, "category": "ドラッグストア", "category_id": "0200699", "time": ["09:00-23:00"], "star": 4.01, "review": 65}, {"name": "スギ薬局 大宮植竹店", "address": "埼玉県さいたま市北区植竹町1-336-1", "lat": 35.9259001, "lon": 139.6262734, "category": "ドラッグストア", "category_id": "0200699", "time": ["09:00-22:00"], "star": 3.84, "review": 164}, {"name": "さくら薬局 さいたま東大成店", "address": "埼玉県さいたま市北区東大成町1-542", "lat": 35.9241588, "lon": 139.62218567, "category": "調剤薬局", "category_id": "0202315", "time": ["09:00-19:00"], "star": 4.67, "review": 2}, {"name": "ロヂャース 大成店", "address": "埼玉県さいたま市北区大成町4-298-2", "lat": 35.9219309, "lon": 139.614741, "category": "ディスカウントストア", "category_id": "0200677", "time": ["09:30-21:30"], "star": 3.86, "review": 496}, {"name": "野口薬局", "address": "埼玉県さいたま市北区東大成町1丁目526", "lat": 35.92316368, "lon": 139.62200098, "category": "調剤薬局", "category_id": "0202315", "time": ["09:00-19:30"], "star": 0.0, "review": 1}, {"name": "イオン薬局 大宮店", "address": "埼玉県さいたま市北区櫛引町2-574-1 イオン大宮店 1F", "lat": 35.923341, "lon": 139.610023, "category": "調剤薬局", "category_id": "0202315", "time": ["09:00-19:00"], "star": 2.0, "review": 3}, {"name": "調剤薬局ライフ 大成薬局", "address": "埼玉県さいたま市大宮区大成町3-248-4", "lat": 35.91893284, "lon": 139.61688785, "category": "調剤薬局", "category_id": "0202315", "time": [], "star": 1.5, "review": 3}, {"name": "かおる薬局", "address": "埼玉県さいたま市 北区大成町4丁目318-3", "lat": 35.92219216, "lon": 139.61333036, "category": "調剤薬局", "category_id": "0202315", "time": [], "star": 0.0, "review": 0}, {"name": "Photo-Me ドラッグストアセキ 大成町店", "address": "埼玉県さいたま市大宮区大成町3-394-3", "lat": 35.9156199, "lon": 139.615523, "category": "証明写真機", "category_id": "0402784", "time": [], "star": 0.0, "review": 0}, {"name": "日本調剤 大宮中央薬局", "address": "埼玉県さいたま市北区東大成町1-333-3", "lat": 35.92026192, "lon": 139.62119888, "category": "調剤薬局", "category_id": "0202315", "time": ["09:00-18:00"], "star": 0.0, "review": 0}, {"name": "アイン薬局 大宮中央店", "address": "埼玉県さいたま市北区東大成町1-626-1 野原ビル 1F", "lat": 35.9207309, "lon": 139.6231, "category": "調剤薬局", "category_id": "0202315", "time": ["09:00-18:30"], "star": 0.0, "review": 0}, {"name": "アイン薬局 東大成店", "address": "埼玉県さいたま市北区東大成町2-254 ハーノック大宮", "lat": 35.9268003, "lon": 139.621189, "category": "調剤薬局", "category_id": "0202315", "time": ["10:00-18:30"], "star": 0.0, "review": 0}, {"name": "オーケー 大宮宮原店", "address": "埼玉県さいたま市北区植竹町1-820-5", "lat": 35.9301713, "lon": 139.6207181, "category": "スーパー", "category_id": "0200612", "time": ["10:00-20:00"], "star": 4.12, "review": 657}, {"name": "あおば調剤薬局", "address": "埼玉県さいたま市北区日進町2-925-3 ", "lat": 35.92414134, "lon": 139.60820537, "category": "調剤薬局", "category_id": "0202315", "time": ["09:00-19:00"], "star": 0.0, "review": 0}, {"name": "爽やか薬局.大宮店", "address": "埼玉県さいたま市 北区櫛引町2丁目491-2", "lat": 35.9200792, "lon": 139.607814, "category": "調剤薬局", "category_id": "0202315", "time": [], "star": 0.0, "review": 0}, {"name": "COCORO薬局", "address": "埼玉県さいたま市北区東大成町2-80-1 東和ビル1F", "lat": 35.92494449, "lon": 139.62192373, "category": "医療・薬・保険衛生関連", "category_id": "0401237", "time": ["08:30-18:00"], "star": 0.0, "review": 0}, {"name": "スター薬局櫛引店", "address": "埼玉県さいたま市北区櫛引町2丁目306", "lat": 35.91863624, "lon": 139.60829768, "category": "調剤薬局", "category_id": "0202315", "time": [], "star": 0.0, "review": 0}, {"name": "みはる薬局大宮店", "address": "埼玉県さいたま市北区東大成町2丁目437", "lat": 35.92882231, "lon": 139.61921136, "category": "", "category_id": "", "time": [], "star": 0.0, "review": 0}, {"name": "ゆうゆう薬局 日進店", "address": "埼玉県さいたま市 北区日進町2丁目989", "lat": 35.92493077, "lon": 139.60658691, "category": "調剤薬局", "category_id": "0202315", "time": [], "star": 0.0, "review": 0}], "ATM": [{"name": "埼玉りそな銀行 ATM イオン大宮店出張所", "address": "埼玉県さいたま市北区櫛引町2-574-1", "lat": 35.9233409, "lon": 139.609575, "category": "ATM", "category_id": "0402785", "time": [], "star": 4.0, "review": 2}, {"name": "みずほ銀行 ATM ミニストップ鉄道博物館前店出張所", "address": "埼玉県さいたま市大宮区大成町3-283-1", "lat": 35.921172, "lon": 139.616852, "category": "ATM", "category_id": "0402785", "time": [], "star": 4.5, "review": 0}, {"name": "ゆうちょ銀行 大宮植竹郵便局", "address": "埼玉県さいたま市北区植竹町1-717", "lat": 35.9271973, "lon": 139.621776, "category": "銀行", "category_id": "0402596", "time": [], "star": 4.5, "review": 1}, {"name": "埼玉りそな銀行 ATM 北区役所出張所", "address": "埼玉県さいたま市北区宮原町1-852-1", "lat": 35.9309335, "lon": 139.620184, "category": "ATM", "category_id": "0402785", "time": [], "star": 4.0, "review": 2}, {"name": "武蔵野銀行 ATM 北区役所", "address": "埼玉県さいたま市北区宮原町1-852-1", "lat": 35.9308626, "lon": 139.620309, "category": "ATM", "category_id": "0402785", "time": [], "star": 4.0, "review": 2}, {"name": "ゆうちょ銀行 大宮西郵便局", "address": "埼玉県さいたま市北区櫛引町2-713", "lat": 35.9217276, "lon": 139.608755, "category": "銀行", "category_id": "0402596", "time": ["09:00-19:00"], "star": 4.57, "review": 3}, {"name": "武蔵野銀行 ATM イオン大宮店", "address": "埼玉県さいたま市北区櫛引町2-574-1", "lat": 35.9234444, "lon": 139.609542, "category": "ATM", "category_id": "0402785", "time": [], "star": 0.0, "review": 0}, {"name": "イオン銀行 ATM イオン大宮店第二出張所(1F 西側エレベーターホール)", "address": "埼玉県さいたま市北区櫛引町2-574-1", "lat": 35.9234398, "lon": 139.609897, "category": "ATM", "category_id": "0402785", "time": ["07:00-23:00"], "star": 4.0, "review": 2}, {"name": "みずほ銀行 ATM イオン大宮店出張所", "address": "埼玉県さいたま市北区櫛引町2-574-1", "lat": 35.9234297, "lon": 139.60992, "category": "ATM", "category_id": "0402785", "time": [], "star": 0.0, "review": 1}, {"name": "銀行ATM イーネット ファミリーマートさいたま大成橋南 共同出張所", "address": "埼玉県さいたま市北区大成町4-514-2 ", "lat": 35.926733, "lon": 139.615273, "category": "ATM", "category_id": "0402785", "time": ["00:00-24:00"], "star": 0.0, "review": 0}, {"name": "みずほ銀行 ATM イオン大宮店第二出張所", "address": "埼玉県さいたま市北区櫛引町2-574-1", "lat": 35.9234297, "lon": 139.60992, "category": "ATM", "category_id": "0402785", "time": [], "star": 4.75, "review": 0}, {"name": "東和銀行 ATM 大宮北支店", "address": "埼玉県さいたま市北区東大成町1-494-3", "lat": 35.9205273, "lon": 139.622801, "category": "ATM", "category_id": "0402785", "time": [], "star": 0.0, "review": 0}, {"name": "東和銀行 ATM 大宮支店", "address": "埼玉県さいたま市北区東大成町1-494-3", "lat": 35.9205723, "lon": 139.622821, "category": "ATM", "category_id": "0402785", "time": [], "star": 0.0, "review": 0}, {"name": "ゆうちょ銀行 ATM 大宮店", "address": "埼玉県さいたま市北区東大成町1-631", "lat": 35.9201404, "lon": 139.623548, "category": "ATM", "category_id": "0402785", "time": [], "star": 0.0, "review": 0}, {"name": "イオン銀行 ATM イオン大宮店出張所(1F サービスカウンター横)", "address": "埼玉県さいたま市北区櫛引町2-574-1", "lat": 35.9234398, "lon": 139.609897, "category": "ATM", "category_id": "0402785", "time": [], "star": 0.0, "review": 0}, {"name": "セブン銀行 鉄道博物館前店", "address": "埼玉県さいたま市大宮区大成町3-263-1", "lat": 35.9197767, "lon": 139.61698, "category": "ATM", "category_id": "0402785", "time": ["00:00-24:00"], "star": 0.0, "review": 0}, {"name": "セブン銀行 ロヂャース 大成店", "address": "埼玉県さいたま市北区大成町4-298-2", "lat": 35.9218716, "lon": 139.61475, "category": "ATM", "category_id": "0402785", "time": [], "star": 0.0, "review": 1}, {"name": "東和銀行 大宮支店", "address": "埼玉県さいたま市北区東大成町1-494-3", "lat": 35.9205481, "lon": 139.6227932, "category": "銀行", "category_id": "0402596", "time": ["09:00-15:00"], "star": 0.0, "review": 0}, {"name": "みずほ銀行 ATM マルエツ大成店出張所", "address": "埼玉県さいたま市北区東大成町1-507", "lat": 35.9219672, "lon": 139.622114, "category": "ATM", "category_id": "0402785", "time": [], "star": 0.0, "review": 0}, {"name": "イオン銀行 ATM マルエツ大成店出張所(店内)", "address": "埼玉県さいたま市北区東大成町1-507", "lat": 35.9219773, "lon": 139.622091, "category": "ATM", "category_id": "0402785", "time": ["00:00-24:00"], "star": 0.0, "review": 0}], "銭湯 温泉": [{"name": "おふろcafe utatane", "address": "埼玉県さいたま市北区大成町4-179-3", "lat": 35.92715445, "lon": 139.6160638, "category": "日帰り入浴", "category_id": "0401679", "time": ["10:00-33:00"], "star": 4.11, "review": 384}, {"name": "美楽温泉 SPA HERBS", "address": "埼玉県さいたま市北区植竹町1-816-8", "lat": 35.9307547, "lon": 139.6238623, "category": "スーパー銭湯", "category_id": "0400613", "time": ["09:00-25:00"], "star": 4.24, "review": 329}], "スーパーマーケット": [{"name": "業務スーパー さいたま大宮店", "address": "埼玉県さいたま市北区東大成町2-187", "lat": 35.9256498, "lon": 139.6178129, "category": "スーパー", "category_id": "0200612", "time": ["09:00-19:00"], "star": 3.83, "review": 199}, {"name": "マルエツ 大成店", "address": "埼玉県さいたま市北区東大成町1-507", "lat": 35.9219644, "lon": 139.6221377, "category": "スーパー", "category_id": "0200612", "time": ["00:00-24:00"], "star": 3.54, "review": 109}, {"name": "オーケー 大宮宮原店", "address": "埼玉県さいたま市北区植竹町1-820-5", "lat": 35.9301713, "lon": 139.6207181, "category": "スーパー", "category_id": "0200612", "time": ["10:00-20:00"], "star": 4.12, "review": 657}, {"name": "イオン 大宮店", "address": "埼玉県さいたま市北区櫛引町2-574-1", "lat": 35.923336, "lon": 139.6095025, "category": "スーパー", "category_id": "0200612", "time": ["07:00-23:00"], "star": 3.9, "review": 593}, {"name": "ヤオコー 大宮盆栽町店", "address": "埼玉県さいたま市北区盆栽町485-1", "lat": 35.9284635, "lon": 139.6260206, "category": "スーパー", "category_id": "0200612", "time": ["09:00-21:45"], "star": 3.94, "review": 420}, {"name": "マミーマート 生鮮市場TOP 大成店", "address": "埼玉県さいたま市北区大成町4-224", "lat": 35.9201505, "lon": 139.613734, "category": "スーパー", "category_id": "0200612", "time": ["09:00-21:00"], "star": 2.5, "review": 2}, {"name": "ロヂャース 大成店", "address": "埼玉県さいたま市北区大成町4-298-2", "lat": 35.9219309, "lon": 139.614741, "category": "ディスカウントストア", "category_id": "0200677", "time": ["09:30-21:30"], "star": 3.86, "review": 496}, {"name": "まいばすけっと 鉄道博物館駅南", "address": "埼玉県さいたま市大宮区大成町3-249", "lat": 35.919137, "lon": 139.6170937, "category": "スーパー", "category_id": "0200612", "time": ["08:00-23:00"], "star": 0.0, "review": 1}, {"name": "全日食チェーン アイン 大宮中央総合病院売店", "address": "埼玉県さいたま市北区東大成町1丁目227", "lat": 35.9206791, "lon": 139.621103, "category": "スーパー", "category_id": "0200612", "time": [], "star": 3.0, "review": 0}, {"name": "キャン・ドゥ イオン大宮店", "address": "埼玉県さいたま市北区櫛引町2-574-1 イオン大宮店 2F", "lat": 35.9233304, "lon": 139.6098219, "category": "100円ショップ", "category_id": "0200001", "time": [], "star": 3.81, "review": 95}, {"name": "ドラッグストアセキ 大成町店", "address": "埼玉県さいたま市大宮区大成町3-394-3", "lat": 35.915757, "lon": 139.6156911, "category": "ドラッグストア", "category_id": "0200699", "time": ["09:00-23:00"], "star": 4.01, "review": 65}, {"name": "スギ薬局 大宮植竹店", "address": "埼玉県さいたま市北区植竹町1-336-1", "lat": 35.9259001, "lon": 139.6262734, "category": "ドラッグストア", "category_id": "0200699", "time": ["09:00-22:00"], "star": 3.84, "review": 164}]}, "top_restaurant": {"name": "鎌倉光悦 イオン大宮店", "category": "とんかつ店", "star": 4.75, "review": 1}}, {"name": "はくぶつかんちゅうおう", "name_en": "", "lat": 35.9222651, "lon": 139.6178617, "osm_id": 11542331390, "operator": "", "railway": "halt", "wikidata": "", "wikipedia_tag": "", "lines": [], "pref": "埼玉県", "nearby_bus_stops": [{"name": "大成四丁目自治会館", "lat": 35.9241846, "lon": 139.6152768, "distance_m": 316, "operator": ""}, {"name": "鉄道博物館南", "lat": 35.9191862, "lon": 139.6165789, "distance_m": 361, "operator": ""}, {"name": "富士フィルム大宮事業所入口", "lat": 35.9240689, "lon": 139.6219759, "distance_m": 421, "operator": "東武バスウエスト"}], "nearest_convenience": {"name": "ミニストップ", "lat": 35.9211146, "lon": 139.6167911, "address": "", "distance_m": 160, "brand": "MINISTOP"}, "nearest_restaurant": {"name": "キズカフェ", "lat": 35.9223236, "lon": 139.6176512, "address": "", "distance_m": 20, "cuisine": ""}, "nearby_pois": {"コンビニ": [{"name": "ミニストップ 鉄道博物館前店", "address": "埼玉県さいたま市大宮区大成町3-283-1", "lat": 35.9211255, "lon": 139.6168242, "category": "コンビニ", "category_id": "0200487", "time": [], "star": 3.97, "review": 37}, {"name": "ファミリーマート さいたま大成橋南店", "address": "埼玉県さいたま市北区大成町4-514-2", "lat": 35.9267467, "lon": 139.615177, "category": "コンビニ", "category_id": "0200487", "time": ["00:00-24:00"], "star": 4.1, "review": 26}, {"name": "セブンイレブン 鉄道博物館前", "address": "埼玉県さいたま市大宮区大成町3-263-1", "lat": 35.919773, "lon": 139.6170103, "category": "コンビニ", "category_id": "0200487", "time": ["00:00-24:00"], "star": 3.86, "review": 72}, {"name": "セブンイレブン さいたま植竹町1丁目", "address": "埼玉県さいたま市北区植竹町1-41-1", "lat": 35.9213008, "lon": 139.6252569, "category": "コンビニ", "category_id": "0200487", "time": ["00:00-24:00"], "star": 3.94, "review": 8}, {"name": "ローソン さいたま東大成町一丁目", "address": "埼玉県さいたま市北区東大成町1-581-1", "lat": 35.9221478, "lon": 139.6228348, "category": "コンビニ", "category_id": "0200487", "time": ["00:00-24:00"], "star": 4.24, "review": 50}, {"name": "ローソン さいたま大成町四丁目", "address": "埼玉県さいたま市北区大成町4-458", "lat": 35.9245859, "lon": 139.6133133, "category": "コンビニ", "category_id": "0200487", "time": ["00:00-24:00"], "star": 4.14, "review": 3}, {"name": "ファミリーマート さいたま櫛引町二丁目店", "address": "埼玉県さいたま市北区櫛引町2-263-1", "lat": 35.9188202, "lon": 139.6102997, "category": "コンビニ", "category_id": "0200487", "time": ["00:00-24:00"], "star": 4.28, "review": 28}, {"name": "セブンイレブン さいたま大成町3丁目", "address": "埼玉県さいたま市大宮区大成町3-545", "lat": 35.9189008, "lon": 139.6131967, "category": "コンビニ", "category_id": "0200487", "time": ["00:00-24:00"], "star": 4.22, "review": 21}, {"name": "ローソン さいたま大成町二丁目", "address": "埼玉県さいたま市大宮区大成町2-278", "lat": 35.9145682, "lon": 139.6146161, "category": "コンビニ", "category_id": "0200487", "time": ["00:00-24:00"], "star": 3.93, "review": 40}, {"name": "セブンイレブン さいたま櫛引町2丁目", "address": "埼玉県さいたま市北区櫛引町2-754", "lat": 35.9226444, "lon": 139.607911, "category": "コンビニ", "category_id": "0200487", "time": ["00:00-24:00"], "star": 4.04, "review": 27}, {"name": "ローソン さいたま植竹町一丁目", "address": "埼玉県さいたま市北区植竹町1-588-1", "lat": 35.9276192, "lon": 139.6251012, "category": "コンビニ", "category_id": "0200487", "time": ["00:00-24:00"], "star": 3.98, "review": 50}, {"name": "ファミリーマート さいたま大成町四丁目店", "address": "埼玉県さいたま市北区大成町4-721-1", "lat": 35.9293906, "lon": 139.6143465, "category": "コンビニ", "category_id": "0200487", "time": ["00:00-24:00"], "star": 3.67, "review": 9}, {"name": "ファミリーマート 北大宮駅前店", "address": "埼玉県さいたま市大宮区土手町3-285", "lat": 35.9170376, "lon": 139.6246848, "category": "コンビニ", "category_id": "0200487", "time": ["00:00-24:00"], "star": 0.0, "review": 1}, {"name": "ロヂャース 大成店", "address": "埼玉県さいたま市北区大成町4-298-2", "lat": 35.9219309, "lon": 139.614741, "category": "ディスカウントストア", "category_id": "0200677", "time": ["09:30-21:30"], "star": 3.86, "review": 496}, {"name": "マミーマート 生鮮市場TOP 大成店", "address": "埼玉県さいたま市北区大成町4-224", "lat": 35.9201505, "lon": 139.613734, "category": "スーパー", "category_id": "0200612", "time": ["09:00-21:00"], "star": 2.5, "review": 2}, {"name": "マルエツ 大成店", "address": "埼玉県さいたま市北区東大成町1-507", "lat": 35.9219644, "lon": 139.6221377, "category": "スーパー", "category_id": "0200612", "time": ["00:00-24:00"], "star": 3.54, "review": 109}, {"name": "まいばすけっと 鉄道博物館駅南", "address": "埼玉県さいたま市大宮区大成町3-249", "lat": 35.919137, "lon": 139.6170937, "category": "スーパー", "category_id": "0200612", "time": ["08:00-23:00"], "star": 0.0, "review": 1}, {"name": "オーケー 大宮宮原店", "address": "埼玉県さいたま市北区植竹町1-820-5", "lat": 35.9301713, "lon": 139.6207181, "category": "スーパー", "category_id": "0200612", "time": ["10:00-20:00"], "star": 4.12, "review": 657}], "ラーメン": [{"name": "綾川 大成店", "address": "埼玉県さいたま市北区大成町4-399", "lat": 35.92379998, "lon": 139.61512151, "category": "ラーメン店", "category_id": "0100097", "time": ["11:00-23:00"], "star": 4.14, "review": 75}, {"name": "りゅうとら", "address": "埼玉県さいたま市北区大成町4-510", "lat": 35.92580408, "lon": 139.61530257, "category": "ラーメン店", "category_id": "0100097", "time": ["11:30-15:00", "18:00-22:30"], "star": 3.54, "review": 20}, {"name": "狼煙 本店", "address": "埼玉県さいたま市北区東大成町1-544", "lat": 35.92400382, "lon": 139.62216568, "category": "つけ麺店", "category_id": "0102844", "time": ["11:00-20:20"], "star": 4.38, "review": 280}, {"name": "麺匠たかや", "address": "埼玉県さいたま市北区東大成町2-268-26", "lat": 35.9275054, "lon": 139.62121957, "category": "ラーメン店", "category_id": "0100097", "time": ["11:30-15:00", "18:00-26:00"], "star": 3.43, "review": 18}, {"name": "ビューレストラン", "address": "埼玉県さいたま市大宮区大成町3-47 鉄道博物館 南館 4F", "lat": 35.919403999751, "lon": 139.61847448151, "category": "レストラン", "category_id": "0100111", "time": ["11:00-17:00"], "star": 3.99, "review": 45}, {"name": "ラーメン日の輪", "address": "埼玉県さいたま市北区櫛引町2-574-1 イオン大宮フードコート", "lat": 35.92336374, "lon": 139.60947751, "category": "飲食店", "category_id": "0102732", "time": [], "star": 0.0, "review": 0}, {"name": "時は餃子成り", "address": "埼玉県さいたま市北区東大成町1丁目606", "lat": 35.92111329, "lon": 139.62429919, "category": "飲食店", "category_id": "0102732", "time": ["11:30-15:00"], "star": 0.0, "review": 1}, {"name": "アデッソラボ", "address": "埼玉県さいたま市大宮区大成町3丁目306-1", "lat": 35.92111991, "lon": 139.61516627, "category": "中華料理店", "category_id": "0100990", "time": ["11:00-21:00"], "star": 3.77, "review": 6}, {"name": "日高屋 大宮大成店", "address": "埼玉県さいたま市大宮区大成町2-175-3", "lat": 35.913735, "lon": 139.6151245, "category": "定食屋", "category_id": "0101441", "time": ["11:00-23:00"], "star": 4.03, "review": 42}, {"name": "中華料理 華星 横浜中華 イオン大宮", "address": "埼玉県さいたま市北区櫛引町2-574-1 イオン大宮店 1F", "lat": 35.9232419, "lon": 139.609297, "category": "飲食店", "category_id": "0102732", "time": ["10:30-21:00"], "star": 3.92, "review": 3}, {"name": "中国&無国籍海山", "address": "埼玉県さいたま市北区植竹町1-594-12", "lat": 35.9277602, "lon": 139.62374215, "category": "中華料理店", "category_id": "0100990", "time": ["11:00-14:00", "17:00-22:30"], "star": 4.12, "review": 17}, {"name": "江南春", "address": "埼玉県さいたま市北区櫛引町2-574-1 大宮サティ 1F", "lat": 35.923741108512, "lon": 139.60922216694, "category": "中華料理店", "category_id": "0100990", "time": ["11:00-21:30"], "star": 3.85, "review": 42}, {"name": "香新", "address": "埼玉県さいたま市大宮区大成町3-403-3", "lat": 35.916490739485, "lon": 139.61520884442, "category": "中華料理店", "category_id": "0100990", "time": ["11:00-13:30"], "star": 3.67, "review": 13}, {"name": "迎春軒", "address": "埼玉県さいたま市北区日進町2-508", "lat": 35.92605627, "lon": 139.60848199, "category": "中華料理店", "category_id": "0100990", "time": [], "star": 3.3, "review": 5}, {"name": "台湾料理 天福", "address": "埼玉県さいたま市北区櫛引町2-195", "lat": 35.91779834, "lon": 139.60871238, "category": "台湾料理店", "category_id": "0101283", "time": ["11:00-14:30", "17:30-24:00"], "star": 3.27, "review": 15}, {"name": "味楽", "address": "埼玉県さいたま市大宮区大成町3-615-14", "lat": 35.91631955, "lon": 139.61283987, "category": "中華料理店", "category_id": "0100990", "time": [], "star": 3.2, "review": 1}, {"name": "焼肉ホルモン 口火", "address": "埼玉県さいたま市北区櫛引町2-286", "lat": 35.91862237, "lon": 139.60902485, "category": "焼肉店", "category_id": "0101963", "time": ["17:00-23:00"], "star": 4.04, "review": 17}], "飲食店": [{"name": "キッズカフェ", "address": "埼玉県さいたま市大宮区大成町3-47 鉄道博物館本館1F キッズプラザ内", "lat": 35.920931538517, "lon": 139.61814898691, "category": "カフェ・喫茶", "category_id": "0100344", "time": ["10:00-17:00"], "star": 4.06, "review": 83}, {"name": "トレインレストラン日本食堂", "address": "埼玉県さいたま市大宮区大成町3-47 鉄道博物館 本館 2F", "lat": 35.920852637711, "lon": 139.61818988575, "category": "レストラン", "category_id": "0100111", "time": ["11:00-17:00"], "star": 4.25, "review": 52}, {"name": "鉄板焼ひろた", "address": "埼玉県さいたま市北区東大成町1-590", "lat": 35.921047288518, "lon": 139.62308917691, "category": "鉄板焼き店", "category_id": "0101964", "time": ["17:00-22:00"], "star": 0.0, "review": 0}, {"name": "ことこと", "address": "埼玉県さいたま市北区東大成町2-453", "lat": 35.930004298511, "lon": 139.619277127, "category": "カフェ・喫茶", "category_id": "0100344", "time": ["07:00-17:00"], "star": 3.86, "review": 13}, {"name": "立喰・立呑 波音", "address": "埼玉県さいたま市大宮区土手町3-247-1", "lat": 35.91831528163, "lon": 139.62532087514, "category": "蕎麦店", "category_id": "0100034", "time": [], "star": 0.0, "review": 1}, {"name": "カラオケ喫茶マリオン", "address": "埼玉県さいたま市北区東大成町1-231-10", "lat": 35.920336058518, "lon": 139.6214895169, "category": "カフェ・喫茶", "category_id": "0100344", "time": [], "star": 0.0, "review": 0}, {"name": "インド ネパール レストラン ティルパティ", "address": "埼玉県さいたま市北区東大成町1-512-5", "lat": 35.922261, "lon": 139.62246, "category": "インド料理店", "category_id": "0100282", "time": ["11:00-15:00", "17:00-22:00"], "star": 3.43, "review": 4}, {"name": "NRE「旅のレストラン 日本食堂」", "address": "埼玉県さいたま市大宮区大成町3丁目47番", "lat": 35.9208395, "lon": 139.61818521, "category": "飲食店", "category_id": "0102732", "time": ["11:00-18:00"], "star": 4.5, "review": 2}, {"name": "鎌倉光悦 イオン大宮店", "address": "埼玉県さいたま市北区櫛引町2-574-1 イオン大宮店 1F", "lat": 35.923316968512, "lon": 139.60944913694, "category": "とんかつ店", "category_id": "0100159", "time": ["09:00-21:00"], "star": 4.75, "review": 1}, {"name": "カフェレストケイ", "address": "埼玉県さいたま市北区大成町4-57-11", "lat": 35.921314778515, "lon": 139.61523445692, "category": "ダイニングバー", "category_id": "0100645", "time": ["11:00-15:00", "17:00-23:00"], "star": 0.0, "review": 0}, {"name": "レッツイート イオン大宮店", "address": "埼玉県さいたま市北区櫛引町2-574-1イオン大宮店 1F フードコート", "lat": 35.9232521, "lon": 139.6096713, "category": "洋食店", "category_id": "0100129", "time": [], "star": 4.5, "review": 1}, {"name": "居酒屋 赤とうがらし", "address": "埼玉県さいたま市大宮区土手町3-247", "lat": 35.918272858521, "lon": 139.62531481688, "category": "居酒屋", "category_id": "0101495", "time": ["17:00-23:00"], "star": 3.3, "review": 3}, {"name": "家庭料理 ゆうき", "address": "埼玉県さいたま市北区植竹町1-795", "lat": 35.928107037709, "lon": 139.62446888582, "category": "定食屋", "category_id": "0101441", "time": [], "star": 3.58, "review": 5}, {"name": "とりあえずここで いつものとこで", "address": "埼玉県さいたま市北区東大成町1-606", "lat": 35.921140313486, "lon": 139.62427291203, "category": "居酒屋", "category_id": "0101495", "time": [], "star": 0.0, "review": 0}, {"name": "ビューレストラン", "address": "埼玉県さいたま市大宮区大成町3-47 鉄道博物館 南館 4F", "lat": 35.919403999751, "lon": 139.61847448151, "category": "レストラン", "category_id": "0100111", "time": ["11:00-17:00"], "star": 3.99, "review": 45}, {"name": "プリマヴェーラ北大宮", "address": "埼玉県さいたま市北区東大成町1丁目489-1 ", "lat": 35.92007782483312, "lon": 139.62290152724168, "category": "飲食店", "category_id": "0102732", "time": ["17:00-24:00"], "star": 4.05, "review": 8}, {"name": "レ・スリジェ", "address": "埼玉県さいたま市北区東大成町2-214 クレセントビル 2F", "lat": 35.925946637708, "lon": 139.6192942858, "category": "イタリア料理店", "category_id": "0100263", "time": ["11:30-15:00", "17:30-22:00"], "star": 4.68, "review": 25}, {"name": "氷川うどん", "address": "埼玉県さいたま市北区東大成町1丁目494", "lat": 35.9204542, "lon": 139.6222507, "category": "うどん店", "category_id": "0100033", "time": [], "star": 4.5, "review": 1}, {"name": "生ラムジンギスカン めいごる", "address": "埼玉県さいたま市北区植竹町1-157-1", "lat": 35.92153907, "lon": 139.62477914, "category": "飲食店", "category_id": "0102732", "time": ["17:00-23:00"], "star": 4.48, "review": 18}, {"name": "綾川 大成店", "address": "埼玉県さいたま市北区大成町4-399", "lat": 35.92379998, "lon": 139.61512151, "category": "ラーメン店", "category_id": "0100097", "time": ["11:00-23:00"], "star": 4.14, "review": 75}], "カフェ": [{"name": "キッズカフェ", "address": "埼玉県さいたま市大宮区大成町3-47 鉄道博物館本館1F キッズプラザ内", "lat": 35.920931538517, "lon": 139.61814898691, "category": "カフェ・喫茶", "category_id": "0100344", "time": ["10:00-17:00"], "star": 4.06, "review": 83}, {"name": "ことこと", "address": "埼玉県さいたま市北区東大成町2-453", "lat": 35.930004298511, "lon": 139.619277127, "category": "カフェ・喫茶", "category_id": "0100344", "time": ["07:00-17:00"], "star": 3.86, "review": 13}, {"name": "カフェレストケイ", "address": "埼玉県さいたま市北区大成町4-57-11", "lat": 35.921314778515, "lon": 139.61523445692, "category": "ダイニングバー", "category_id": "0100645", "time": ["11:00-15:00", "17:00-23:00"], "star": 0.0, "review": 0}, {"name": "カラオケ喫茶マリオン", "address": "埼玉県さいたま市北区東大成町1-231-10", "lat": 35.920336058518, "lon": 139.6214895169, "category": "カフェ・喫茶", "category_id": "0100344", "time": [], "star": 0.0, "review": 0}, {"name": "てんとう虫。", "address": "埼玉県さいたま市北区植竹町1-594-14", "lat": 35.92769993, "lon": 139.62366549, "category": "パフェ店", "category_id": "0102837", "time": ["11:00-16:00"], "star": 4.07, "review": 27}, {"name": "カフェビモータ", "address": "埼玉県さいたま市北区植竹町1丁目151", "lat": 35.92236063, "lon": 139.62541547, "category": "カフェ・喫茶", "category_id": "0100344", "time": ["09:00-19:00"], "star": 3.9, "review": 4}, {"name": "フーデリア", "address": "埼玉県さいたま市北区東大成町1-492-5 フーデリア 1F", "lat": 35.92035392, "lon": 139.62292431, "category": "コーヒー店", "category_id": "0100496", "time": ["10:30-21:00"], "star": 4.08, "review": 10}, {"name": "NRE「旅のレストラン 日本食堂」", "address": "埼玉県さいたま市大宮区大成町3丁目47番", "lat": 35.9208395, "lon": 139.61818521, "category": "飲食店", "category_id": "0102732", "time": ["11:00-18:00"], "star": 4.5, "review": 2}, {"name": "家庭料理 ゆうき", "address": "埼玉県さいたま市北区植竹町1-795", "lat": 35.928107037709, "lon": 139.62446888582, "category": "定食屋", "category_id": "0101441", "time": [], "star": 3.58, "review": 5}, {"name": "おふろcafe utatane", "address": "埼玉県さいたま市北区大成町4-179-3", "lat": 35.92715445, "lon": 139.6160638, "category": "日帰り入浴", "category_id": "0401679", "time": ["10:00-33:00"], "star": 4.11, "review": 384}, {"name": "珈琲館 大宮西店", "address": "埼玉県さいたま市北区櫛引町2-200-1 ", "lat": 35.91835909, "lon": 139.60935538, "category": "コーヒー店", "category_id": "0100496", "time": ["07:30-21:00"], "star": 3.92, "review": 39}, {"name": "とりあえずここで いつものとこで", "address": "埼玉県さいたま市北区東大成町1-606", "lat": 35.921140313486, "lon": 139.62427291203, "category": "居酒屋", "category_id": "0101495", "time": [], "star": 0.0, "review": 0}, {"name": "Haus Coffee", "address": "埼玉県さいたま市大宮区櫛引町1-860-67 フォープラスワン 1F", "lat": 35.915731838518, "lon": 139.61076848686, "category": "カフェ・喫茶", "category_id": "0100344", "time": ["09:00-17:00"], "star": 3.88, "review": 8}, {"name": "TICO", "address": "埼玉県さいたま市大宮区大成町3-615-10", "lat": 35.9163126, "lon": 139.61278015, "category": "カフェ・喫茶", "category_id": "0100344", "time": ["10:00-16:00"], "star": 3.69, "review": 6}, {"name": "カフェレストランガスト大宮大成店", "address": "埼玉県さいたま市大宮区大成町3丁目516-1", "lat": 35.91851367, "lon": 139.61461247, "category": "カフェ・喫茶", "category_id": "0100344", "time": [], "star": 3.0, "review": 1}, {"name": "トレインレストラン日本食堂", "address": "埼玉県さいたま市大宮区大成町3-47 鉄道博物館 本館 2F", "lat": 35.920852637711, "lon": 139.61818988575, "category": "レストラン", "category_id": "0100111", "time": ["11:00-17:00"], "star": 4.25, "review": 52}, {"name": "yoh", "address": "埼玉県さいたま市北区櫛引町2-501", "lat": 35.919833043519, "lon": 139.60874447185, "category": "カフェ・喫茶", "category_id": "0100344", "time": [], "star": 3.33, "review": 7}, {"name": "鉄道博物館", "address": "埼玉県さいたま市大宮区大成町3丁目47番", "lat": 35.92140978, "lon": 139.6179124, "category": "博物館", "category_id": "0301255", "time": ["10:00-17:00"], "star": 4.37, "review": 1152}, {"name": "スーブニール", "address": "埼玉県さいたま市北区東大成町1-346", "lat": 35.92000667, "lon": 139.62060338, "category": "ケーキ店", "category_id": "0100460", "time": ["10:00-19:00"], "star": 3.71, "review": 12}, {"name": "ビューレストラン", "address": "埼玉県さいたま市大宮区大成町3-47 鉄道博物館 南館 4F", "lat": 35.919403999751, "lon": 139.61847448151, "category": "レストラン", "category_id": "0100111", "time": ["11:00-17:00"], "star": 3.99, "review": 45}], "ドラッグストア": [{"name": "ドラッグストアセキ 大成町店", "address": "埼玉県さいたま市大宮区大成町3-394-3", "lat": 35.915757, "lon": 139.6156911, "category": "ドラッグストア", "category_id": "0200699", "time": ["09:00-23:00"], "star": 4.01, "review": 65}, {"name": "スギ薬局 大宮植竹店", "address": "埼玉県さいたま市北区植竹町1-336-1", "lat": 35.9259001, "lon": 139.6262734, "category": "ドラッグストア", "category_id": "0200699", "time": ["09:00-22:00"], "star": 3.84, "review": 164}, {"name": "さくら薬局 さいたま東大成店", "address": "埼玉県さいたま市北区東大成町1-542", "lat": 35.9241588, "lon": 139.62218567, "category": "調剤薬局", "category_id": "0202315", "time": ["09:00-19:00"], "star": 4.67, "review": 2}, {"name": "野口薬局", "address": "埼玉県さいたま市北区東大成町1丁目526", "lat": 35.92316368, "lon": 139.62200098, "category": "調剤薬局", "category_id": "0202315", "time": ["09:00-19:30"], "star": 0.0, "review": 1}, {"name": "ロヂャース 大成店", "address": "埼玉県さいたま市北区大成町4-298-2", "lat": 35.9219309, "lon": 139.614741, "category": "ディスカウントストア", "category_id": "0200677", "time": ["09:30-21:30"], "star": 3.86, "review": 496}, {"name": "調剤薬局ライフ 大成薬局", "address": "埼玉県さいたま市大宮区大成町3-248-4", "lat": 35.91893284, "lon": 139.61688785, "category": "調剤薬局", "category_id": "0202315", "time": [], "star": 1.5, "review": 3}, {"name": "Photo-Me ドラッグストアセキ 大成町店", "address": "埼玉県さいたま市大宮区大成町3-394-3", "lat": 35.9156199, "lon": 139.615523, "category": "証明写真機", "category_id": "0402784", "time": [], "star": 0.0, "review": 0}, {"name": "日本調剤 大宮中央薬局", "address": "埼玉県さいたま市北区東大成町1-333-3", "lat": 35.92026192, "lon": 139.62119888, "category": "調剤薬局", "category_id": "0202315", "time": ["09:00-18:00"], "star": 0.0, "review": 0}, {"name": "イオン薬局 大宮店", "address": "埼玉県さいたま市北区櫛引町2-574-1 イオン大宮店 1F", "lat": 35.923341, "lon": 139.610023, "category": "調剤薬局", "category_id": "0202315", "time": ["09:00-19:00"], "star": 2.0, "review": 3}, {"name": "アイン薬局 大宮中央店", "address": "埼玉県さいたま市北区東大成町1-626-1 野原ビル 1F", "lat": 35.9207309, "lon": 139.6231, "category": "調剤薬局", "category_id": "0202315", "time": ["09:00-18:30"], "star": 0.0, "review": 0}, {"name": "かおる薬局", "address": "埼玉県さいたま市 北区大成町4丁目318-3", "lat": 35.92219216, "lon": 139.61333036, "category": "調剤薬局", "category_id": "0202315", "time": [], "star": 0.0, "review": 0}, {"name": "オーケー 大宮宮原店", "address": "埼玉県さいたま市北区植竹町1-820-5", "lat": 35.9301713, "lon": 139.6207181, "category": "スーパー", "category_id": "0200612", "time": ["10:00-20:00"], "star": 4.12, "review": 657}, {"name": "アイン薬局 東大成店", "address": "埼玉県さいたま市北区東大成町2-254 ハーノック大宮", "lat": 35.9268003, "lon": 139.621189, "category": "調剤薬局", "category_id": "0202315", "time": ["10:00-18:30"], "star": 0.0, "review": 0}, {"name": "爽やか薬局.大宮店", "address": "埼玉県さいたま市 北区櫛引町2丁目491-2", "lat": 35.9200792, "lon": 139.607814, "category": "調剤薬局", "category_id": "0202315", "time": [], "star": 0.0, "review": 0}, {"name": "あおば調剤薬局", "address": "埼玉県さいたま市北区日進町2-925-3 ", "lat": 35.92414134, "lon": 139.60820537, "category": "調剤薬局", "category_id": "0202315", "time": ["09:00-19:00"], "star": 0.0, "review": 0}, {"name": "COCORO薬局", "address": "埼玉県さいたま市北区東大成町2-80-1 東和ビル1F", "lat": 35.92494449, "lon": 139.62192373, "category": "医療・薬・保険衛生関連", "category_id": "0401237", "time": ["08:30-18:00"], "star": 0.0, "review": 0}, {"name": "スター薬局櫛引店", "address": "埼玉県さいたま市北区櫛引町2丁目306", "lat": 35.91863624, "lon": 139.60829768, "category": "調剤薬局", "category_id": "0202315", "time": [], "star": 0.0, "review": 0}, {"name": "ドラッグソワレ", "address": "埼玉県さいたま市大宮区土手町3丁目133", "lat": 35.91586165, "lon": 139.62455204, "category": "調剤薬局", "category_id": "0202315", "time": [], "star": 0.0, "review": 0}, {"name": "みはる薬局大宮店", "address": "埼玉県さいたま市北区東大成町2丁目437", "lat": 35.92882231, "lon": 139.61921136, "category": "", "category_id": "", "time": [], "star": 0.0, "review": 0}, {"name": "くすのき薬局", "address": "埼玉県さいたま市大宮区大成町3丁目652", "lat": 35.91534522, "lon": 139.61133444, "category": "調剤薬局", "category_id": "0202315", "time": [], "star": 0.0, "review": 0}], "ATM": [{"name": "みずほ銀行 ATM ミニストップ鉄道博物館前店出張所", "address": "埼玉県さいたま市大宮区大成町3-283-1", "lat": 35.921172, "lon": 139.616852, "category": "ATM", "category_id": "0402785", "time": [], "star": 4.5, "review": 0}, {"name": "埼玉りそな銀行 ATM イオン大宮店出張所", "address": "埼玉県さいたま市北区櫛引町2-574-1", "lat": 35.9233409, "lon": 139.609575, "category": "ATM", "category_id": "0402785", "time": [], "star": 4.0, "review": 2}, {"name": "ゆうちょ銀行 大宮植竹郵便局", "address": "埼玉県さいたま市北区植竹町1-717", "lat": 35.9271973, "lon": 139.621776, "category": "銀行", "category_id": "0402596", "time": [], "star": 4.5, "review": 1}, {"name": "ゆうちょ銀行 大宮西郵便局", "address": "埼玉県さいたま市北区櫛引町2-713", "lat": 35.9217276, "lon": 139.608755, "category": "銀行", "category_id": "0402596", "time": ["09:00-19:00"], "star": 4.57, "review": 3}, {"name": "埼玉りそな銀行 ATM 北区役所出張所", "address": "埼玉県さいたま市北区宮原町1-852-1", "lat": 35.9309335, "lon": 139.620184, "category": "ATM", "category_id": "0402785", "time": [], "star": 4.0, "review": 2}, {"name": "武蔵野銀行 ATM 北区役所", "address": "埼玉県さいたま市北区宮原町1-852-1", "lat": 35.9308626, "lon": 139.620309, "category": "ATM", "category_id": "0402785", "time": [], "star": 4.0, "review": 2}, {"name": "東和銀行 ATM 大宮北支店", "address": "埼玉県さいたま市北区東大成町1-494-3", "lat": 35.9205273, "lon": 139.622801, "category": "ATM", "category_id": "0402785", "time": [], "star": 0.0, "review": 0}, {"name": "東和銀行 ATM 大宮支店", "address": "埼玉県さいたま市北区東大成町1-494-3", "lat": 35.9205723, "lon": 139.622821, "category": "ATM", "category_id": "0402785", "time": [], "star": 0.0, "review": 0}, {"name": "武蔵野銀行 ATM イオン大宮店", "address": "埼玉県さいたま市北区櫛引町2-574-1", "lat": 35.9234444, "lon": 139.609542, "category": "ATM", "category_id": "0402785", "time": [], "star": 0.0, "review": 0}, {"name": "ゆうちょ銀行 ATM 大宮店", "address": "埼玉県さいたま市北区東大成町1-631", "lat": 35.9201404, "lon": 139.623548, "category": "ATM", "category_id": "0402785", "time": [], "star": 0.0, "review": 0}, {"name": "セブン銀行 鉄道博物館前店", "address": "埼玉県さいたま市大宮区大成町3-263-1", "lat": 35.9197767, "lon": 139.61698, "category": "ATM", "category_id": "0402785", "time": ["00:00-24:00"], "star": 0.0, "review": 0}, {"name": "みずほ銀行 ATM イオン大宮店出張所", "address": "埼玉県さいたま市北区櫛引町2-574-1", "lat": 35.9234297, "lon": 139.60992, "category": "ATM", "category_id": "0402785", "time": [], "star": 0.0, "review": 1}, {"name": "東和銀行 大宮支店", "address": "埼玉県さいたま市北区東大成町1-494-3", "lat": 35.9205481, "lon": 139.6227932, "category": "銀行", "category_id": "0402596", "time": ["09:00-15:00"], "star": 0.0, "review": 0}, {"name": "イオン銀行 ATM イオン大宮店第二出張所(1F 西側エレベーターホール)", "address": "埼玉県さいたま市北区櫛引町2-574-1", "lat": 35.9234398, "lon": 139.609897, "category": "ATM", "category_id": "0402785", "time": ["07:00-23:00"], "star": 4.0, "review": 2}, {"name": "みずほ銀行 ATM イオン大宮店第二出張所", "address": "埼玉県さいたま市北区櫛引町2-574-1", "lat": 35.9234297, "lon": 139.60992, "category": "ATM", "category_id": "0402785", "time": [], "star": 4.75, "review": 0}, {"name": "みずほ銀行 ATM マルエツ大成店出張所", "address": "埼玉県さいたま市北区東大成町1-507", "lat": 35.9219672, "lon": 139.622114, "category": "ATM", "category_id": "0402785", "time": [], "star": 0.0, "review": 0}, {"name": "セブン銀行 ロヂャース 大成店", "address": "埼玉県さいたま市北区大成町4-298-2", "lat": 35.9218716, "lon": 139.61475, "category": "ATM", "category_id": "0402785", "time": [], "star": 0.0, "review": 1}, {"name": "イオン銀行 ATM マルエツ大成店出張所(店内)", "address": "埼玉県さいたま市北区東大成町1-507", "lat": 35.9219773, "lon": 139.622091, "category": "ATM", "category_id": "0402785", "time": ["00:00-24:00"], "star": 0.0, "review": 0}, {"name": "銀行ATM イーネット ファミリーマートさいたま大成橋南 共同出張所", "address": "埼玉県さいたま市北区大成町4-514-2 ", "lat": 35.926733, "lon": 139.615273, "category": "ATM", "category_id": "0402785", "time": ["00:00-24:00"], "star": 0.0, "review": 0}, {"name": "イオン銀行 ATM イオン大宮店出張所(1F サービスカウンター横)", "address": "埼玉県さいたま市北区櫛引町2-574-1", "lat": 35.9234398, "lon": 139.609897, "category": "ATM", "category_id": "0402785", "time": [], "star": 0.0, "review": 0}], "銭湯 温泉": [{"name": "おふろcafe utatane", "address": "埼玉県さいたま市北区大成町4-179-3", "lat": 35.92715445, "lon": 139.6160638, "category": "日帰り入浴", "category_id": "0401679", "time": ["10:00-33:00"], "star": 4.11, "review": 384}], "スーパーマーケット": [{"name": "マルエツ 大成店", "address": "埼玉県さいたま市北区東大成町1-507", "lat": 35.9219644, "lon": 139.6221377, "category": "スーパー", "category_id": "0200612", "time": ["00:00-24:00"], "star": 3.54, "review": 109}, {"name": "業務スーパー さいたま大宮店", "address": "埼玉県さいたま市北区東大成町2-187", "lat": 35.9256498, "lon": 139.6178129, "category": "スーパー", "category_id": "0200612", "time": ["09:00-19:00"], "star": 3.83, "review": 199}, {"name": "オーケー 大宮宮原店", "address": "埼玉県さいたま市北区植竹町1-820-5", "lat": 35.9301713, "lon": 139.6207181, "category": "スーパー", "category_id": "0200612", "time": ["10:00-20:00"], "star": 4.12, "review": 657}, {"name": "イオン 大宮店", "address": "埼玉県さいたま市北区櫛引町2-574-1", "lat": 35.923336, "lon": 139.6095025, "category": "スーパー", "category_id": "0200612", "time": ["07:00-23:00"], "star": 3.9, "review": 593}, {"name": "マミーマート 生鮮市場TOP 大成店", "address": "埼玉県さいたま市北区大成町4-224", "lat": 35.9201505, "lon": 139.613734, "category": "スーパー", "category_id": "0200612", "time": ["09:00-21:00"], "star": 2.5, "review": 2}, {"name": "ロヂャース 大成店", "address": "埼玉県さいたま市北区大成町4-298-2", "lat": 35.9219309, "lon": 139.614741, "category": "ディスカウントストア", "category_id": "0200677", "time": ["09:30-21:30"], "star": 3.86, "review": 496}, {"name": "まいばすけっと 鉄道博物館駅南", "address": "埼玉県さいたま市大宮区大成町3-249", "lat": 35.919137, "lon": 139.6170937, "category": "スーパー", "category_id": "0200612", "time": ["08:00-23:00"], "star": 0.0, "review": 1}, {"name": "全日食チェーン アイン 大宮中央総合病院売店", "address": "埼玉県さいたま市北区東大成町1丁目227", "lat": 35.9206791, "lon": 139.621103, "category": "スーパー", "category_id": "0200612", "time": [], "star": 3.0, "review": 0}, {"name": "ドラッグストアセキ 大成町店", "address": "埼玉県さいたま市大宮区大成町3-394-3", "lat": 35.915757, "lon": 139.6156911, "category": "ドラッグストア", "category_id": "0200699", "time": ["09:00-23:00"], "star": 4.01, "review": 65}, {"name": "キャン・ドゥ イオン大宮店", "address": "埼玉県さいたま市北区櫛引町2-574-1 イオン大宮店 2F", "lat": 35.9233304, "lon": 139.6098219, "category": "100円ショップ", "category_id": "0200001", "time": [], "star": 3.81, "review": 95}, {"name": "スギ薬局 大宮植竹店", "address": "埼玉県さいたま市北区植竹町1-336-1", "lat": 35.9259001, "lon": 139.6262734, "category": "ドラッグストア", "category_id": "0200699", "time": ["09:00-22:00"], "star": 3.84, "review": 164}]}, "top_restaurant": {"name": "鎌倉光悦 イオン大宮店", "category": "とんかつ店", "star": 4.75, "review": 1}}, {"name": "ひろせ野鳥の森", "name_en": "Hirose-Yachō-no-Mori", "lat": 36.1461502, "lon": 139.3515466, "osm_id": 503885116, "operator": "", "railway": "station", "wikidata": "Q5770745", "wikipedia_tag": "ja:ひろせ野鳥の森駅", "lines": [], "pref": "埼玉県", "wikipedia_text": "ひろせ野鳥の森駅（ひろせやちょうのもりえき）は、埼玉県熊谷市広瀬にある秩父鉄道秩父本線の駅である。駅番号はCR12。", "wikipedia_image": "https://upload.wikimedia.org/wikipedia/commons/6/64/Hirose-Yacho-no-Mori_Station_20121114.JPG", "nearest_convenience": {"name": "ミニストップ", "lat": 36.1575481, "lon": 139.3508719, "address": "", "distance_m": 1269, "brand": "MINISTOP"}, "nearest_restaurant": {"name": "焼肉きんぐ", "lat": 36.1461688, "lon": 139.3695343, "address": "埼玉県熊谷市月見町二丁目165", "distance_m": 1615, "cuisine": "japanese"}, "nearby_pois": {"コンビニ": [{"name": "ローソン 熊谷カジュアルタウン", "address": "埼玉県熊谷市広瀬266-1", "lat": 36.151653, "lon": 139.3600294, "category": "コンビニ", "category_id": "0200487", "time": ["00:00-24:00"], "star": 4.62, "review": 15}, {"name": "ベルク 広瀬店", "address": "埼玉県熊谷市広瀬131", "lat": 36.1520362, "lon": 139.3583462, "category": "スーパー", "category_id": "0200612", "time": ["09:00-24:00"], "star": 3.99, "review": 144}], "ラーメン": [{"name": "旭川味噌ラーメン ばんから 熊谷店", "address": "埼玉県熊谷市広瀬265-1", "lat": 36.15126136, "lon": 139.36057664, "category": "ラーメン店", "category_id": "0100097", "time": ["11:00-25:00"], "star": 3.56, "review": 45}], "飲食店": [{"name": "熊谷ゴルフクラブレストラン", "address": "埼玉県熊谷市石原1431 熊谷ゴルフクラブ 2F", "lat": 36.146538308089, "lon": 139.35823206117, "category": "定食屋", "category_id": "0101441", "time": ["07:00-16:00"], "star": 3.55, "review": 8}, {"name": "Cafe おん", "address": "埼玉県熊谷市広瀬409-5", "lat": 36.150233918287, "lon": 139.35575342941, "category": "オーガニックレストラン", "category_id": "0100316", "time": ["10:00-18:00"], "star": 0.0, "review": 0}, {"name": "オモニのパンチャン", "address": "埼玉県熊谷市石原1328-9 広瀬ビル 1F", "lat": 36.149832158289, "lon": 139.3613484094, "category": "韓国料理店", "category_id": "0100518", "time": [], "star": 0.0, "review": 0}, {"name": "夢街道 熊谷店", "address": "埼玉県熊谷市大麻生1-1", "lat": 36.14986996, "lon": 139.34477724, "category": "イタリア料理店", "category_id": "0100263", "time": ["11:00-21:00"], "star": 3.99, "review": 72}, {"name": "蕎麦家あぜ", "address": "埼玉県熊谷市広瀬1164-3", "lat": 36.14763417, "lon": 139.34818607, "category": "蕎麦店", "category_id": "0100034", "time": ["11:30-14:00"], "star": 3.67, "review": 15}, {"name": "ココカラカフェ", "address": "埼玉県熊谷市広瀬390-8", "lat": 36.151022928288, "lon": 139.35786003942, "category": "カフェ・喫茶", "category_id": "0100344", "time": ["11:00-16:00"], "star": 4.2, "review": 37}, {"name": "そば処ふじのこし", "address": "埼玉県熊谷市広瀬89-1", "lat": 36.15180547, "lon": 139.35439307, "category": "蕎麦店", "category_id": "0100034", "time": [], "star": 3.69, "review": 11}, {"name": "ギョウテン", "address": "埼玉県熊谷市瀬南63", "lat": 36.14611279829, "lon": 139.35572508937, "category": "餃子店", "category_id": "0102733", "time": ["11:00-14:30", "16:00-19:00"], "star": 3.87, "review": 7}, {"name": "鳥よし", "address": "埼玉県熊谷市大麻生1198-2", "lat": 36.149325, "lon": 139.344852, "category": "ホルモン焼肉店", "category_id": "0100859", "time": ["16:00-21:00"], "star": 4.24, "review": 7}, {"name": "中華料理 佳肴刀削麺", "address": "埼玉県熊谷市広瀬486-1", "lat": 36.15033868, "lon": 139.34882453, "category": "中華料理店", "category_id": "0100990", "time": ["11:00-14:30", "17:00-22:00"], "star": 0.0, "review": 1}, {"name": "やじま手打蕎麦", "address": "埼玉県熊谷市小島120", "lat": 36.15483024, "lon": 139.3494018, "category": "蕎麦店", "category_id": "0100034", "time": [], "star": 3.75, "review": 20}, {"name": "ヤムヤムチャッチャプ", "address": "埼玉県熊谷市大麻生2176-22", "lat": 36.146214338285, "lon": 139.34121488938, "category": "韓国料理店", "category_id": "0100518", "time": [], "star": 4.75, "review": 1}, {"name": "一の蔵", "address": "埼玉県熊谷市石原1399-12", "lat": 36.149431, "lon": 139.36174221, "category": "和食店", "category_id": "0100126", "time": ["17:30-23:00"], "star": 3.33, "review": 1}, {"name": "FOOD108", "address": "埼玉県熊谷市広瀬390-6 石井ビル101", "lat": 36.15070724487305, "lon": 139.3572998046875, "category": "飲食店", "category_id": "0102732", "time": [], "star": 0.0, "review": 0}, {"name": "酒膳・畔", "address": "埼玉県熊谷市広瀬1164-3", "lat": 36.147655348287, "lon": 139.34827007939, "category": "居酒屋", "category_id": "0101495", "time": [], "star": 0.0, "review": 0}, {"name": "いろどり", "address": "埼玉県熊谷市広瀬545-5", "lat": 36.15243461, "lon": 139.34890193, "category": "居酒屋", "category_id": "0101495", "time": [], "star": 2.0, "review": 0}, {"name": "串焼き108", "address": "埼玉県熊谷市広瀬390-6", "lat": 36.150732, "lon": 139.357337, "category": "居酒屋", "category_id": "0101495", "time": ["17:30-23:00"], "star": 3.3, "review": 1}, {"name": "マクドナルド 140熊谷広瀬店", "address": "埼玉県熊谷市広瀬155-1", "lat": 36.1527, "lon": 139.3584961, "category": "ハンバーガー店", "category_id": "0100722", "time": ["05:00-26:00"], "star": 4.01, "review": 134}, {"name": "熊谷ゴルフクラブ", "address": "埼玉県熊谷市石原1431", "lat": 36.1465227, "lon": 139.3582798, "category": "ゴルフ場", "category_id": "0300506", "time": [], "star": 4.17, "review": 19}, {"name": "新井屋食堂", "address": "埼玉県熊谷市広瀬403-2", "lat": 36.1503695, "lon": 139.3566362, "category": "定食屋", "category_id": "0101441", "time": [], "star": 0.0, "review": 0}], "カフェ": [{"name": "ココカラカフェ", "address": "埼玉県熊谷市広瀬390-8", "lat": 36.151022928288, "lon": 139.35786003942, "category": "カフェ・喫茶", "category_id": "0100344", "time": ["11:00-16:00"], "star": 4.2, "review": 37}, {"name": "マクドナルド 140熊谷広瀬店", "address": "埼玉県熊谷市広瀬155-1", "lat": 36.1527, "lon": 139.3584961, "category": "ハンバーガー店", "category_id": "0100722", "time": ["05:00-26:00"], "star": 4.01, "review": 134}], "ドラッグストア": [{"name": "マツモトキヨシ ドラッグストア 熊谷広瀬店", "address": "埼玉県熊谷市広瀬132", "lat": 36.1521472, "lon": 139.357274, "category": "ドラッグストア", "category_id": "0200699", "time": ["10:00-22:00"], "star": 3.99, "review": 31}, {"name": "ドラッグストアセキ 熊谷広瀬店", "address": "埼玉県熊谷市広瀬266-1", "lat": 36.1511669, "lon": 139.3602156, "category": "ドラッグストア", "category_id": "0200699", "time": ["09:00-22:00"], "star": 3.93, "review": 49}, {"name": "かえで薬局", "address": "埼玉県熊谷市広瀬800-2", "lat": 36.14719463, "lon": 139.35168898, "category": "調剤薬局", "category_id": "0202315", "time": [], "star": 0.0, "review": 0}, {"name": "ベルク 広瀬店", "address": "埼玉県熊谷市広瀬131", "lat": 36.1520362, "lon": 139.3583462, "category": "スーパー", "category_id": "0200612", "time": ["09:00-24:00"], "star": 3.99, "review": 144}], "ATM": [{"name": "JAバンク ATM くまがや農業協同組合(JAくまがや)山王三尻支店", "address": "埼玉県熊谷市広瀬541-1", "lat": 36.1516969, "lon": 139.3488411, "category": "ATM", "category_id": "0402785", "time": [], "star": 0.0, "review": 0}, {"name": "武蔵野銀行 ATM ベルク広瀬店", "address": "埼玉県熊谷市広瀬131", "lat": 36.1521031, "lon": 139.358117, "category": "ATM", "category_id": "0402785", "time": [], "star": 0.0, "review": 0}, {"name": "JAバンク くまがや農業協同組合(JAくまがや)山王三尻支店", "address": "埼玉県熊谷市広瀬541-1", "lat": 36.1516798, "lon": 139.348794, "category": "銀行", "category_id": "0402596", "time": ["09:00-15:00"], "star": 0.0, "review": 0}, {"name": "ゆうちょ銀行 熊谷広瀬郵便局", "address": "埼玉県熊谷市石原1399-4", "lat": 36.1495828, "lon": 139.361352, "category": "銀行", "category_id": "0402596", "time": [], "star": 3.0, "review": 1}, {"name": "ゆうちょ銀行 ATM 熊谷広瀬郵便局", "address": "埼玉県熊谷市石原1399-4", "lat": 36.1495288, "lon": 139.361354, "category": "ATM", "category_id": "0402785", "time": [], "star": 0.0, "review": 0}, {"name": "ローソン銀行 熊谷カジュアルタウン共同出張所", "address": "埼玉県熊谷市広瀬266-1", "lat": 36.1516103, "lon": 139.360074, "category": "ATM", "category_id": "0402785", "time": ["00:00-24:00"], "star": 0.0, "review": 0}], "スーパーマーケット": [{"name": "ベルク 広瀬店", "address": "埼玉県熊谷市広瀬131", "lat": 36.1520362, "lon": 139.3583462, "category": "スーパー", "category_id": "0200612", "time": ["09:00-24:00"], "star": 3.99, "review": 144}, {"name": "マツモトキヨシ ドラッグストア 熊谷広瀬店", "address": "埼玉県熊谷市広瀬132", "lat": 36.1521472, "lon": 139.357274, "category": "ドラッグストア", "category_id": "0200699", "time": ["10:00-22:00"], "star": 3.99, "review": 31}]}, "top_restaurant": {"name": "ヤムヤムチャッチャプ", "category": "韓国料理店", "star": 4.75, "review": 1}}, {"name": "ふかや花園", "name_en": "Fukaya-Hanazono", "lat": 36.1308138, "lon": 139.2480617, "osm_id": 10837069811, "operator": "秩父鉄道", "railway": "station", "wikidata": "Q30302602", "wikipedia_tag": "ja:ふかや花園駅", "lines": [], "pref": "埼玉県", "wikipedia_text": "ふかや花園駅（ふかやはなぞのえき）は、埼玉県深谷市黒田にある秩父鉄道秩父本線の駅である。駅番号はCR17。", "wikipedia_image": "https://upload.wikimedia.org/wikipedia/commons/3/31/Fukaya-Hanazono_Sta_bldg_260215.jpg", "nearest_convenience": {"name": "セブン-イレブン", "lat": 36.1210064, "lon": 139.2346309, "address": "", "distance_m": 1626, "brand": "7-ELEVEN"}, "nearest_restaurant": {"name": "上島珈琲店", "lat": 36.1320844, "lon": 139.2488578, "address": "", "distance_m": 158, "cuisine": "coffee_shop"}, "nearby_pois": {"コンビニ": [{"name": "セブンイレブン ふかや花園駅前", "address": "埼玉県深谷市黒田500-1", "lat": 36.1289423, "lon": 139.2476973, "category": "コンビニ", "category_id": "0200487", "time": ["00:00-24:00"], "star": 4.19, "review": 5}, {"name": "ファミリーマート ヤマキ花園店", "address": "埼玉県深谷市荒川1003", "lat": 36.126012, "lon": 139.2391064, "category": "コンビニ", "category_id": "0200487", "time": ["00:00-24:00"], "star": 4.32, "review": 11}, {"name": "成城石井 ふかや花園プレミアム・アウトレット店", "address": "埼玉県深谷市花園1 ふかや花園プレミアム・アウトレット 1000", "lat": 36.132991, "lon": 139.249828, "category": "スーパー", "category_id": "0200612", "time": ["10:00-20:00"], "star": 4.05, "review": 95}, {"name": "ベイシア ふかや花園店", "address": "埼玉県深谷市荒川1050", "lat": 36.1273312, "lon": 139.2395758, "category": "スーパー", "category_id": "0200612", "time": ["09:00-21:00"], "star": 4.15, "review": 140}], "ラーメン": [{"name": "花園バスラーメン", "address": "埼玉県深谷市黒田385", "lat": 36.13058816, "lon": 139.25117756, "category": "ラーメン店", "category_id": "0100097", "time": ["16:00-22:00"], "star": 3.3, "review": 4}, {"name": "次念序 ふかや花園プレミアム・アウトレット店", "address": "埼玉県深谷市黒田169 ふかや花園プレミアム･アウトレット 2F", "lat": 36.13290249504, "lon": 139.24941663195, "category": "ラーメン店", "category_id": "0100097", "time": ["10:00-20:00"], "star": 3.95, "review": 62}, {"name": "叉焼春", "address": "埼玉県深谷市花園1ふかや花園プレミアム アウトレット", "lat": 36.132612, "lon": 139.25012, "category": "豚肉料理店", "category_id": "0102961", "time": ["11:00-20:30"], "star": 3.28, "review": 13}, {"name": "暁雲亭 ふかや花園プレミアム・アウトレット店", "address": "埼玉県深谷市黒田169ふかや花園プレミアム・アウトレット", "lat": 36.13279837, "lon": 139.24960286, "category": "担々麺店", "category_id": "0101631", "time": ["10:00-20:00"], "star": 3.51, "review": 15}], "飲食店": [{"name": "KUA`AINA ふかや花園プレミアム・アウトレット店", "address": "埼玉県深谷市黒田169", "lat": 36.132929815035, "lon": 139.24939537916, "category": "カフェ・喫茶", "category_id": "0100344", "time": [], "star": 4.0, "review": 1}, {"name": "ムサシノ製麺所", "address": "埼玉県深谷市黒田169 ふかや花園プレミアム･アウトレット フードホール", "lat": 36.133137518265, "lon": 139.25131987931, "category": "うどん店", "category_id": "0100033", "time": ["10:00-20:00"], "star": 3.65, "review": 21}, {"name": "タリーズコーヒー &TEA ふかや花園プレミアム・アウトレット BOOKS CAFE店", "address": "埼玉県深谷市黒田169", "lat": 36.133038941774, "lon": 139.24950803194, "category": "カフェ・喫茶", "category_id": "0100344", "time": [], "star": 3.5, "review": 6}, {"name": "日本ご当地グルメ屋台", "address": "埼玉県深谷市花園169 ふかや花園プレミアム･アウトレット フードコート", "lat": 36.132367138265, "lon": 139.2493817893, "category": "レストラン", "category_id": "0100111", "time": ["10:48-20:00"], "star": 2.67, "review": 3}, {"name": "長瀞とガレ ふかや花園プレミアム・アウトレット店", "address": "埼玉県深谷市黒田169 ふかや花園プレミアム･アウトレット", "lat": 36.133995837459, "lon": 139.25074888816, "category": "スイーツ店", "category_id": "0100534", "time": [], "star": 3.78, "review": 18},