[{"name": "いこいの村", "name_en": "Ikoi no mura", "lat": 32.936673, "lon": 131.094941, "osm_id": 265861854, "operator": "九州旅客鉄道", "railway": "station", "wikidata": "Q11259169", "wikipedia_tag": "ja:いこいの村駅", "lines": ["JR豊肥本線"], "pref": "大分県", "wikipedia_text": "いこいの村駅（いこいのむらえき）は、熊本県阿蘇市竹原にある、九州旅客鉄道（JR九州）豊肥本線の駅である。", "wikipedia_image": "https://upload.wikimedia.org/wikipedia/commons/f/f9/Ikoinomura_station_1.jpg", "nearest_convenience": {"name": "セブン-イレブン", "lat": 32.9374744, "lon": 131.0960808, "address": "", "distance_m": 139, "brand": "7-ELEVEN"}, "nearest_restaurant": {"name": "", "lat": 32.9362128, "lon": 131.0791705, "address": "", "distance_m": 1473, "cuisine": "japanese;ramen;noodles;local"}, "nearby_pois": {"コンビニ": [{"name": "セブンイレブン 阿蘇西町", "address": "熊本県阿蘇市西町833-1", "lat": 32.9374654, "lon": 131.0961014, "category": "コンビニ", "category_id": "0200487", "time": ["00:00-24:00"], "star": 4.0, "review": 7}, {"name": "えびすぱーな阿蘇店", "address": "熊本県阿蘇市蔵原832-1", "lat": 32.93705742, "lon": 131.0875897, "category": "スーパー", "category_id": "0200612", "time": ["09:30-20:30"], "star": 4.33, "review": 22}], "ラーメン": [{"name": "尺間らーめん", "address": "熊本県阿蘇市西町35-1", "lat": 32.9379626, "lon": 131.1013483, "category": "ラーメン店", "category_id": "0100097", "time": ["11:00-15:00", "17:00-20:00"], "star": 4.02, "review": 21}], "飲食店": [{"name": "レストラン まきば", "address": "熊本県阿蘇市西町996 モーモーファーム竹原牧場内", "lat": 32.929777531589, "lon": 131.09843717193, "category": "牛肉料理店", "category_id": "0102960", "time": ["11:00-15:30"], "star": 3.61, "review": 8}, {"name": "もちとこ", "address": "熊本県阿蘇市西町885", "lat": 32.93391855, "lon": 131.09988746, "category": "カフェ・喫茶", "category_id": "0100344", "time": ["11:30-17:00"], "star": 3.94, "review": 11}, {"name": "隠れ茶房 茶蔵カフェ", "address": "熊本県阿蘇市蔵原625-1", "lat": 32.9410669, "lon": 131.08914633, "category": "カフェ・喫茶", "category_id": "0100344", "time": ["11:30-17:00"], "star": 4.27, "review": 42}, {"name": "文吾うどん", "address": "熊本県阿蘇市西町846-4", "lat": 32.93715931, "lon": 131.09676248, "category": "うどん店", "category_id": "0100033", "time": ["11:00-20:00"], "star": 4.06, "review": 16}, {"name": "さ-蔵", "address": "熊本県阿蘇市蔵原625-1", "lat": 32.94088856, "lon": 131.08933105, "category": "定食屋", "category_id": "0101441", "time": ["11:30-17:00"], "star": 4.5, "review": 10}, {"name": "ひなた", "address": "熊本県阿蘇市竹原617-4", "lat": 32.93666405, "lon": 131.09439348, "category": "からあげ店", "category_id": "0100067", "time": ["11:00-19:00"], "star": 3.48, "review": 5}, {"name": "森万十", "address": "熊本県阿蘇市蔵原1120-1", "lat": 32.93634906, "lon": 131.09302997, "category": "郷土料理店", "category_id": "0100075", "time": ["09:00-18:00"], "star": 4.01, "review": 15}, {"name": "大福寿司", "address": "熊本県阿蘇市西町845-1", "lat": 32.93729819, "lon": 131.09749549, "category": "寿司店", "category_id": "0100101", "time": ["11:00-23:00"], "star": 3.33, "review": 2}, {"name": "てとStand", "address": "熊本県阿蘇市西町832-5", "lat": 32.93897927, "lon": 131.09875674, "category": "飲食店", "category_id": "0102732", "time": [], "star": 0.0, "review": 0}, {"name": "オルモ コッピア", "address": "熊本県阿蘇市蔵原627-1", "lat": 32.94070105, "lon": 131.08976271, "category": "オーガニックレストラン", "category_id": "0100316", "time": ["11:30-15:00"], "star": 4.16, "review": 28}, {"name": "阿蘇の風", "address": "熊本県阿蘇市西町788-2", "lat": 32.9395703, "lon": 131.0973599, "category": "蕎麦店", "category_id": "0100034", "time": [], "star": 0.0, "review": 0}, {"name": "尺間らーめん", "address": "熊本県阿蘇市西町35-1", "lat": 32.9379626, "lon": 131.1013483, "category": "ラーメン店", "category_id": "0100097", "time": ["11:00-15:00", "17:00-20:00"], "star": 4.02, "review": 21}], "カフェ": [{"name": "隠れ茶房 茶蔵カフェ", "address": "熊本県阿蘇市蔵原625-1", "lat": 32.9410669, "lon": 131.08914633, "category": "カフェ・喫茶", "category_id": "0100344", "time": ["11:30-17:00"], "star": 4.27, "review": 42}, {"name": "もちとこ", "address": "熊本県阿蘇市西町885", "lat": 32.93391855, "lon": 131.09988746, "category": "カフェ・喫茶", "category_id": "0100344", "time": ["11:30-17:00"], "star": 3.94, "review": 11}, {"name": "オルモ コッピア", "address": "熊本県阿蘇市蔵原627-1", "lat": 32.94070105, "lon": 131.08976271, "category": "オーガニックレストラン", "category_id": "0100316", "time": ["11:30-15:00"], "star": 4.16, "review": 28}, {"name": "さ-蔵", "address": "熊本県阿蘇市蔵原625-1", "lat": 32.94088856, "lon": 131.08933105, "category": "定食屋", "category_id": "0101441", "time": ["11:30-17:00"], "star": 4.5, "review": 10}], "ドラッグストア": [{"name": "ドラッグストアコスモス 阿蘇店", "address": "熊本県阿蘇市西町８４９－１ ", "lat": 32.9375043, "lon": 131.096646, "category": "ドラッグストア", "category_id": "0200699", "time": ["10:00-21:00"], "star": 3.89, "review": 22}], "ATM": [{"name": "セブン銀行 阿蘇西町店", "address": "熊本県阿蘇市西町833-1", "lat": 32.9374659, "lon": 131.096142, "category": "ATM", "category_id": "0402785", "time": ["00:00-24:00"], "star": 0.0, "review": 0}, {"name": "ゆうちょ銀行 阿蘇西町簡易郵便局", "address": "熊本県阿蘇市西町762-2", "lat": 32.9393076, "lon": 131.098948, "category": "銀行", "category_id": "0402596", "time": [], "star": 0.0, "review": 0}], "スーパーマーケット": [{"name": "えびすぱーな阿蘇店", "address": "熊本県阿蘇市蔵原832-1", "lat": 32.93705742, "lon": 131.0875897, "category": "スーパー", "category_id": "0200612", "time": ["09:30-20:30"], "star": 4.33, "review": 22}, {"name": "ダイソー 阿蘇ショッピングタウン店", "address": "熊本県阿蘇市蔵原８４３-１ ", "lat": 32.93698214, "lon": 131.088163, "category": "100円ショップ", "category_id": "0200001", "time": ["10:00-19:00"], "star": 4.55, "review": 26}]}, "top_restaurant": {"name": "さ-蔵", "category": "定食屋", "star": 4.5, "review": 10}}, {"name": "三毛門", "name_en": "Mikekado", "lat": 33.6149634, "lon": 131.1556412, "osm_id": 265839317, "operator": "九州旅客鉄道", "railway": "station", "wikidata": "Q5360381", "wikipedia_tag": "ja:三毛門駅", "lines": ["JR日豊本線"], "pref": "大分県", "wikipedia_text": "三毛門駅（みけかどえき）は、福岡県豊前市大字三毛門にある、九州旅客鉄道（JR九州）日豊本線の駅である。", "wikipedia_image": "https://upload.wikimedia.org/wikipedia/commons/7/72/JRKyushu_Mikekado_Station05.jpg", "nearest_convenience": {"name": "セブン-イレブン", "lat": 33.609927, "lon": 131.1600216, "address": "", "distance_m": 691, "brand": "7-ELEVEN"}, "nearest_restaurant": {"name": "うみてらす豊前", "lat": 33.625605, "lon": 131.1393692, "address": "", "distance_m": 1916, "cuisine": ""}, "nearby_pois": {"コンビニ": [{"name": "セブンイレブン 豊前三毛門", "address": "福岡県豊前市三毛門405", "lat": 33.6099361, "lon": 131.1600432, "category": "コンビニ", "category_id": "0200487", "time": ["00:00-24:00"], "star": 4.22, "review": 4}, {"name": "ローソン 豊前久松", "address": "福岡県豊前市久松119-1", "lat": 33.6165436, "lon": 131.1463661, "category": "コンビニ", "category_id": "0200487", "time": ["06:00-24:00"], "star": 3.89, "review": 7}], "飲食店": [{"name": "銀杏の木", "address": "福岡県築上郡吉富町大字直江656-1", "lat": 33.609672537292, "lon": 131.16326816949, "category": "定食屋", "category_id": "0101441", "time": ["08:00-14:30"], "star": 0.0, "review": 0}, {"name": "ダイニングGG", "address": "福岡県豊前市恒富64-5", "lat": 33.61473487, "lon": 131.14945986, "category": "レストラン", "category_id": "0100111", "time": ["07:00-10:00"], "star": 4.0, "review": 1}, {"name": "美食工房 KICHEN LW", "address": "福岡県豊前市恒富74-4", "lat": 33.61556339, "lon": 131.14800827, "category": "レストラン", "category_id": "0100111", "time": ["11:00-19:00"], "star": 0.0, "review": 1}, {"name": "黒のれん ヨコヤマ店", "address": "福岡県豊前市恒富82-1", "lat": 33.613617611651314, "lon": 131.14703843289948, "category": "飲食店", "category_id": "0102732", "time": ["14:30-19:30"], "star": 0.0, "review": 0}, {"name": "ニューいずみ", "address": "福岡県豊前市三毛門261-1", "lat": 33.609275, "lon": 131.1602626, "category": "会席・懐石料理店", "category_id": "0101064", "time": ["10:00-22:00"], "star": 4.33, "review": 2}, {"name": "そらいろキッチン", "address": "福岡県豊前市大字恒富64-1", "lat": 33.614766277284, "lon": 131.14932050955, "category": "弁当屋", "category_id": "0101059", "time": ["11:00-18:30"], "star": 3.53, "review": 2}, {"name": "からあげ木下家", "address": "福岡県豊前市三毛門400-2", "lat": 33.6097946, "lon": 131.1590218, "category": "飲食店", "category_id": "0102732", "time": [], "star": 0.0, "review": 0}, {"name": "カラオケ喫茶マリー", "address": "福岡県豊前市三毛門400-2", "lat": 33.609771, "lon": 131.158983, "category": "カフェ・喫茶", "category_id": "0100344", "time": [], "star": 0.0, "review": 0}, {"name": "黒のれん ヨコヤマ三毛門店", "address": "福岡県豊前市恒富85-1", "lat": 33.614934, "lon": 131.14805939, "category": "焼き鳥店", "category_id": "0101960", "time": ["14:00-19:30"], "star": 0.0, "review": 1}, {"name": "福興源", "address": "福岡県豊前市恒富77-1", "lat": 33.6156073, "lon": 131.1470939, "category": "台湾料理店", "category_id": "0101283", "time": [], "star": 3.5, "review": 1}, {"name": "ニューいずみ仕出し部", "address": "福岡県豊前市大字三毛門261-1", "lat": 33.60926163, "lon": 131.16025171, "category": "会席・懐石料理店", "category_id": "0101064", "time": [], "star": 0.0, "review": 0}], "カフェ": [{"name": "カラオケ喫茶マリー", "address": "福岡県豊前市三毛門400-2", "lat": 33.609771, "lon": 131.158983, "category": "カフェ・喫茶", "category_id": "0100344", "time": [], "star": 0.0, "review": 0}], "ドラッグストア": [{"name": "ドラッグストアモリ 豊前店", "address": "福岡県豊前市恒富88-1", "lat": 33.6143688, "lon": 131.1483466, "category": "ドラッグストア", "category_id": "0200699", "time": ["09:00-24:00"], "star": 4.18, "review": 21}, {"name": "さんらく薬局", "address": "福岡県豊前市大字三楽155-3", "lat": 33.6087771, "lon": 131.15156764, "category": "調剤薬局", "category_id": "0202315", "time": ["09:00-18:00"], "star": 0.0, "review": 0}, {"name": "三毛門調剤薬局", "address": "福岡県豊前市大字恒富37-1", "lat": 33.61422798, "lon": 131.14975235, "category": "調剤薬局", "category_id": "0202315", "time": [], "star": 0.0, "review": 0}, {"name": "ぶぜん薬局", "address": "福岡県豊前市大字恒富89-8", "lat": 33.61448015, "lon": 131.14815579, "category": "調剤薬局", "category_id": "0202315", "time": [], "star": 0.0, "review": 0}], "ATM": [{"name": "ゆうちょ銀行 豊前三毛門郵便局", "address": "福岡県豊前市三毛門887", "lat": 33.6122186, "lon": 131.15433, "category": "銀行", "category_id": "0402596", "time": [], "star": 3.0, "review": 1}, {"name": "ゆうちょ銀行 ATM 豊前三毛門郵便局", "address": "福岡県豊前市三毛門887", "lat": 33.6122186, "lon": 131.15433, "category": "ATM", "category_id": "0402785", "time": [], "star": 0.0, "review": 0}, {"name": "セブン銀行 豊前三毛門店", "address": "福岡県豊前市三毛門405", "lat": 33.6099178, "lon": 131.160024, "category": "ATM", "category_id": "0402785", "time": ["00:00-24:00"], "star": 0.0, "review": 0}, {"name": "ローソン銀行 豊前久松共同出張所", "address": "福岡県豊前市久松119-1", "lat": 33.6165712, "lon": 131.146444, "category": "ATM", "category_id": "0402785", "time": ["06:00-24:00"], "star": 0.0, "review": 0}], "スーパーマーケット": [{"name": "みけかどマートたなかや", "address": "福岡県豊前市大字三毛門981-1", "lat": 33.61016116, "lon": 131.15215284, "category": "酒店", "category_id": "0202522", "time": [], "star": 0.0, "review": 0}]}, "top_restaurant": {"name": "ニューいずみ", "category": "会席・懐石料理店", "star": 4.33, "review": 2}}, {"name": "三重町", "name_en": "Miemachi", "lat": 32.9837808, "lon": 131.5842766, "osm_id": 8141291222, "operator": "九州旅客鉄道", "railway": "station", "wikidata": "Q11357714", "wikipedia_tag": "ja:三重町駅", "lines": [], "pref": "大分県", "wikipedia_text": "三重町駅（みえまちえき）は、大分県豊後大野市三重町赤嶺にある、九州旅客鉄道（JR九州）豊肥本線の駅である。\n豊後大野市の中心駅で、特急列車を含む全列車が停車する。", "wikipedia_image": "https://upload.wikimedia.org/wikipedia/commons/4/4e/Miemachi_stn.jpg", "nearest_convenience": {"name": "セブン-イレブン", "lat": 32.9886386, "lon": 131.5853487, "address": "", "distance_m": 549, "brand": "セブン-イレブン"}, "nearest_restaurant": {"name": "大五郎", "lat": 32.9832368, "lon": 131.5844968, "address": "", "distance_m": 64, "cuisine": ""}, "nearby_pois": {"コンビニ": [{"name": "ローソン 豊後大野三重市場", "address": "大分県豊後大野市三重町市場203", "lat": 32.9815549, "lon": 131.5876465, "category": "コンビニ", "category_id": "0200487", "time": ["00:00-24:00"], "star": 4.01, "review": 8}, {"name": "ファミリーマート 豊後大野三重市場店", "address": "大分県豊後大野市三重町市場290-1", "lat": 32.9810299, "lon": 131.586105, "category": "コンビニ", "category_id": "0200487", "time": ["00:00-24:00"], "star": 4.46, "review": 6}, {"name": "セブンイレブン 豊後大野三重大原", "address": "大分県豊後大野市三重町赤嶺字松久保2685-6", "lat": 32.9885429, "lon": 131.5853437, "category": "コンビニ", "category_id": "0200487", "time": ["00:00-24:00"], "star": 4.14, "review": 11}, {"name": "ローソン 三重総合高校前", "address": "大分県豊後大野市三重町市場字広石857-1", "lat": 32.9754915, "lon": 131.5818806, "category": "コンビニ", "category_id": "0200487", "time": ["00:00-24:00"], "star": 3.69, "review": 10}, {"name": "セブンイレブン 豊後大野三重赤嶺", "address": "大分県豊後大野市三重町赤嶺字年神1988-1", "lat": 32.9838187, "lon": 131.5948596, "category": "コンビニ", "category_id": "0200487", "time": ["00:00-24:00"], "star": 4.77, "review": 9}, {"name": "全日食チェーン チコマートことぶきや", "address": "大分県豊後大野市三重町市場1303", "lat": 32.9790578, "lon": 131.5824666, "category": "スーパー", "category_id": "0200612", "time": ["08:00-21:00"], "star": 3.88, "review": 12}], "ラーメン": [{"name": "七福拉麺", "address": "大分県豊後大野市三重町市場537", "lat": 32.9797966, "lon": 131.58332756, "category": "ラーメン店", "category_id": "0100097", "time": ["17:00-26:00"], "star": 4.14, "review": 11}, {"name": "大吉ラーメン", "address": "大分県豊後大野市三重町市場259-1", "lat": 32.982173, "lon": 131.585251, "category": "肉料理店", "category_id": "0100212", "time": [], "star": 3.0, "review": 1}, {"name": "三国ラーメン", "address": "大分県豊後大野市三重町赤嶺1983", "lat": 32.98430477, "lon": 131.59495962, "category": "飲食店", "category_id": "0102732", "time": ["11:00-20:00"], "star": 0.0, "review": 0}, {"name": "いろは", "address": "大分県豊後大野市三重町市場601-1", "lat": 32.97906894, "lon": 131.58470217, "category": "お好み焼き店", "category_id": "0100046", "time": ["11:00-15:00"], "star": 4.21, "review": 6}], "飲食店": [{"name": "黒和山", "address": "大分県豊後大野市三重町市場502-1", "lat": 32.980572177826, "lon": 131.58494602284, "category": "焼肉店", "category_id": "0101963", "time": [], "star": 4.25, "review": 3}, {"name": "居酒屋 華", "address": "大分県豊後大野市三重町市場1674", "lat": 32.981895577825, "lon": 131.58452988285, "category": "居酒屋", "category_id": "0101495", "time": [], "star": 3.67, "review": 2}, {"name": "夢ふたたび 五戒", "address": "大分県豊後大野市三重町市場四区1613-3", "lat": 32.981346032369, "lon": 131.58379093999, "category": "居酒屋", "category_id": "0101495", "time": ["11:00-14:00", "17:00-24:00"], "star": 3.4, "review": 2}, {"name": "マルハチ", "address": "大分県豊後大野市三重町内田980-1", "lat": 32.978286227828, "lon": 131.58688212282, "category": "とんかつ店", "category_id": "0100159", "time": [], "star": 3.6, "review": 1}, {"name": "大五郎食堂", "address": "大分県豊後大野市三重町赤嶺2928", "lat": 32.98322569, "lon": 131.58449178, "category": "定食屋", "category_id": "0101441", "time": ["11:00-20:00"], "star": 4.02, "review": 12}, {"name": "レストランすえひろ", "address": "大分県豊後大野市三重町市場690-1", "lat": 32.977145297827, "lon": 131.58349782281, "category": "レストラン", "category_id": "0100111", "time": [], "star": 4.73, "review": 11}, {"name": "ヒバリ コーヒー&ブレッド", "address": "大分県豊後大野市三重町赤嶺2924-13", "lat": 32.983373747824, "lon": 131.58427231287, "category": "カフェ・喫茶", "category_id": "0100344", "time": ["07:00-17:00"], "star": 3.66, "review": 6}, {"name": "Hibari COFFEE&BREAD", "address": "大分県豊後大野市三重町赤嶺2924-13", "lat": 32.9833332, "lon": 131.5842478, "category": "カフェ・喫茶", "category_id": "0100344", "time": [], "star": 3.6, "review": 4}, {"name": "ゆいまぁる", "address": "大分県豊後大野市三重町赤嶺3007-2", "lat": 32.982164597825, "lon": 131.58445920286, "category": "カフェ・喫茶", "category_id": "0100344", "time": ["09:00-19:00"], "star": 3.83, "review": 3}, {"name": "れと絽", "address": "大分県豊後大野市三重町市場1594", "lat": 32.98049933, "lon": 131.58427022, "category": "和食店", "category_id": "0100126", "time": [], "star": 4.28, "review": 6}, {"name": "居酒屋ほたる", "address": "大分県豊後大野市三重町市場275-2", "lat": 32.98148823478291, "lon": 131.58513161103184, "category": "居酒屋", "category_id": "0101495", "time": ["11:30-14:00", "17:00-22:00"], "star": 4.58, "review": 0}, {"name": "ひらお食堂", "address": "大分県豊後大野市三重町市場172-1", "lat": 32.98232563, "lon": 131.58831532, "category": "定食屋", "category_id": "0101441", "time": ["11:00-14:00", "18:00-20:30"], "star": 3.78, "review": 11}, {"name": "そばダイニングWASABI", "address": "大分県豊後大野市三重町市場1606-1", "lat": 32.980892, "lon": 131.584465, "category": "居酒屋", "category_id": "0101495", "time": ["11:30-15:00", "17:00-24:00"], "star": 4.09, "review": 12}, {"name": "TANTO", "address": "大分県豊後大野市三重町赤嶺3007-2", "lat": 32.982046617825, "lon": 131.58449248286, "category": "居酒屋", "category_id": "0101495", "time": ["17:30-23:00"], "star": 3.75, "review": 10}, {"name": "天ぷら喜久", "address": "大分県豊後大野市三重町市場1653", "lat": 32.98159393, "lon": 131.58451738, "category": "居酒屋", "category_id": "0101495", "time": ["17:00-22:00"], "star": 4.25, "review": 2}, {"name": "寿司割烹にし村", "address": "大分県豊後大野市三重町市場1667", "lat": 32.98218415, "lon": 131.5849151, "category": "割烹・小料理屋", "category_id": "0101190", "time": [], "star": 4.25, "review": 1}, {"name": "ビストログラッツェ", "address": "大分県豊後大野市三重町市場460-1", "lat": 32.979569297827, "lon": 131.58615157283, "category": "イタリア料理店", "category_id": "0100263", "time": ["11:00-14:00", "17:00-22:00"], "star": 4.13, "review": 9}, {"name": "居酒屋玄海", "address": "大分県豊後大野市三重町市場106", "lat": 32.98265417, "lon": 131.58729541, "category": "居酒屋", "category_id": "0101495", "time": ["17:30-23:00"], "star": 3.2, "review": 6}, {"name": "BaseCamp", "address": "大分県豊後大野市三重町赤嶺 3007-5 一六ビル1F", "lat": 32.982070922852, "lon": 131.58430480957, "category": "飲食店", "category_id": "0102732", "time": [], "star": 0.0, "review": 0}, {"name": "カラオケDINING わびすけ", "address": "大分県豊後大野市三重町市場 1606番地1 2F", "lat": 32.980865478515625, "lon": 131.58445739746094, "category": "飲食店", "category_id": "0102732", "time": [], "star": 0.0, "review": 0}], "カフェ": [{"name": "ヒバリ コーヒー&ブレッド", "address": "大分県豊後大野市三重町赤嶺2924-13", "lat": 32.983373747824, "lon": 131.58427231287, "category": "カフェ・喫茶", "category_id": "0100344", "time": ["07:00-17:00"], "star": 3.66, "review": 6}, {"name": "Hibari COFFEE&BREAD", "address": "大分県豊後大野市三重町赤嶺2924-13", "lat": 32.9833332, "lon": 131.5842478, "category": "カフェ・喫茶", "category_id": "0100344", "time": [], "star": 3.6, "review": 4}, {"name": "ゆいまぁる", "address": "大分県豊後大野市三重町赤嶺3007-2", "lat": 32.982164597825, "lon": 131.58445920286, "category": "カフェ・喫茶", "category_id": "0100344", "time": ["09:00-19:00"], "star": 3.83, "review": 3}, {"name": "カフェ&ダイニングひらそる", "address": "大分県豊後大野市三重町市場671-1", "lat": 32.9774806, "lon": 131.5848606, "category": "カフェ・喫茶", "category_id": "0100344", "time": [], "star": 0.0, "review": 0}, {"name": "ダモイ", "address": "大分県豊後大野市三重町内田980-1", "lat": 32.9782731, "lon": 131.5868109, "category": "カフェ・喫茶", "category_id": "0100344", "time": [], "star": 0.0, "review": 0}, {"name": "Cafe リヤン", "address": "大分県豊後大野市三重町内田878", "lat": 32.9759192, "lon": 131.5840528, "category": "カフェ・喫茶", "category_id": "0100344", "time": [], "star": 0.0, "review": 0}, {"name": "ねむの木", "address": "大分県豊後大野市三重町市場646-1", "lat": 32.9780563, "lon": 131.57697, "category": "カフェ・喫茶", "category_id": "0100344", "time": [], "star": 0.0, "review": 0}], "ドラッグストア": [{"name": "コスモス 三重市場店", "address": "大分県豊後大野市三重町市場705-4", "lat": 32.976297, "lon": 131.5829888, "category": "ドラッグストア", "category_id": "0200699", "time": ["10:00-21:00"], "star": 4.35, "review": 13}, {"name": "あそう調剤薬局高砂店", "address": "大分県豊後大野市三重町市場135-1", "lat": 32.98228392, "lon": 131.58674437, "category": "調剤薬局", "category_id": "0202315", "time": ["08:30-18:30"], "star": 0.0, "review": 0}, {"name": "みどり調剤薬局", "address": "大分県豊後大野市三重町市場207-1", "lat": 32.98184398, "lon": 131.5872785, "category": "調剤薬局", "category_id": "0202315", "time": [], "star": 0.0, "review": 0}, {"name": "あそう調剤薬局市場三区店", "address": "大分県豊後大野市三重町市場1305", "lat": 32.9789179, "lon": 131.5824475, "category": "調剤薬局", "category_id": "0202315", "time": ["08:30-18:30"], "star": 0.0, "review": 0}, {"name": "トキハインダストリー三重店 三重町薬局", "address": "大分県豊後大野市三重町市場447-1", "lat": 32.979779629395, "lon": 131.58681699219, "category": "薬店", "category_id": "0202316", "time": [], "star": 0.0, "review": 0}, {"name": "シモカワ三重店", "address": "大分県豊後大野市三重町赤嶺2976-1", "lat": 32.9825357, "lon": 131.5855441, "category": "薬店", "category_id": "0202316", "time": [], "star": 0.0, "review": 0}], "ATM": [{"name": "大分銀行 三重支店・犬飼支店", "address": "大分県豊後大野市三重町市場512-5", "lat": 32.980333, "lon": 131.584653, "category": "銀行", "category_id": "0402596", "time": ["09:00-15:00"], "star": 4.5, "review": 1}, {"name": "ゆうちょ銀行 ATM 三重郵便局", "address": "大分県豊後大野市三重町市場1619-2", "lat": 32.981313, "lon": 131.584698, "category": "ATM", "category_id": "0402785", "time": [], "star": 0.0, "review": 0}, {"name": "ゆうちょ銀行 三重郵便局", "address": "大分県豊後大野市三重町市場1619-2", "lat": 32.981313, "lon": 131.584698, "category": "銀行", "category_id": "0402596", "time": [], "star": 4.0, "review": 1}, {"name": "銀行ATM イーネット ファミリーマート豊後大野三重市場 共同出張所", "address": "大分県豊後大野市三重町市場290-1 ", "lat": 32.98103821, "lon": 131.58610502, "category": "ATM", "category_id": "0402785", "time": ["00:00-24:00"], "star": 3.0, "review": 1}, {"name": "豊和銀行 ATM 三重支店", "address": "大分県豊後大野市三重町市場字沖の田567-1", "lat": 32.9794958, "lon": 131.585355, "category": "ATM", "category_id": "0402785", "time": [], "star": 0.0, "review": 0}, {"name": "豊和銀行 三重支店", "address": "大分県豊後大野市三重町市場字沖の田567-1", "lat": 32.9794939, "lon": 131.5853551, "category": "銀行", "category_id": "0402596", "time": [], "star": 4.0, "review": 1}, {"name": "大分銀行 ATM 三重支店・犬飼支店", "address": "大分県豊後大野市三重町市場512-5", "lat": 32.9803869, "lon": 131.584656, "category": "ATM", "category_id": "0402785", "time": [], "star": 0.0, "review": 0}, {"name": "大分銀行 ATM トキハインダストリー三重店出張所", "address": "大分県豊後大野市三重町市場447-1", "lat": 32.9797108, "lon": 131.586814, "category": "ATM", "category_id": "0402785", "time": [], "star": 0.0, "review": 0}, {"name": "セブン銀行 豊後大野三重大原店", "address": "大分県豊後大野市三重町赤嶺字松久保2685-6", "lat": 32.9885926, "lon": 131.585361, "category": "ATM", "category_id": "0402785", "time": ["00:00-24:00"], "star": 0.0, "review": 0}, {"name": "ローソン銀行 豊後大野三重市場共同出張所", "address": "大分県豊後大野市三重町市場203", "lat": 32.9815143, "lon": 131.587559, "category": "ATM", "category_id": "0402785", "time": ["00:00-24:00"], "star": 0.0, "review": 0}, {"name": "JAバンク ATM 大分県農業協同組合(JAおおいた)豊後大野市役所", "address": "大分県豊後大野市三重町市場1200 豊後大野市役所", "lat": 32.9778433, "lon": 131.584248, "category": "ATM", "category_id": "0402785", "time": [], "star": 0.0, "review": 0}, {"name": "ろうきん ATM 九州労働金庫 三重支店", "address": "大分県豊後大野市三重町市場639-3", "lat": 32.9781033, "lon": 131.585519, "category": "ATM", "category_id": "0402785", "time": [], "star": 0.0, "review": 0}, {"name": "ローソン銀行 三重総合高校前共同出張所", "address": "大分県豊後大野市三重町市場字広石857-1", "lat": 32.975572, "lon": 131.581924, "category": "ATM", "category_id": "0402785", "time": ["00:00-24:00"], "star": 4.0, "review": 1}, {"name": "宝くじ ATM 大分銀行三重支店", "address": "大分県豊後大野市三重町市場512-5", "lat": 32.9803353, "lon": 131.584693, "category": "宝くじ売り場", "category_id": "0401442", "time": ["08:45-20:00"], "star": 0.0, "review": 0}, {"name": "セブン銀行 豊後大野三重赤嶺店", "address": "大分県豊後大野市三重町赤嶺字年神1988-1", "lat": 32.9838351, "lon": 131.594872, "category": "ATM", "category_id": "0402785", "time": ["00:00-24:00"], "star": 0.0, "review": 0}, {"name": "信用組合 大分県信用組合 三重支店", "address": "大分県豊後大野市三重町市場1225-1", "lat": 32.97861759, "lon": 131.5842364, "category": "信用組合", "category_id": "0401097", "time": [], "star": 0.0, "review": 0}, {"name": "宝くじ ATM 大分銀行トキハインダストリー三重店出張所", "address": "大分県豊後大野市三重町市場447-1", "lat": 32.9796994, "lon": 131.586823, "category": "宝くじ売り場", "category_id": "0401442", "time": ["09:00-20:00"], "star": 0.0, "review": 0}, {"name": "三重郵便局", "address": "大分県豊後大野市三重町市場1619-2", "lat": 32.98131315, "lon": 131.5846968, "category": "郵便局", "category_id": "0400993", "time": ["09:00-19:00"], "star": 4.13, "review": 2}, {"name": "ろうきん 九州労働金庫 三重支店", "address": "大分県豊後大野市三重町市場639-3", "lat": 32.97811519, "lon": 131.58569349, "category": "労働金庫", "category_id": "0401099", "time": [], "star": 0.0, "review": 0}], "スーパーマーケット": [{"name": "マルミヤストア 三重店", "address": "大分県豊後大野市三重町赤嶺字塚田2976-1", "lat": 32.9826908, "lon": 131.5856828, "category": "スーパー", "category_id": "0200612", "time": ["09:30-23:00"], "star": 3.79, "review": 29}, {"name": "トキハ 三重店", "address": "大分県豊後大野市三重町市場447-1", "lat": 32.979655, "lon": 131.5868856, "category": "スーパー", "category_id": "0200612", "time": ["09:30-20:00"], "star": 4.17, "review": 23}, {"name": "全日食チェーン チコマートことぶきや", "address": "大分県豊後大野市三重町市場1303", "lat": 32.9790578, "lon": 131.5824666, "category": "スーパー", "category_id": "0200612", "time": ["08:00-21:00"], "star": 3.88, "review": 12}, {"name": "肉のマルトモ", "address": "大分県豊後大野市三重町市場1694-1", "lat": 32.98193194, "lon": 131.58425601, "category": "", "category_id": "", "time": [], "star": 4.5, "review": 1}]}, "top_restaurant": {"name": "レストランすえひろ", "category": "レストラン", "star": 4.73, "review": 11}}, {"name": "上岡", "name_en": "Kamioka", "lat": 32.95646, "lon": 131.8621769, "osm_id": 9364617572, "operator": "九州旅客鉄道", "railway": "station", "wikidata": "Q5357786", "wikipedia_tag": "ja:上岡駅", "lines": ["Train 普通: 佐伯 => 延岡", "Train 普通: 佐伯 => 重岡", "Train 普通: 重岡 => 佐伯"], "pref": "大分県", "nearby_bus_stops": [{"name": "上岡", "lat": 32.9554854, "lon": 131.8627855, "distance_m": 122, "operator": "大分バス"}, {"name": "上岡", "lat": 32.9558695, "lon": 131.8632943, "distance_m": 123, "operator": "大分バス"}, {"name": "一本松", "lat": 32.9575255, "lon": 131.8654523, "distance_m": 328, "operator": "大分バス株式会社"}, {"name": "一本松", "lat": 32.9574651, "lon": 131.8655578, "distance_m": 335, "operator": "大分バス株式会社"}, {"name": "西田病院", "lat": 32.959588, "lon": 131.8645994, "distance_m": 415, "operator": "大分バス"}], "wikipedia_text": "上岡駅（かみおかえき）は、大分県佐伯市大字上岡にある、九州旅客鉄道（JR九州）日豊本線の駅である。", "wikipedia_image": "https://upload.wikimedia.org/wikipedia/commons/7/7a/Kamioka_Station.JPG", "nearest_convenience": {"name": "ファミリーマート弥生井崎店", "lat": 32.9745761, "lon": 131.8434094, "address": "", "distance_m": 2669, "brand": ""}, "nearest_restaurant": {"name": "", "lat": 32.9610521, "lon": 131.8650717, "address": "", "distance_m": 578, "cuisine": "indian"}, "nearby_pois": {"コンビニ": [{"name": "ローソン 佐伯稲垣", "address": "大分県佐伯市稲垣242-1", "lat": 32.9617458, "lon": 131.8592212, "category": "コンビニ", "category_id": "0200487", "time": ["00:00-24:00"], "star": 4.38, "review": 5}, {"name": "ローソン 佐伯コスモタウン", "address": "大分県佐伯市鶴岡西町1-196", "lat": 32.962032, "lon": 131.8678594, "category": "コンビニ", "category_id": "0200487", "time": ["00:00-24:00"], "star": 4.45, "review": 5}, {"name": "HOTEL AZ 大分佐伯店", "address": "大分県佐伯市大字上岡字糀ノ木1476-1 ", "lat": 32.95501321, "lon": 131.86046868, "category": "ビジネスホテル", "category_id": "0300758", "time": ["00:00-24:00"], "star": 4.07, "review": 27}], "ラーメン": [{"name": "美絆ラーメン", "address": "大分県佐伯市稲垣436-1", "lat": 32.96267848, "lon": 131.86175017, "category": "飲食店", "category_id": "0102732", "time": ["11:00-20:00"], "star": 3.65, "review": 20}, {"name": "点法輪", "address": "大分県佐伯市鶴岡西町2丁目233", "lat": 32.96109314, "lon": 131.86327261, "category": "飲食店", "category_id": "0102732", "time": [], "star": 3.78, "review": 15}], "飲食店": [{"name": "点法輪", "address": "大分県佐伯市鶴岡西町2丁目233", "lat": 32.96109314, "lon": 131.86327261, "category": "飲食店", "category_id": "0102732", "time": [], "star": 3.78, "review": 15}, {"name": "広瀬精肉店", "address": "大分県佐伯市大字上岡1349", "lat": 32.95493852, "lon": 131.8617419, "category": "鶏料理店", "category_id": "0101961", "time": ["08:30-18:30"], "star": 3.98, "review": 13}, {"name": "美絆ラーメン", "address": "大分県佐伯市稲垣436-1", "lat": 32.96267848, "lon": 131.86175017, "category": "飲食店", "category_id": "0102732", "time": ["11:00-20:00"], "star": 3.65, "review": 20}, {"name": "鳴門うどん 佐伯店", "address": "大分県佐伯市鶴岡西町2-194", "lat": 32.9610768, "lon": 131.86519857, "category": "うどん店", "category_id": "0100033", "time": ["11:00-22:00"], "star": 4.01, "review": 67}, {"name": "ガスト 佐伯店", "address": "大分県佐伯市鶴岡西町2丁目184 ", "lat": 32.96101, "lon": 131.8655, "category": "ファミリーレストラン", "category_id": "0100788", "time": ["10:00-22:30"], "star": 4.0, "review": 42}, {"name": "レストラン ロワーズ 佐伯", "address": "大分県佐伯市稲垣444-1", "lat": 32.96245406, "lon": 131.86166769, "category": "イタリア料理店", "category_id": "0100263", "time": ["11:00-22:00"], "star": 3.55, "review": 14}, {"name": "チャーリーブラウン", "address": "大分県佐伯市鶴岡西町2丁目281", "lat": 32.95993102, "lon": 131.86176446, "category": "ケーキ店", "category_id": "0100460", "time": ["11:00-20:00"], "star": 3.65, "review": 26}, {"name": "大分からあげ 佐伯コスモタウン店", "address": "大分県佐伯市鶴岡西町2-123 コスモタウンフリーモール佐伯", "lat": 32.95969978, "lon": 131.86754232, "category": "からあげ店", "category_id": "0100067", "time": ["10:00-20:00"], "star": 4.25, "review": 19}, {"name": "カレーハウス CoCo壱番屋 コスモタウン佐伯店", "address": "大分県佐伯市鶴岡西町2-196", "lat": 32.9610598, "lon": 131.8650152, "category": "カレー店", "category_id": "0100359", "time": ["11:00-21:30"], "star": 3.84, "review": 22}, {"name": "スシロー コスモタウン佐伯店", "address": "大分県佐伯市鶴岡西町2-193", "lat": 32.9611071, "lon": 131.8645903, "category": "回転寿司店", "category_id": "0101332", "time": ["11:00-23:00"], "star": 4.08, "review": 60}, {"name": "マクドナルド 佐伯店", "address": "大分県佐伯市鶴岡西町1-211", "lat": 32.961471, "lon": 131.8678928, "category": "ハンバーガー店", "category_id": "0100722", "time": ["07:00-24:00"], "star": 3.95, "review": 48}, {"name": "アクロスプラザ コスモタウンフリーモール佐伯", "address": "大分県佐伯市鶴岡西町2丁目123番地他", "lat": 32.9609071, "lon": 131.8674151, "category": "ショッピングセンター・モール", "category_id": "0200537", "time": [], "star": 4.0, "review": 11}, {"name": "しんきや焼肉店", "address": "大分県佐伯市上岡1528-5", "lat": 32.9557442, "lon": 131.8634555, "category": "肉料理店", "category_id": "0100212", "time": [], "star": 0.0, "review": 0}], "カフェ": [{"name": "チャーリーブラウン", "address": "大分県佐伯市鶴岡西町2丁目281", "lat": 32.95993102, "lon": 131.86176446, "category": "ケーキ店", "category_id": "0100460", "time": ["11:00-20:00"], "star": 3.65, "review": 26}, {"name": "サーティワンアイスクリーム 佐伯店", "address": "大分県佐伯市鶴岡西町２丁目１５３サンリブ佐伯店内", "lat": 32.96049, "lon": 131.8672, "category": "アイスクリーム店", "category_id": "0100226", "time": ["11:00-21:00"], "star": 4.14, "review": 12}, {"name": "パサールさいき", "address": "大分県佐伯市鶴岡西町2丁目134", "lat": 32.96088022, "lon": 131.8682411, "category": "アジア雑貨店", "category_id": "0200238", "time": [], "star": 4.5, "review": 3}, {"name": "マクドナルド 佐伯店", "address": "大分県佐伯市鶴岡西町1-211", "lat": 32.961471, "lon": 131.8678928, "category": "ハンバーガー店", "category_id": "0100722", "time": ["07:00-24:00"], "star": 3.95, "review": 48}], "ドラッグストア": [{"name": "ドラッグストアモリ 鶴岡店", "address": "大分県佐伯市鶴岡西町1-214", "lat": 32.9615654, "lon": 131.8663679, "category": "ドラッグストア", "category_id": "0200699", "time": ["09:00-24:00"], "star": 4.05, "review": 21}, {"name": "ドラッグストアコスモス 脇津留店", "address": "大分県佐伯市鶴岡西町２丁目３２５ ", "lat": 32.96136254, "lon": 131.86265987, "category": "ドラッグストア", "category_id": "0200699", "time": ["10:00-21:00"], "star": 4.11, "review": 45}, {"name": "上岡調剤薬局", "address": "大分県佐伯市大字上岡1258-4", "lat": 32.95652867, "lon": 131.86415079, "category": "調剤薬局", "category_id": "0202315", "time": ["09:00-19:00"], "star": 0.0, "review": 0}, {"name": "クレイン調剤薬局", "address": "大分県佐伯市鶴岡西町2丁目267", "lat": 32.9590123, "lon": 131.86480397, "category": "調剤薬局", "category_id": "0202315", "time": ["08:30-17:30"], "star": 3.0, "review": 1}, {"name": "ゆう調剤薬局佐伯コスモ店", "address": "大分県佐伯市鶴岡西町2丁目216", "lat": 32.96003523, "lon": 131.86457366, "category": "調剤薬局", "category_id": "0202315", "time": ["08:30-18:00"], "star": 0.0, "review": 0}, {"name": "アクロスプラザ コスモタウンフリーモール佐伯", "address": "大分県佐伯市鶴岡西町2丁目123番地他", "lat": 32.9609071, "lon": 131.8674151, "category": "ショッピングセンター・モール", "category_id": "0200537", "time": [], "star": 4.0, "review": 11}], "ATM": [{"name": "大分銀行 ATM 西田病院出張所", "address": "大分県佐伯市鶴岡西町2-266", "lat": 32.9587688, "lon": 131.863884, "category": "ATM", "category_id": "0402785", "time": [], "star": 0.0, "review": 0}, {"name": "大分銀行 ATM フリーモールサンリブ佐伯出張所", "address": "大分県佐伯市脇津留コスモタウンC-4", "lat": 32.9604723, "lon": 131.867429, "category": "ATM", "category_id": "0402785", "time": [], "star": 0.0, "review": 0}, {"name": "セブン銀行 サンリブさいき", "address": "大分県佐伯市鶴岡西町2-153", "lat": 32.9604341, "lon": 131.867398, "category": "ATM", "category_id": "0402785", "time": ["09:00-21:00"], "star": 0.0, "review": 0}, {"name": "ゆうちょ銀行 佐伯上岡簡易郵便局", "address": "大分県佐伯市稲垣449", "lat": 32.9619932, "lon": 131.86236, "category": "銀行", "category_id": "0402596", "time": [], "star": 0.0, "review": 0}, {"name": "ローソン銀行 佐伯稲垣共同出張所", "address": "大分県佐伯市稲垣242-1", "lat": 32.9617211, "lon": 131.859194, "category": "ATM", "category_id": "0402785", "time": ["00:00-24:00"], "star": 0.0, "review": 0}, {"name": "ローソン銀行 佐伯コスモタウン共同出張所", "address": "大分県佐伯市鶴岡西町1-196", "lat": 32.9619741, "lon": 131.867716, "category": "ATM", "category_id": "0402785", "time": ["00:00-24:00"], "star": 0.0, "review": 0}, {"name": "宝くじ ATM 大分銀行フリーモールサンリブ佐伯出張所", "address": "大分県佐伯市脇津留コスモタウンC-4", "lat": 32.9604598, "lon": 131.867441, "category": "宝くじ売り場", "category_id": "0401442", "time": ["09:00-20:00"], "star": 0.0, "review": 0}], "スーパーマーケット": [{"name": "マルショク サンリブさいき", "address": "大分県佐伯市鶴岡西町2-153", "lat": 32.9604711, "lon": 131.867429, "category": "スーパー", "category_id": "0200612", "time": ["09:00-21:00"], "star": 4.23, "review": 59}, {"name": "コスモタウンフリーモール佐伯施設管理事務所", "address": "大分県佐伯市鶴岡西町2丁目123", "lat": 32.95962118, "lon": 131.86758482, "category": "スーパー", "category_id": "0200612", "time": [], "star": 0.0, "review": 0}, {"name": "アクロスプラザ コスモタウンフリーモール佐伯", "address": "大分県佐伯市鶴岡西町2丁目123番地他", "lat": 32.9609071, "lon": 131.8674151, "category": "ショッピングセンター・モール", "category_id": "0200537", "time": [], "star": 4.0, "review": 11}, {"name": "ドラッグストアコスモス 脇津留店", "address": "大分県佐伯市鶴岡西町２丁目３２５ ", "lat": 32.96136254, "lon": 131.86265987, "category": "ドラッグストア", "category_id": "0200699", "time": ["10:00-21:00"], "star": 4.11, "review": 45}]}, "top_restaurant": {"name": "パサールさいき", "category": "アジア雑貨店", "star": 4.5, "review": 3}}, {"name": "上臼杵", "name_en": "Kami-Usuki", "lat": 33.1125465, "lon": 131.7929256, "osm_id": 7089994866, "operator": "九州旅客鉄道", "railway": "station", "wikidata": "Q6357203", "wikipedia_tag": "ja:上臼杵駅", "lines": [], "pref": "大分県", "wikipedia_text": "上臼杵駅（かみうすきえき）は、大分県臼杵市大字福良にある、九州旅客鉄道（JR九州）日豊本線の駅である。", "wikipedia_image": "https://upload.wikimedia.org/wikipedia/commons/7/7f/Kami-Usuki_Station_Building_20260321.jpg", "nearest_convenience": {"name": "セブン-イレブン", "lat": 33.112554, "lon": 131.7833407, "address": "大分県臼杵市大字市浜13672", "distance_m": 893, "brand": "7-ELEVEN"}, "nearest_restaurant": {"name": "suzunari coffee", "lat": 33.1099159, "lon": 131.776492, "address": "", "distance_m": 1558, "cuisine": ""}, "nearby_pois": {"コンビニ": [{"name": "セブンイレブン 臼杵福良", "address": "大分県臼杵市大字福良字稗尻1899-1", "lat": 33.1132815, "lon": 131.7897032, "category": "コンビニ", "category_id": "0200487", "time": ["00:00-24:00"], "star": 4.05, "review": 16}, {"name": "セブンイレブン 臼杵市浜", "address": "大分県臼杵市市浜1367-2", "lat": 33.112623, "lon": 131.7835843, "category": "コンビニ", "category_id": "0200487", "time": ["00:00-24:00"], "star": 4.5, "review": 0}, {"name": "ローソン 臼杵インター", "address": "大分県臼杵市大字野田字竹ノ下330-2", "lat": 33.1112988, "lon": 131.782589, "category": "コンビニ", "category_id": "0200487", "time": ["00:00-24:00"], "star": 0.0, "review": 0}, {"name": "YAMATO", "address": "大分県臼杵市大字市浜大坪1388", "lat": 33.1143894, "lon": 131.7832982, "category": "食料品店", "category_id": "0200122", "time": ["09:00-18:00"], "star": 4.0, "review": 10}], "ラーメン": [{"name": "ラーメン和 臼杵店", "address": "大分県臼杵市大字市浜1184-11", "lat": 33.1121398, "lon": 131.7849453, "category": "ラーメン店", "category_id": "0100097", "time": ["11:00-15:30", "17:30-22:00"], "star": 3.93, "review": 19}, {"name": "松葉", "address": "大分県臼杵市大字臼杵掛町5", "lat": 33.12057206, "lon": 131.79658135, "category": "ラーメン店", "category_id": "0100097", "time": [], "star": 0.0, "review": 1}, {"name": "白楽天", "address": "大分県臼杵市臼杵474", "lat": 33.119817942411, "lon": 131.79743032853, "category": "飲食店", "category_id": "0102732", "time": ["11:30-13:30", "18:00-24:00"], "star": 4.33, "review": 7}], "飲食店": [{"name": "ROUTE 502 COFFEE", "address": "大分県臼杵市市浜1129-3", "lat": 33.112895712388, "lon": 131.7873443408, "category": "カフェ・喫茶", "category_id": "0100344", "time": [], "star": 4.25, "review": 2}, {"name": "たけした", "address": "大分県臼杵市福良1871", "lat": 33.114391887806, "lon": 131.79126167405, "category": "和食店", "category_id": "0100126", "time": [], "star": 2.5, "review": 1}, {"name": "農民カフェ 大分臼杵店", "address": "大分県臼杵市臼杵241-1", "lat": 33.119301443677, "lon": 131.79747754913, "category": "カフェ・喫茶", "category_id": "0100344", "time": [], "star": 3.65, "review": 4}, {"name": "吉兆", "address": "大分県臼杵市臼杵横町3", "lat": 33.119678327142, "lon": 131.79730352433, "category": "焼き鳥店", "category_id": "0101960", "time": [], "star": 3.18, "review": 5}, {"name": "京屋", "address": "大分県臼杵市大字臼杵545", "lat": 33.120564390386, "lon": 131.797640512, "category": "和食店", "category_id": "0100126", "time": [], "star": 3.5, "review": 2}, {"name": "カフェ デリカッテ", "address": "大分県臼杵市二王座切通131", "lat": 33.1179658215, "lon": 131.79727282391, "category": "カフェ・喫茶", "category_id": "0100344", "time": ["11:00-15:00"], "star": 4.18, "review": 10}, {"name": "こごろう倶楽部", "address": "大分県臼杵市福良平清水9", "lat": 33.11558972, "lon": 131.79383646, "category": "定食屋", "category_id": "0101441", "time": ["11:30-14:00", "17:00-22:00"], "star": 3.65, "review": 9}, {"name": "カフェかぎや", "address": "大分県臼杵市大字臼杵218", "lat": 33.11945328373166, "lon": 131.79846094092716, "category": "カフェ・喫茶", "category_id": "0100344", "time": ["09:00-17:00"], "star": 4.26, "review": 38}, {"name": "白楽天", "address": "大分県臼杵市臼杵474", "lat": 33.119817942411, "lon": 131.79743032853, "category": "飲食店", "category_id": "0102732", "time": ["11:30-13:30", "18:00-24:00"], "star": 4.33, "review": 7}, {"name": "甘味茶屋まるや", "address": "大分県臼杵市大字臼杵畳屋町6", "lat": 33.119346618652344, "lon": 131.7969970703125, "category": "甘味処", "category_id": "0102834", "time": [], "star": 4.56, "review": 6}, {"name": "オステリアまさき", "address": "大分県臼杵市臼杵601", "lat": 33.120298877805, "lon": 131.7978801541, "category": "イタリア料理店", "category_id": "0100263", "time": ["17:30-22:00"], "star": 4.43, "review": 8}, {"name": "星月庵", "address": "大分県臼杵市二王座切通132-2", "lat": 33.1175155, "lon": 131.79777359, "category": "精進料理店", "category_id": "0102816", "time": ["10:00-16:00"], "star": 4.38, "review": 10}, {"name": "福わ内", "address": "大分県臼杵市福良平清水7", "lat": 33.114942557807, "lon": 131.79318392405, "category": "ふぐ料理店", "category_id": "0100183", "time": ["09:00-22:00"], "star": 3.75, "review": 8}, {"name": "ポルト蔵", "address": "大分県臼杵市臼杵206-2", "lat": 33.11945283, "lon": 131.79916567, "category": "カフェ・喫茶", "category_id": "0100344", "time": [], "star": 3.9, "review": 10}, {"name": "LIEFDE CAFE", "address": "大分県臼杵市臼杵210-3 サーラデうすき", "lat": 33.11917731, "lon": 131.79905207, "category": "カフェ・喫茶", "category_id": "0100344", "time": [], "star": 3.85, "review": 10}, {"name": "うおんたな", "address": "大分県臼杵市臼杵畳屋町2", "lat": 33.118624327805, "lon": 131.79572168409, "category": "和食店", "category_id": "0100126", "time": ["17:00-22:00"], "star": 3.5, "review": 7}, {"name": "株式会社 舞鶴酒販 酒のチャップリン臼杵店", "address": "大分県臼杵市大字市浜1107-1", "lat": 33.11378408, "lon": 131.7865785, "category": "酒店", "category_id": "0202522", "time": ["10:00-19:00"], "star": 4.83, "review": 10}, {"name": "スズムギmarket", "address": "大分県臼杵市本町210-3", "lat": 33.1192727, "lon": 131.7989933, "category": "カフェ・喫茶", "category_id": "0100344", "time": [], "star": 4.08, "review": 4}, {"name": "鳥料理ゆふ", "address": "大分県臼杵市唐人町5", "lat": 33.120524977805, "lon": 131.7977792041, "category": "鶏料理店", "category_id": "0101961", "time": ["11:30-14:00", "17:00-21:00"], "star": 4.24, "review": 43}, {"name": "シャローム", "address": "大分県臼杵市臼杵本町4", "lat": 33.119834177805, "lon": 131.7982088041, "category": "カフェ・喫茶", "category_id": "0100344", "time": ["09:00-19:00"], "star": 4.0, "review": 5}], "カフェ": [{"name": "ROUTE 502 COFFEE", "address": "大分県臼杵市市浜1129-3", "lat": 33.112895712388, "lon": 131.7873443408, "category": "カフェ・喫茶", "category_id": "0100344", "time": [], "star": 4.25, "review": 2}, {"name": "農民カフェ 大分臼杵店", "address": "大分県臼杵市臼杵241-1", "lat": 33.119301443677, "lon": 131.79747754913, "category": "カフェ・喫茶", "category_id": "0100344", "time": [], "star": 3.65, "review": 4}, {"name": "カフェ デリカッテ", "address": "大分県臼杵市二王座切通131", "lat": 33.1179658215, "lon": 131.79727282391, "category": "カフェ・喫茶", "category_id": "0100344", "time": ["11:00-15:00"], "star": 4.18, "review": 10}, {"name": "カフェかぎや", "address": "大分県臼杵市大字臼杵218", "lat": 33.11945328373166, "lon": 131.79846094092716, "category": "カフェ・喫茶", "category_id": "0100344", "time": ["09:00-17:00"], "star": 4.26, "review": 38}, {"name": "LIEFDE CAFE", "address": "大分県臼杵市臼杵210-3 サーラデうすき", "lat": 33.11917731, "lon": 131.79905207, "category": "カフェ・喫茶", "category_id": "0100344", "time": [], "star": 3.85, "review": 10}, {"name": "ポルト蔵", "address": "大分県臼杵市臼杵206-2", "lat": 33.11945283, "lon": 131.79916567, "category": "カフェ・喫茶", "category_id": "0100344", "time": [], "star": 3.9, "review": 10}, {"name": "スズムギmarket", "address": "大分県臼杵市本町210-3", "lat": 33.1192727, "lon": 131.7989933, "category": "カフェ・喫茶", "category_id": "0100344", "time": [], "star": 4.08, "review": 4}, {"name": "シャローム", "address": "大分県臼杵市臼杵本町4", "lat": 33.119834177805, "lon": 131.7982088041, "category": "カフェ・喫茶", "category_id": "0100344", "time": ["09:00-19:00"], "star": 4.0, "review": 5}, {"name": "甘味茶屋まるや", "address": "大分県臼杵市大字臼杵畳屋町6", "lat": 33.119346618652344, "lon": 131.7969970703125, "category": "甘味処", "category_id": "0102834", "time": [], "star": 4.56, "review": 6}, {"name": "星月庵", "address": "大分県臼杵市二王座切通132-2", "lat": 33.1175155, "lon": 131.79777359, "category": "精進料理店", "category_id": "0102816", "time": ["10:00-16:00"], "star": 4.38, "review": 10}, {"name": "長屋門", "address": "大分県臼杵市大字二王座212-5", "lat": 33.117389678955, "lon": 131.79942321777, "category": "カフェ・喫茶", "category_id": "0100344", "time": [], "star": 0.0, "review": 0}, {"name": "石窯パン工房 パンロード", "address": "大分県臼杵市市浜1070-1", "lat": 33.11454542, "lon": 131.78778866, "category": "ベーカリー", "category_id": "0100522", "time": ["07:00-19:00"], "star": 4.19, "review": 89}, {"name": "ジャスマン", "address": "大分県臼杵市臼杵掛町400", "lat": 33.1202394, "lon": 131.7963008, "category": "カフェ・喫茶", "category_id": "0100344", "time": [], "star": 0.0, "review": 0}, {"name": "メルヘン", "address": "大分県臼杵市臼杵新町", "lat": 33.1203394, "lon": 131.798034, "category": "カフェ・喫茶", "category_id": "0100344", "time": [], "star": 0.0, "review": 0}, {"name": "カフェ鑰屋", "address": "大分県臼杵市大字臼杵220", "lat": 33.11943669, "lon": 131.79843851, "category": "", "category_id": "", "time": [], "star": 0.0, "review": 0}], "ドラッグストア": [{"name": "ドラッグストアコスモス 臼杵店", "address": "大分県臼杵市市浜１３７１ ", "lat": 33.11339235, "lon": 131.78359267, "category": "ドラッグストア", "category_id": "0200699", "time": ["10:00-21:00"], "star": 4.39, "review": 13}, {"name": "コスモス薬品 臼杵店", "address": "大分県臼杵市市浜1199-3", "lat": 33.1125842, "lon": 131.7846592, "category": "ドラッグストア", "category_id": "0200699", "time": [], "star": 0.0, "review": 0}, {"name": "市浜薬局", "address": "大分県臼杵市大字市浜866", "lat": 33.1174593, "lon": 131.79269809, "category": "調剤薬局", "category_id": "0202315", "time": [], "star": 0.0, "review": 0}, {"name": "(有)新星薬局", "address": "大分県臼杵市大字臼杵田町8", "lat": 33.118093, "lon": 131.7965842, "category": "調剤薬局", "category_id": "0202315", "time": [], "star": 0.0, "review": 0}, {"name": "かめや薬局", "address": "大分県臼杵市大字臼杵378", "lat": 33.11957547, "lon": 131.79645562, "category": "調剤薬局", "category_id": "0202315", "time": [], "star": 0.0, "review": 0}, {"name": "金子薬店", "address": "大分県臼杵市大字福良45-3", "lat": 33.11644129, "lon": 131.79391616, "category": "薬店", "category_id": "0202316", "time": [], "star": 0.0, "review": 0}, {"name": "峯薬局", "address": "大分県臼杵市大字市浜1148-6", "lat": 33.11255732, "lon": 131.78698208, "category": "調剤薬局", "category_id": "0202315", "time": [], "star": 0.0, "review": 0}, {"name": "なの花薬局 永冨調剤薬局市浜店", "address": "大分県臼杵市市浜670-1", "lat": 33.12101955, "lon": 131.79243318, "category": "調剤薬局", "category_id": "0202315", "time": ["08:30-18:00"], "star": 0.0, "review": 0}, {"name": "かんだ薬局田町店", "address": "大分県臼杵市大字臼杵308", "lat": 33.11818202, "lon": 131.79637315, "category": "調剤薬局", "category_id": "0202315", "time": [], "star": 0.0, "review": 0}, {"name": "漢方のかじけん", "address": "大分県臼杵市大字野田334", "lat": 33.11163330078125, "lon": 131.78343200683594, "category": "漢方", "category_id": "0201946", "time": [], "star": 4.33, "review": 0}, {"name": "森町薬局臼杵店", "address": "大分県臼杵市大字海添42-5", "lat": 33.11611088, "lon": 131.80277904, "category": "調剤薬局", "category_id": "0202315", "time": [], "star": 0.0, "review": 0}], "ATM": [{"name": "ゆうちょ銀行 ATM 臼杵平清水郵便局", "address": "大分県臼杵市福良1869-3", "lat": 33.1140956, "lon": 131.791381, "category": "ATM", "category_id": "0402785", "time": [], "star": 0.0, "review": 0}, {"name": "伊予銀行 ATM 臼杵支店", "address": "大分県臼杵市大字臼杵字畳屋町350-3", "lat": 33.1188565, "lon": 131.795661, "category": "ATM", "category_id": "0402785", "time": [], "star": 0.0, "review": 0}, {"name": "セブン銀行 臼杵福良店", "address": "大分県臼杵市大字福良字稗尻1899-1", "lat": 33.1132632, "lon": 131.78968, "category": "ATM", "category_id": "0402785", "time": ["00:00-24:00"], "star": 0.0, "review": 0}, {"name": "伊予銀行 臼杵支店", "address": "大分県臼杵市大字臼杵字畳屋町350-3", "lat": 33.11888662, "lon": 131.79566654, "category": "銀行", "category_id": "0402596", "time": ["09:00-15:00"], "star": 0.0, "review": 0}, {"name": "ゆうちょ銀行 臼杵平清水郵便局", "address": "大分県臼杵市福良1869-3", "lat": 33.1140956, "lon": 131.791381, "category": "銀行", "category_id": "0402596", "time": [], "star": 0.0, "review": 0}, {"name": "イオン銀行 ATM マックスバリュくらし館市浜店出張所(催事場前サッカー台並び)", "address": "大分県臼杵市市浜京泊708-1", "lat": 33.1214273, "lon": 131.793424, "category": "ATM", "category_id": "0402785", "time": ["00:00-24:00"], "star": 0.0, "review": 0}, {"name": "みずほ銀行 ATM マックスバリュくらし館市浜店出張所", "address": "大分県臼杵市市浜京泊708-1", "lat": 33.1214453, "lon": 131.793448, "category": "ATM", "category_id": "0402785", "time": [], "star": 0.0, "review": 0}, {"name": "セブン銀行 臼杵市浜店", "address": "大分県臼杵市市浜1367-2", "lat": 33.1126264, "lon": 131.783552, "category": "ATM", "category_id": "0402785", "time": ["00:00-24:00"], "star": 0.0, "review": 0}, {"name": "ローソン銀行 臼杵インター共同出張所", "address": "大分県臼杵市大字野田字竹ノ下330-2", "lat": 33.1113259, "lon": 131.782636, "category": "ATM", "category_id": "0402785", "time": ["00:00-24:00"], "star": 0.0, "review": 0}], "スーパーマーケット": [{"name": "業務スーパー 臼杵市浜店", "address": "大分県臼杵市市浜1107-1", "lat": 33.1137313, "lon": 131.7868174, "category": "スーパー", "category_id": "0200612", "time": ["09:00-20:00"], "star": 3.91, "review": 69}, {"name": "マックスバリュ 市浜店", "address": "大分県臼杵市市浜京泊708-1", "lat": 33.1214584, "lon": 131.7935806, "category": "スーパー", "category_id": "0200612", "time": ["00:00-24:00"], "star": 3.69, "review": 37}, {"name": "YAMATO", "address": "大分県臼杵市大字市浜大坪1388", "lat": 33.1143894, "lon": 131.7832982, "category": "食料品店", "category_id": "0200122", "time": ["09:00-18:00"], "star": 4.0, "review": 10}, {"name": "ダイソー 大分臼杵店", "address": "大分県臼杵市大字市浜字ホリタ１０６３番地 ", "lat": 33.11389246, "lon": 131.78793116, "category": "100円ショップ", "category_id": "0200001", "time": ["09:30-20:00"], "star": 4.4, "review": 13}]}, "top_restaurant": {"name": "株式会社 舞鶴酒販 酒のチャップリン臼杵店", "category": "酒店", "star": 4.83, "review": 10}}, {"name": "下ノ江", "name_en": "", "lat": 33.1584879, "lon": 131.8111324, "osm_id": 13196884407, "operator": "九州旅客鉄道", "railway": "station", "wikidata": "Q5359068", "wikipedia_tag": "", "lines": [], "pref": "大分県", "wikipedia_text": "下ノ江駅（したのええき）は、大分県臼杵市大字田井にある、九州旅客鉄道（JR九州）日豊本線の駅である。", "wikipedia_image": "https://upload.wikimedia.org/wikipedia/commons/3/3a/Sitanoe20080831.JPG", "nearest_convenience": {"name": "ファミリーマート熊崎店", "lat": 33.1363006, "lon": 131.7883803, "address": "", "distance_m": 3252, "brand": ""}, "nearby_pois": {"飲食店": [{"name": "ブルーベリーファームうすき", "address": "大分県臼杵市下ノ江 453-1", "lat": 33.1578006699, "lon": 131.8156251827, "category": "飲食店", "category_id": "0102732", "time": [], "star": 0.0, "review": 0}, {"name": "and cafe アンドカフェ", "address": "大分県臼杵市下ノ江453-1", "lat": 33.15796760081861, "lon": 131.8158990425965, "category": "カフェ・喫茶", "category_id": "0100344", "time": ["14:00-16:00"], "star": 0.0, "review": 0}], "カフェ": [{"name": "and cafe アンドカフェ", "address": "大分県臼杵市下ノ江453-1", "lat": 33.15796760081861, "lon": 131.8158990425965, "category": "カフェ・喫茶", "category_id": "0100344", "time": ["14:00-16:00"], "star": 0.0, "review": 0}], "ATM": [{"name": "ゆうちょ銀行 ATM 下ノ江郵便局", "address": "大分県臼杵市田井921-18", "lat": 33.1565946, "lon": 131.817515, "category": "ATM", "category_id": "0402785", "time": [], "star": 0.0, "review": 0}, {"name": "ゆうちょ銀行 下ノ江郵便局", "address": "大分県臼杵市田井921-18", "lat": 33.1565946, "lon": 131.817515, "category": "銀行", "category_id": "0402596", "time": [], "star": 0.0, "review": 0}]}}, {"name": "中判田", "name_en": "Nakahanda", "lat": 33.1641047, "lon": 131.6388139, "osm_id": 8140164740, "operator": "九州旅客鉄道", "railway": "station", "wikidata": "Q6960160", "wikipedia_tag": "ja:中判田駅", "lines": [], "pref": "大分県", "wikipedia_text": "中判田駅（なかはんだえき）は、大分県大分市大字中判田にある、九州旅客鉄道（JR九州）豊肥本線の駅である。", "wikipedia_image": "https://upload.wikimedia.org/wikipedia/commons/9/91/Nakahanda_Station.JPG", "nearest_convenience": {"name": "セブン-イレブン", "lat": 33.1735981, "lon": 131.6241826, "address": "", "distance_m": 1723, "brand": "セブン-イレブン"}, "nearest_restaurant": {"name": "おだまき", "lat": 33.1740021, "lon": 131.6238216, "address": "", "distance_m": 1777, "cuisine": "japanese"}, "nearby_pois": {"コンビニ": [{"name": "ファミリーマート 白滝橋店", "address": "大分県大分市下判田2079-6", "lat": 33.163094, "lon": 131.6470482, "category": "コンビニ", "category_id": "0200487", "time": ["00:00-24:00"], "star": 4.8, "review": 2}, {"name": "セブンイレブン 大分下判田", "address": "大分県大分市大字下判田字横縄手102-1", "lat": 33.1693764, "lon": 131.6388876, "category": "コンビニ", "category_id": "0200487", "time": ["00:00-24:00"], "star": 0.0, "review": 0}, {"name": "セブン-イレブン 大分下判田", "address": "大分県大分市大字下判田字横縄手102番1", "lat": 33.16297603127, "lon": 131.64331515, "category": "", "category_id": "", "time": [], "star": 0.0, "review": 0}], "ラーメン": [{"name": "桝元 大分判田店", "address": "大分県大分市大字下判田字用作2249-1", "lat": 33.1635876, "lon": 131.645109, "category": "ラーメン店", "category_id": "0100097", "time": ["11:00-22:00"], "star": 2.75, "review": 6}, {"name": "まるきつけ麺", "address": "大分県大分市下判田2255-11", "lat": 33.16287395, "lon": 131.64551359, "category": "つけ麺店", "category_id": "0102844", "time": ["11:00-22:00"], "star": 3.76, "review": 16}, {"name": "豊後みくにや判田店", "address": "大分県大分市下判田2255-11", "lat": 33.1628738, "lon": 131.6455171, "category": "ラーメン店", "category_id": "0100097", "time": [], "star": 2.0, "review": 1}], "飲食店": [{"name": "ティーハウス レポ", "address": "大分県大分市大字中判田1700-10", "lat": 33.165523787726, "lon": 131.63940242467, "category": "カフェ・喫茶", "category_id": "0100344", "time": ["11:30-16:30"], "star": 0.0, "review": 0}, {"name": "ともずし", "address": "大分県大分市中判田1713", "lat": 33.164691927726, "lon": 131.64010755466, "category": "寿司店", "category_id": "0100101", "time": ["11:00-21:00"], "star": 3.5, "review": 2}, {"name": "食彩なごみ", "address": "大分県大分市中判田1759", "lat": 33.1656484, "lon": 131.6380257, "category": "和食店", "category_id": "0100126", "time": [], "star": 4.0, "review": 0}, {"name": "ファインテニススクール", "address": "大分県大分市大字中判田1589-3", "lat": 33.16688014, "lon": 131.63665338, "category": "飲食店", "category_id": "0102732", "time": [], "star": 3.0, "review": 0}, {"name": "-bonne-", "address": "大分県大分市ひばりが丘2-1-8", "lat": 33.170251067723, "lon": 131.64008185472, "category": "カフェ・喫茶", "category_id": "0100344", "time": ["11:30-16:00"], "star": 4.1, "review": 16}, {"name": "La Chandeleur", "address": "大分県大分市判田台東2-7-1", "lat": 33.16163516, "lon": 131.63354564, "category": "クレープ店", "category_id": "0100451", "time": [], "star": 4.05, "review": 1}, {"name": "御料理 仕出し 一茶", "address": "大分県大分市判田台北4-1-3 判田台会館 2F", "lat": 33.166892970968, "lon": 131.63665691439, "category": "和食店", "category_id": "0100126", "time": [], "star": 0.0, "review": 0}, {"name": "まるきつけ麺", "address": "大分県大分市下判田2255-11", "lat": 33.16287395, "lon": 131.64551359, "category": "つけ麺店", "category_id": "0102844", "time": ["11:00-22:00"], "star": 3.76, "review": 16}, {"name": "桝元 大分判田店", "address": "大分県大分市大字下判田字用作2249-1", "lat": 33.1635876, "lon": 131.645109, "category": "ラーメン店", "category_id": "0100097", "time": ["11:00-22:00"], "star": 2.75, "review": 6}, {"name": "エンジェルバード 中判田店", "address": "大分県大分市中判田1715-6", "lat": 33.1645164, "lon": 131.6394924, "category": "からあげ店", "category_id": "0100067", "time": [], "star": 0.0, "review": 0}, {"name": "大興寺餃子", "address": "大分県大分市下判田1339", "lat": 33.16750082, "lon": 131.6469251, "category": "餃子店", "category_id": "0102733", "time": ["11:00-20:00"], "star": 3.42, "review": 7}, {"name": "食彩 なにわ家", "address": "大分県大分市判田台北1-2-1", "lat": 33.164503, "lon": 131.63397751, "category": "弁当屋", "category_id": "0101059", "time": ["12:00-14:00"], "star": 0.0, "review": 0}, {"name": "割ぽう富士", "address": "大分県大分市中判田1730-1", "lat": 33.164718, "lon": 131.6385757, "category": "会席・懐石料理店", "category_id": "0101064", "time": [], "star": 0.0, "review": 0}, {"name": "判田台会館", "address": "大分県大分市判田台北4丁目1-4", "lat": 33.1611351, "lon": 131.6293912, "category": "斎場", "category_id": "0401667", "time": ["00:00-24:00"], "star": 0.0, "review": 0}, {"name": "ピザーラスタイル 新鮮市場 判田店", "address": "大分県大分市字下判田字用作2267-1", "lat": 33.164036837729, "lon": 131.64579523465, "category": "ピザ店", "category_id": "0100780", "time": ["11:00-19:00"], "star": 3.0, "review": 1}, {"name": "本宮山食堂", "address": "大分県大分市中判田1173", "lat": 33.1624069, "lon": 131.6296515, "category": "", "category_id": "", "time": [], "star": 0.0, "review": 0}, {"name": "豊後みくにや判田店", "address": "大分県大分市下判田2255-11", "lat": 33.1628738, "lon": 131.6455171, "category": "ラーメン店", "category_id": "0100097", "time": [], "star": 2.0, "review": 1}], "カフェ": [{"name": "ティーハウス レポ", "address": "大分県大分市大字中判田1700-10", "lat": 33.165523787726, "lon": 131.63940242467, "category": "カフェ・喫茶", "category_id": "0100344", "time": ["11:30-16:30"], "star": 0.0, "review": 0}, {"name": "-bonne-", "address": "大分県大分市ひばりが丘2-1-8", "lat": 33.170251067723, "lon": 131.64008185472, "category": "カフェ・喫茶", "category_id": "0100344", "time": ["11:30-16:00"], "star": 4.1, "review": 16}, {"name": "La Chandeleur", "address": "大分県大分市判田台東2-7-1", "lat": 33.16163516, "lon": 131.63354564, "category": "クレープ店", "category_id": "0100451", "time": [], "star": 4.05, "review": 1}], "ドラッグストア": [{"name": "ドラッグストアモリ 中判田店", "address": "大分県大分市中判田1498-1", "lat": 33.1685181, "lon": 131.6365767, "category": "ドラッグストア", "category_id": "0200699", "time": ["09:00-24:00"], "star": 0.0, "review": 0}, {"name": "なの花薬局 永冨調剤薬局判田店", "address": "大分県大分市下判田2349-5", "lat": 33.16365849, "lon": 131.64307043, "category": "調剤薬局", "category_id": "0202315", "time": ["08:30-18:00"], "star": 0.0, "review": 0}, {"name": "太陽調剤薬局中判田店", "address": "大分県大分市大字中判田1434-2", "lat": 33.1675027, "lon": 131.63233256, "category": "調剤薬局", "category_id": "0202315", "time": [], "star": 0.0, "review": 0}, {"name": "有限会社さくら薬局", "address": "大分県大分市大字中判田1906", "lat": 33.16605373, "lon": 131.63456827, "category": "調剤薬局", "category_id": "0202315", "time": [], "star": 0.0, "review": 0}, {"name": "判田薬品", "address": "大分県大分市大字中判田1910-4", "lat": 33.16661395, "lon": 131.63415912, "category": "調剤薬局", "category_id": "0202315", "time": [], "star": 0.0, "review": 0}], "ATM": [{"name": "ゆうちょ銀行 ATM 判田郵便局", "address": "大分県大分市中判田1739-2", "lat": 33.1656936, "lon": 131.639065, "category": "ATM", "category_id": "0402785", "time": [], "star": 0.0, "review": 0}, {"name": "ゆうちょ銀行 判田郵便局", "address": "大分県大分市中判田1739-2", "lat": 33.1656936, "lon": 131.639065, "category": "銀行", "category_id": "0402596", "time": [], "star": 0.0, "review": 1}, {"name": "JAバンク ATM 大分県農業協同組合(JAおおいた)判田", "address": "大分県大分市中判田1737-6", "lat": 33.1653449, "lon": 131.639143, "category": "ATM", "category_id": "0402785", "time": [], "star": 0.0, "review": 0}, {"name": "大分銀行 ATM フレンドタウンはんだ出張所", "address": "大分県大分市下判田2253-1", "lat": 33.1633942, "lon": 131.645932, "category": "ATM", "category_id": "0402785", "time": [], "star": 0.0, "review": 0}, {"name": "銀行ATM イーネット ファミリーマート白滝橋 共同出張所", "address": "大分県大分市大字下判田2079-6 ", "lat": 33.163064, "lon": 131.647015, "category": "ATM", "category_id": "0402785", "time": ["00:00-24:00"], "star": 0.0, "review": 0}, {"name": "セブン銀行 大分下判田店", "address": "大分県大分市大字下判田字横縄手102-1", "lat": 33.169314, "lon": 131.638889, "category": "ATM", "category_id": "0402785", "time": ["00:00-24:00"], "star": 0.0, "review": 0}, {"name": "判田郵便局", "address": "大分県大分市中判田1739-2", "lat": 33.16569339, "lon": 131.6390655, "category": "郵便局", "category_id": "0400993", "time": ["09:00-17:00"], "star": 3.25, "review": 4}, {"name": "宝くじ ATM 大分銀行フレンドタウンはんだ出張所", "address": "大分県大分市下判田2253-1", "lat": 33.1634606, "lon": 131.645984, "category": "宝くじ売り場", "category_id": "0401442", "time": ["09:00-20:00"], "star": 0.0, "review": 0}], "スーパーマーケット": [{"name": "新鮮市場 判田店", "address": "大分県大分市大字下判田字用作2267-1", "lat": 33.1640633, "lon": 131.6459677, "category": "スーパー", "category_id": "0200612", "time": ["09:00-21:00"], "star": 4.01, "review": 54}, {"name": "ダイソー 新鮮市場判田店", "address": "大分県大分市下判田居村２２５３ ", "lat": 33.16616585, "lon": 131.64505941, "category": "100円ショップ", "category_id": "0200001", "time": ["09:00-20:00"], "star": 4.25, "review": 12}]}, "top_restaurant": {"name": "-bonne-", "category": "カフェ・喫茶", "star": 4.1, "review": 16}}, {"name": "中山香", "name_en": "Naka-Yamaga", "lat": 33.4487126, "lon": 131.5057555, "osm_id": 265840117, "operator": "九州旅客鉄道", "railway": "station", "wikidata": "Q5360294", "wikipedia_tag": "ja:中山香駅", "lines": ["JR日豊本線"], "pref": "大分県", "wikipedia_text": "中山香駅（なかやまがえき）は、大分県杵築市山香町大字野原字宮ノ原にある、九州旅客鉄道（JR九州）日豊本線の駅である。事務管コードは▲920517。", "wikipedia_image": "https://upload.wikimedia.org/wikipedia/commons/2/29/Naka-Yamaga_Station_20180331-1.jpg", "nearby_pois": {"コンビニ": [{"name": "ローソン 杵築山香", "address": "大分県杵築市山香町大字内河野字宇土2878-1", "lat": 33.4547151, "lon": 131.4998576, "category": "コンビニ", "category_id": "0200487", "time": ["00:00-24:00"], "star": 3.19, "review": 13}, {"name": "Aコープ やまが店", "address": "大分県杵築市山香町内河野2561-1", "lat": 33.4539208, "lon": 131.5003021, "category": "スーパー", "category_id": "0200612", "time": ["10:00-20:00"], "star": 4.24, "review": 23}, {"name": "神田楽市", "address": "大分県杵築市山香町大字内河野2543-1", "lat": 33.4526403, "lon": 131.4992967, "category": "スーパー", "category_id": "0200612", "time": [], "star": 3.88, "review": 15}], "飲食店": [{"name": "猪鹿トリ 山香店", "address": "大分県杵築市山香町内河野2723", "lat": 33.447654242016, "lon": 131.50442941355, "category": "鶏料理店", "category_id": "0101961", "time": ["15:00-20:00"], "star": 0.0, "review": 0}, {"name": "オルオル", "address": "大分県杵築市山香町大字野原1798", "lat": 33.45035196, "lon": 131.50484966, "category": "カフェ・喫茶", "category_id": "0100344", "time": ["10:00-18:30"], "star": 4.0, "review": 6}, {"name": "さつき", "address": "大分県杵築市山香町内河野2710-8", "lat": 33.44680846, "lon": 131.50513371, "category": "和食店", "category_id": "0100126", "time": ["10:00-19:00"], "star": 3.5, "review": 3}, {"name": "山香飯店", "address": "大分県杵築市山香町野原1778", "lat": 33.44841245, "lon": 131.50526724, "category": "中華料理店", "category_id": "0100990", "time": [], "star": 4.5, "review": 1}, {"name": "そんごくう", "address": "大分県杵築市山香町内河野2788-4", "lat": 33.45092607, "lon": 131.50428716, "category": "中華料理店", "category_id": "0100990", "time": ["12:00-14:00", "17:00-21:00"], "star": 3.99, "review": 9}, {"name": "肉まる", "address": "大分県杵築市山香町大字内河野2536-4", "lat": 33.451545097499, "lon": 131.49855741766, "category": "焼肉店", "category_id": "0101963", "time": ["11:00-14:00", "17:00-22:00"], "star": 3.52, "review": 10}, {"name": "だいこんの花", "address": "大分県杵築市山香町内河野2543-1", "lat": 33.452623887499, "lon": 131.49933051767, "category": "定食屋", "category_id": "0101441", "time": [], "star": 0.0, "review": 1}, {"name": "小天狗", "address": "大分県杵築市山香町大字内河野2715", "lat": 33.4480659, "lon": 131.5054765, "category": "お好み焼き店", "category_id": "0100046", "time": [], "star": 0.0, "review": 0}, {"name": "風流なぜいたく居酒屋", "address": "大分県杵築市山香町大字内河野2625-2", "lat": 33.4527414, "lon": 131.5000201, "category": "居酒屋", "category_id": "0101495", "time": [], "star": 0.0, "review": 0}, {"name": "まるいち", "address": "大分県杵築市山香町大字内河野2536-4", "lat": 33.45162042, "lon": 131.49859677, "category": "からあげ店", "category_id": "0100067", "time": ["10:00-13:00", "16:00-19:00"], "star": 3.4, "review": 1}, {"name": "神田楽市", "address": "大分県杵築市山香町大字内河野2543-1", "lat": 33.4526403, "lon": 131.4992967, "category": "スーパー", "category_id": "0200612", "time": [], "star": 3.88, "review": 15}, {"name": "ポット・イン", "address": "大分県杵築市山香町大字内河野2898-2", "lat": 33.455429, "lon": 131.499815, "category": "和食店", "category_id": "0100126", "time": [], "star": 0.0, "review": 0}], "カフェ": [{"name": "オルオル", "address": "大分県杵築市山香町大字野原1798", "lat": 33.45035196, "lon": 131.50484966, "category": "カフェ・喫茶", "category_id": "0100344", "time": ["10:00-18:30"], "star": 4.0, "review": 6}], "ドラッグストア": [{"name": "梅田薬局", "address": "大分県杵築市山香町大字野原1769-7", "lat": 33.44812083, "lon": 131.50579556, "category": "調剤薬局", "category_id": "0202315", "time": [], "star": 0.0, "review": 0}, {"name": "くすりの楽市", "address": "大分県杵築市山香町大字内河野2543", "lat": 33.4526097, "lon": 131.4993159, "category": "ドラッグストア", "category_id": "0200699", "time": [], "star": 0.0, "review": 0}, {"name": "ワタナベ薬局山香店", "address": "大分県杵築市山香町大字野原1643-2", "lat": 33.44554698, "lon": 131.50797166, "category": "調剤薬局", "category_id": "0202315", "time": [], "star": 0.0, "review": 1}, {"name": "山香町立病院前薬局", "address": "大分県杵築市山香町大字野原1641", "lat": 33.44562808, "lon": 131.50809387, "category": "調剤薬局", "category_id": "0202315", "time": [], "star": 0.0, "review": 0}], "ATM": [{"name": "大分銀行 山香支店", "address": "大分県杵築市山香町大字野原1759-1", "lat": 33.447739, "lon": 131.506746, "category": "銀行", "category_id": "0402596", "time": ["09:00-11:30", "12:30-15:00"], "star": 2.0, "review": 1}, {"name": "大分銀行 ATM 山香支店", "address": "大分県杵築市山香町大字野原1759-1", "lat": 33.4477918, "lon": 131.506746, "category": "ATM", "category_id": "0402785", "time": [], "star": 0.0, "review": 0}, {"name": "ゆうちょ銀行 ATM 山香郵便局", "address": "大分県杵築市山香町内河野2616-1", "lat": 33.4520771, "lon": 131.501444, "category": "ATM", "category_id": "0402785", "time": [], "star": 0.0, "review": 0}, {"name": "ゆうちょ銀行 山香郵便局", "address": "大分県杵築市山香町内河野2616-1", "lat": 33.4520771, "lon": 131.501444, "category": "銀行", "category_id": "0402596", "time": [], "star": 3.0, "review": 1}, {"name": "宝くじ ATM 大分銀行山香支店", "address": "大分県杵築市山香町大字野原1759-1", "lat": 33.4477963, "lon": 131.506738, "category": "宝くじ売り場", "category_id": "0401442", "time": ["08:45-18:00"], "star": 0.0, "review": 0}, {"name": "JAバンク 大分県農業協同組合(JAおおいた)山香支店", "address": "大分県杵築市山香町内河野2736-1", "lat": 33.4487098, "lon": 131.502292, "category": "銀行", "category_id": "0402596", "time": [], "star": 0.0, "review": 0}, {"name": "JAバンク ATM 大分県農業協同組合(JAおおいた)Aコープやまが", "address": "大分県杵築市山香町内河野2561-1 Aコープやまが", "lat": 33.453859, "lon": 131.500358, "category": "ATM", "category_id": "0402785", "time": [], "star": 0.0, "review": 0}, {"name": "ローソン銀行 杵築山香共同出張所", "address": "大分県杵築市山香町大字内河野字宇土2878-1", "lat": 33.4546803, "lon": 131.499854, "category": "ATM", "category_id": "0402785", "time": ["00:00-24:00"], "star": 0.0, "review": 0}], "銭湯 温泉": [{"name": "杵築市山香温泉センター", "address": "大分県杵築市山香町大字野原2028番地", "lat": 33.4490952, "lon": 131.50957951, "category": "日帰り入浴", "category_id": "0401679", "time": ["14:00-20:00"], "star": 3.0, "review": 1}], "スーパーマーケット": [{"name": "Aコープ やまが店", "address": "大分県杵築市山香町内河野2561-1", "lat": 33.4539208, "lon": 131.5003021, "category": "スーパー", "category_id": "0200612", "time": ["10:00-20:00"], "star": 4.24, "review": 23}, {"name": "神田楽市", "address": "大分県杵築市山香町大字内河野2543-1", "lat": 33.4526403, "lon": 131.4992967, "category": "スーパー", "category_id": "0200612", "time": [], "star": 3.88, "review": 15}]}, "top_restaurant": {"name": "山香飯店", "category": "中華料理店", "star": 4.5, "review": 1}}, {"name": "中津", "name_en": "Nakatsu", "lat": 33.5991951, "lon": 131.1908891, "osm_id": 265839715, "operator": "九州旅客鉄道", "railway": "station", "wikidata": "Q1205783", "wikipedia_tag": "ja:中津駅 (大分県)", "lines": ["JR日豊本線"], "pref": "大分県", "nearby_bus_stops": [{"name": "中津駅", "lat": 33.5986408, "lon": 131.1909758, "distance_m": 62, "operator": ""}], "wikipedia_text": "中津駅（なかつえき）\n\n中津駅 (阪急) - 大阪府大阪市北区にある阪急電鉄宝塚本線・神戸本線の駅。かつて隣接して設けられていた阪神電気鉄道北大阪線の停留場についても記述。\n中津駅 (Osaka Metro) - 大阪府大阪市北区にある大阪市高速電気軌道（Osaka Metro）御堂筋線の駅。\n上記2駅は離れた場所にある。\n中津駅 (大分県) - 大分県中津市にある九州旅客鉄道（JR九州）日豊本線の駅。\n中津駅 - 岐阜県中津川市にある東海旅客鉄道（JR東海）中央本線の中津川駅の旧称。", "nearest_convenience": {"name": "ファミリーマート", "lat": 33.5990746, "lon": 131.1907869, "address": "", "distance_m": 16, "brand": "FamilyMart"}, "nearest_restaurant": {"name": "ひのでグリル", "lat": 33.600042, "lon": 131.1886967, "address": "", "distance_m": 224, "cuisine": "grill;japanese"}, "nearby_pois": {"コンビニ": [{"name": "ファミリーマート JR中津駅店", "address": "大分県中津市島田219-2", "lat": 33.5991656, "lon": 131.1907547, "category": "コンビニ", "category_id": "0200487", "time": ["05:30-24:00"], "star": 3.85, "review": 26}, {"name": "ローソン 中津駅南口", "address": "大分県中津市豊田町8-3", "lat": 33.5981435, "lon": 131.189777, "category": "コンビニ", "category_id": "0200487", "time": ["00:00-24:00"], "star": 4.33, "review": 39}, {"name": "ファミリーマート 中津中殿店", "address": "大分県中津市中殿384-2", "lat": 33.5991907, "lon": 131.1952599, "category": "コンビニ", "category_id": "0200487", "time": ["00:00-24:00"], "star": 4.29, "review": 29}, {"name": "セブンイレブン 中津駅北", "address": "大分県中津市島田774-1", "lat": 33.6012459, "lon": 131.1877549, "category": "コンビニ", "category_id": "0200487", "time": ["06:00-24:00"], "star": 4.23, "review": 26}, {"name": "セブンイレブン 中津豊田町", "address": "大分県中津市大字島田字村田467-2", "lat": 33.5965185, "lon": 131.1863107, "category": "コンビニ", "category_id": "0200487", "time": ["00:00-24:00"], "star": 3.79, "review": 17}, {"name": "セブンイレブン 中津中殿町3丁目", "address": "大分県中津市中殿町3-21-1", "lat": 33.5966521, "lon": 131.1938156, "category": "コンビニ", "category_id": "0200487", "time": ["00:00-24:00"], "star": 3.92, "review": 11}, {"name": "ローソン 中津丸山町", "address": "大分県中津市丸山町90-1", "lat": 33.5980794, "lon": 131.1836581, "category": "コンビニ", "category_id": "0200487", "time": ["00:00-24:00"], "star": 4.28, "review": 9}, {"name": "ファミリーマート 中津牛神店", "address": "大分県中津市牛神町1-15-1", "lat": 33.5956662, "lon": 131.1977764, "category": "コンビニ", "category_id": "0200487", "time": ["00:00-24:00"], "star": 4.17, "review": 15}, {"name": "セブンイレブン 中津牛神町1丁目", "address": "大分県中津市牛神町1-16-18", "lat": 33.5945108, "lon": 131.1995291, "category": "コンビニ", "category_id": "0200487", "time": ["00:00-24:00"], "star": 4.25, "review": 14}, {"name": "グランプラザ中津ホテル", "address": "大分県中津市東本町1-2", "lat": 33.5978713, "lon": 131.1923102, "category": "ホテル", "category_id": "0300124", "time": [], "star": 3.79, "review": 28}, {"name": "中津サンライズホテル", "address": "大分県中津市豊田町1-11", "lat": 33.5971686, "lon": 131.1904187, "category": "ビジネスホテル", "category_id": "0300758", "time": [], "star": 3.52, "review": 36}, {"name": "ローソン 中津上宮永店", "address": "大分県中津市上宮永字前田1-3", "lat": 33.594076, "lon": 131.1893117, "category": "コンビニ", "category_id": "0200487", "time": [], "star": 2.0, "review": 0}, {"name": "東横INN大分中津駅前", "address": "大分県中津市豊田町10-11", "lat": 33.5992739, "lon": 131.1893187, "category": "ビジネスホテル", "category_id": "0300758", "time": ["00:00-24:00"], "star": 3.91, "review": 45}, {"name": "スーパーホテル 大分・中津駅前", "address": "大分県中津市東本町3-12", "lat": 33.5971325, "lon": 131.1909686, "category": "ビジネスホテル", "category_id": "0300758", "time": ["00:00-24:00"], "star": 3.76, "review": 30}, {"name": "ビジネスホテルナカツ", "address": "大分県中津市東本町3-19", "lat": 33.5970047, "lon": 131.1913686, "category": "ビジネスホテル", "category_id": "0300758", "time": ["00:00-24:00"], "star": 3.83, "review": 9}], "ラーメン": [{"name": "刻 toki", "address": "大分県中津市豊田町3-1-13", "lat": 33.596860060888, "lon": 131.19048187205, "category": "ラーメン店", "category_id": "0100097", "time": [], "star": 4.34, "review": 9}, {"name": "麺金星", "address": "大分県中津市宮島町39", "lat": 33.6019617, "lon": 131.1900505, "category": "ラーメン店", "category_id": "0100097", "time": [], "star": 0.0, "review": 0}, {"name": "宝来軒 本店", "address": "大分県中津市日ノ出町2", "lat": 33.60056346, "lon": 131.18820989, "category": "ラーメン店", "category_id": "0100097", "time": ["11:00-15:00"], "star": 3.88, "review": 86}, {"name": "ラーメン とん太 中津店", "address": "大分県中津市大字島田374-3", "lat": 33.6000071, "lon": 131.1885135, "category": "ラーメン店", "category_id": "0100097", "time": [], "star": 2.93, "review": 6}, {"name": "HAMELN", "address": "大分県中津市豊田町11-10 久保ビル 1F", "lat": 33.599477753943, "lon": 131.18802647833, "category": "バー", "category_id": "0100536", "time": [], "star": 3.6, "review": 1}, {"name": "長浜ラーメンとん平 中津店", "address": "大分県中津市大字島田217-3", "lat": 33.59999607, "lon": 131.19042694, "category": "飲食店", "category_id": "0102732", "time": ["11:00-14:00", "18:00-26:00"], "star": 4.4, "review": 3}, {"name": "京都しもがも担々麺 賢魂一滴", "address": "大分県中津市豊田町11-10 久保ビル 1F", "lat": 33.599393627306, "lon": 131.18798406937, "category": "担々麺店", "category_id": "0101631", "time": ["11:30-15:00"], "star": 3.45, "review": 13}, {"name": "じゃらじゃら堂", "address": "大分県中津市島田本町45", "lat": 33.6002896, "lon": 131.1897463, "category": "ラーメン店", "category_id": "0100097", "time": [], "star": 4.67, "review": 2}, {"name": "魚介豚骨らーめん 刻", "address": "大分県中津市島田617-1", "lat": 33.597683052716235, "lon": 131.1840917090628, "category": "ラーメン店", "category_id": "0100097", "time": ["11:00-14:30", "18:00-20:00"], "star": 4.1, "review": 20}, {"name": "みその屋 中津店", "address": "大分県中津市中央町1-35-8", "lat": 33.593947907312, "lon": 131.19450049931, "category": "ラーメン店", "category_id": "0100097", "time": ["11:00-22:00"], "star": 4.04, "review": 33}, {"name": "宝来軒 中央町店", "address": "大分県中津市中央町1-4-25", "lat": 33.59195814, "lon": 131.19466981, "category": "ラーメン店", "category_id": "0100097", "time": ["11:00-19:00"], "star": 4.07, "review": 58}, {"name": "博多金龍 中津店", "address": "大分県中津市沖代町1-281-1", "lat": 33.59268038, "lon": 131.19754735, "category": "ラーメン店", "category_id": "0100097", "time": ["11:00-25:30"], "star": 3.67, "review": 27}, {"name": "桝元 中津店", "address": "大分県中津市牛神1-1-9", "lat": 33.59643442, "lon": 131.19789391, "category": "ラーメン店", "category_id": "0100097", "time": ["11:00-24:00"], "star": 3.97, "review": 58}, {"name": "珍海楼", "address": "大分県中津市天神町835-4", "lat": 33.60269051, "lon": 131.18998803, "category": "中華料理店", "category_id": "0100990", "time": [], "star": 2.57, "review": 10}, {"name": "大金星", "address": "大分県中津市島田219-11 日ノ出町商店街", "lat": 33.59978803, "lon": 131.19021252, "category": "焼き鳥店", "category_id": "0101960", "time": ["18:00-24:00"], "star": 3.7, "review": 4}, {"name": "大阪王将 中津ゆめタウン店", "address": "大分県中津市島田134-1", "lat": 33.6026653, "lon": 131.194646, "category": "餃子店", "category_id": "0102733", "time": ["11:00-20:30"], "star": 3.5, "review": 34}, {"name": "リンガーハット 大分中津店", "address": "大分県中津市東本町5-12", "lat": 33.5955632, "lon": 131.1904437, "category": "ちゃんぽん店", "category_id": "0100146", "time": ["11:00-26:00"], "star": 3.84, "review": 62}, {"name": "鳥こまち 大分 中津店", "address": "大分県中津市豊田町13-6 サンビュー 1F", "lat": 33.599065, "lon": 131.188259, "category": "焼き鳥店", "category_id": "0101960", "time": ["17:35-22:30"], "star": 3.63, "review": 23}, {"name": "花福食広場 武庵花福", "address": "大分県中津市大字蛎瀬592-1", "lat": 33.60254044, "lon": 131.19845038, "category": "和食店", "category_id": "0100126", "time": ["11:30-14:00", "17:00-22:00"], "star": 3.89, "review": 13}, {"name": "悠", "address": "大分県中津市中殿町3", "lat": 33.598216879755, "lon": 131.19275512752, "category": "飲食店", "category_id": "0102732", "time": ["10:00-22:45"], "star": 0.0, "review": 0}], "飲食店": [{"name": "35", "address": "大分県中津市日の出町2", "lat": 33.599733863966, "lon": 131.18953245258, "category": "バー", "category_id": "0100536", "time": [], "star": 4.6, "review": 3}, {"name": "BistroVolaille", "address": "大分県中津市大字島田213 MKコスモ102", "lat": 33.600079627307, "lon": 131.19072942937, "category": "フランス料理店", "category_id": "0100264", "time": ["18:00-22:30"], "star": 3.88, "review": 16}, {"name": "MIDTOWN CAFE", "address": "大分県中津市日ノ出町374-3", "lat": 33.599979, "lon": 131.18851, "category": "カフェ・喫茶", "category_id": "0100344", "time": [], "star": 0.0, "review": 1}, {"name": "HAMELN", "address": "大分県中津市豊田町11-10 久保ビル 1F", "lat": 33.599477753943, "lon": 131.18802647833, "category": "バー", "category_id": "0100536", "time": [], "star": 3.6, "review": 1}, {"name": "和食処 あしだや", "address": "大分県中津市東本町3-20 2F", "lat": 33.597067436503, "lon": 131.19144156818, "category": "和食店", "category_id": "0100126", "time": ["18:00-23:00"], "star": 3.75, "review": 8}, {"name": "Bistro MONO", "address": "大分県中津市島田367-6 1F", "lat": 33.600242617306, "lon": 131.18858373938, "category": "ビストロ", "category_id": "0100760", "time": [], "star": 3.93, "review": 4}, {"name": "SYLVESTER", "address": "大分県中津市新天神町835-4", "lat": 33.602726, "lon": 131.190136, "category": "バー", "category_id": "0100536", "time": ["21:00-25:00"], "star": 0.0, "review": 0}, {"name": "餃子屋 東華炎", "address": "大分県中津市島田216-3 日の出町商店街", "lat": 33.600026477306, "lon": 131.18975433937, "category": "餃子店", "category_id": "0102733", "time": ["17:00-23:00"], "star": 3.03, "review": 4}, {"name": "もち商", "address": "大分県中津市豊田町8-9", "lat": 33.598118357308, "lon": 131.18932384936, "category": "焼き鳥店", "category_id": "0101960", "time": [], "star": 4.0, "review": 1}, {"name": "栄太郎食事処", "address": "大分県中津市中殿町3-24-13", "lat": 33.597018027309, "lon": 131.19229968934, "category": "和食店", "category_id": "0100126", "time": [], "star": 4.0, "review": 2}, {"name": "AN NHIEN", "address": "大分県中津市島田本町7番地 宮島館", "lat": 33.600664652718, "lon": 131.19004197514, "category": "ベトナム料理店", "category_id": "0100834", "time": [], "star": 3.25, "review": 1}, {"name": "かつまさ", "address": "大分県中津市島田本町358-13", "lat": 33.600743052119, "lon": 131.18881599216, "category": "居酒屋", "category_id": "0101495", "time": ["18:00-27:00"], "star": 0.0, "review": 0}, {"name": "焼肉・ホルモン ごんちゃん", "address": "大分県中津市島田760-2", "lat": 33.600651512689, "lon": 131.18795211509, "category": "焼肉店", "category_id": "0101963", "time": ["17:30-23:00"], "star": 3.3, "review": 3}, {"name": "刻 toki", "address": "大分県中津市豊田町3-1-13", "lat": 33.596860060888, "lon": 131.19048187205, "category": "ラーメン店", "category_id": "0100097", "time": [], "star": 4.34, "review": 9}, {"name": "最後の千円", "address": "大分県中津市宮島町57-36 美空ビル 1F", "lat": 33.6015852365, "lon": 131.18989076823, "category": "ハンバーグ店", "category_id": "0100571", "time": ["21:00-28:00"], "star": 3.67, "review": 2}, {"name": "京都しもがも担々麺 賢魂一滴", "address": "大分県中津市豊田町11-10 久保ビル 1F", "lat": 33.599393627306, "lon": 131.18798406937, "category": "担々麺店", "category_id": "0101631", "time": ["11:30-15:00"], "star": 3.45, "review": 13}, {"name": "FLAT2", "address": "大分県中津市豊田町11-4", "lat": 33.599590436501, "lon": 131.18821826821, "category": "ダイニングバー", "category_id": "0100645", "time": ["17:00-26:00"], "star": 3.0, "review": 3}, {"name": "鶏屋 とくさん", "address": "大分県中津市新天神町835-75", "lat": 33.6022920365, "lon": 131.18939586824, "category": "からあげ店", "category_id": "0100067", "time": [], "star": 3.8, "review": 2}, {"name": "oldies dinner BUMPKIN", "address": "大分県中津市島田374-3", "lat": 33.599994922712, "lon": 131.18854912381, "category": "ダイニングバー", "category_id": "0100645", "time": [], "star": 3.5, "review": 1}, {"name": "アリス", "address": "大分県中津市島田835-1", "lat": 33.602472181208, "lon": 131.18947649781, "category": "居酒屋", "category_id": "0101495", "time": ["18:00-23:00"], "star": 0.0, "review": 0}], "カフェ": [{"name": "MIDTOWN CAFE", "address": "大分県中津市日ノ出町374-3", "lat": 33.599979, "lon": 131.18851, "category": "カフェ・喫茶", "category_id": "0100344", "time": [], "star": 0.0, "review": 1}, {"name": "cafe blanc ete", "address": "大分県中津市京町1439-4", "lat": 33.601596297304, "lon": 131.18570263939, "category": "カフェ・喫茶", "category_id": "0100344", "time": ["11:00-17:30"], "star": 3.7, "review": 1}, {"name": "カフェアンドバーアクロ", "address": "大分県中津市東本町2-9 松尾ビル 1F", "lat": 33.597653697308, "lon": 131.19134683935, "category": "カフェ・喫茶", "category_id": "0100344", "time": ["11:00-15:00", "18:00-26:00"], "star": 4.08, "review": 6}, {"name": "いといろ", "address": "大分県中津市新博多町1766", "lat": 33.601516385705, "lon": 131.1859566859, "category": "カフェ・喫茶", "category_id": "0100344", "time": [], "star": 0.0, "review": 0}, {"name": "スターバックス コーヒー 中津店", "address": "大分県中津市東本町5-6", "lat": 33.595298, "lon": 131.190908, "category": "カフェ・喫茶", "category_id": "0100344", "time": ["08:00-22:00"], "star": 4.09, "review": 12}, {"name": "コワーキングスペース 秘密基地", "address": "大分県中津市島田352-7", "lat": 33.60011214, "lon": 131.18934341, "category": "カフェ・喫茶", "category_id": "0100344", "time": ["10:00-22:00"], "star": 3.94, "review": 3}, {"name": "グランエスタード 大分中津店", "address": "大分県中津市中殿町3-23-7", "lat": 33.59613577731, "lon": 131.19283530933, "category": "カフェ・喫茶", "category_id": "0100344", "time": ["11:00-20:00"], "star": 4.42, "review": 22}, {"name": "丸山ヒルズ", "address": "大分県中津市丸山町15", "lat": 33.599651137305, "lon": 131.18315826938, "category": "カフェ・喫茶", "category_id": "0100344", "time": ["11:00-18:00"], "star": 0.0, "review": 0}, {"name": "TOCOMA coffee & meal", "address": "大分県中津市京町1443-1", "lat": 33.602092636499, "lon": 131.18593386824, "category": "カフェ・喫茶", "category_id": "0100344", "time": ["11:00-16:30"], "star": 3.97, "review": 42}, {"name": "猫CafeC・F・D", "address": "大分県中津市新博多町1709", "lat": 33.6026679, "lon": 131.1871605, "category": "カフェ・喫茶", "category_id": "0100344", "time": [], "star": 4.67, "review": 2}, {"name": "カフェ シュ・シュ", "address": "大分県中津市中殿町3-3-11", "lat": 33.59692734, "lon": 131.19479193, "category": "カフェ・喫茶", "category_id": "0100344", "time": ["12:00-15:30"], "star": 3.64, "review": 5}, {"name": "モノオト", "address": "大分県中津市塩町1134-5", "lat": 33.605735526859, "lon": 131.18922092392, "category": "カフェ・喫茶", "category_id": "0100344", "time": ["11:00-16:00"], "star": 0.0, "review": 0}, {"name": "喫茶 きのみ", "address": "大分県中津市中殿町570-2", "lat": 33.5983964, "lon": 131.1968156, "category": "カフェ・喫茶", "category_id": "0100344", "time": [], "star": 0.0, "review": 0}, {"name": "Dining Cafe Liebe", "address": "大分県中津市京町1439-5 京町ビル 1F", "lat": 33.60145761363, "lon": 131.18566119685, "category": "カフェ・喫茶", "category_id": "0100344", "time": ["11:00-16:00"], "star": 3.99, "review": 19}, {"name": "オン クラウド ナイン コーヒー ロースター", "address": "大分県中津市豊田町3-1-14", "lat": 33.5963933, "lon": 131.1888597, "category": "カフェ・喫茶", "category_id": "0100344", "time": [], "star": 4.0, "review": 1}, {"name": "cafe こはこ", "address": "大分県中津市三ノ丁1285-4", "lat": 33.60520877, "lon": 131.18553667, "category": "カフェ・喫茶", "category_id": "0100344", "time": ["11:00-18:00"], "star": 3.96, "review": 20}, {"name": "CAFE&DELI TODAY", "address": "大分県中津市京町1462-6", "lat": 33.60412334, "lon": 131.18662744, "category": "カフェ・喫茶", "category_id": "0100344", "time": ["10:00-17:00"], "star": 4.36, "review": 4}, {"name": "B.C.Nベーカリーカフェなんば", "address": "大分県中津市中殿町503-4", "lat": 33.59963632737595, "lon": 131.19313070182878, "category": "カフェ・喫茶", "category_id": "0100344", "time": [], "star": 3.0, "review": 2}, {"name": "HINODE TERRACE", "address": "大分県中津市日ノ出町3-802-2", "lat": 33.60057036, "lon": 131.18665307, "category": "カフェ・喫茶", "category_id": "0100344", "time": ["08:00-13:00"], "star": 4.0, "review": 2}, {"name": "SLATE", "address": "大分県中津市金谷中ノ丁2364", "lat": 33.600287117304, "lon": 131.18301728938, "category": "カフェ・喫茶", "category_id": "0100344", "time": ["12:30-18:30"], "star": 0.0, "review": 0}], "ドラッグストア": [{"name": "コスモス 中津蛭子店", "address": "大分県中津市蛭子町2-10-2", "lat": 33.6016098, "lon": 131.1923351, "category": "ドラッグストア", "category_id": "0200699", "time": ["10:00-21:00"], "star": 4.53, "review": 109}, {"name": "ドラッグストアコスモス 中津中央店", "address": "大分県中津市中殿町３丁目１－３ ", "lat": 33.5982491, "lon": 131.19333229, "category": "ドラッグストア", "category_id": "0200699", "time": ["10:00-21:00"], "star": 4.05, "review": 55}, {"name": "ダイレックス 中津中殿店", "address": "大分県中津市中殿町3-2-1", "lat": 33.5978241, "lon": 131.1928712, "category": "ドラッグストア", "category_id": "0200699", "time": ["09:00-22:00"], "star": 4.01, "review": 219}, {"name": "ココカラファイン サンリブ中津店", "address": "大分県中津市豊田町9-10 サンリブ中津店 1F", "lat": 33.5987601, "lon": 131.189752, "category": "ドラッグストア", "category_id": "0200699", "time": ["09:30-20:00"], "star": 3.79, "review": 10}, {"name": "ドラッグセイムス 中津新博多店", "address": "大分県中津市新博多町1710-5", "lat": 33.60156128115079, "lon": 131.18714424292918, "category": "ドラッグストア", "category_id": "0200699", "time": ["09:00-23:00"], "star": 3.81, "review": 26}, {"name": "藤本調剤薬局本町店", "address": "大分県中津市島田本町55", "lat": 33.60031576, "lon": 131.19032611, "category": "調剤薬局", "category_id": "0202315", "time": ["09:00-18:00"], "star": 0.0, "review": 0}, {"name": "ワタナベ薬局豊田町店", "address": "大分県中津市豊田町3-20", "lat": 33.596425, "lon": 131.18886325, "category": "調剤薬局", "category_id": "0202315", "time": [], "star": 0.0, "review": 0}, {"name": "ゆめタウン 中津", "address": "大分県中津市蛭子町3-99", "lat": 33.6025848, "lon": 131.1946043, "category": "ショッピングセンター・モール", "category_id": "0200537", "time": ["09:30-21:00"], "star": 4.11, "review": 229}, {"name": "薬神堂 白十字薬局", "address": "大分県中津市日の出町1-217-12", "lat": 33.59991455078125, "lon": 131.1904754638672, "category": "漢方", "category_id": "0201946", "time": [], "star": 0.0, "review": 0}, {"name": "すみれ調剤薬局", "address": "大分県中津市豊田町6-4", "lat": 33.59714716, "lon": 131.18940014, "category": "調剤薬局", "category_id": "0202315", "time": [], "star": 0.0, "review": 0}, {"name": "ファルマウニオン 調剤薬局 石だたみ", "address": "大分県中津市寺町989-2", "lat": 33.60412787, "lon": 131.19016992, "category": "調剤薬局", "category_id": "0202315", "time": ["09:00-14:30"], "star": 0.0, "review": 0}, {"name": "ワタナベ薬局福沢通店", "address": "大分県中津市1674", "lat": 33.60297071, "lon": 131.18790014, "category": "調剤薬局", "category_id": "0202315", "time": [], "star": 0.0, "review": 0}, {"name": "ワタナベ薬局 中津店", "address": "大分県中津市大字島田462-1", "lat": 33.5955613, "lon": 131.1857121, "category": "調剤薬局", "category_id": "0202315", "time": [], "star": 0.0, "review": 0}, {"name": "アイン あさひ薬局有限会社", "address": "大分県中津市中央町1-170-3", "lat": 33.59256662, "lon": 131.19285467, "category": "調剤薬局", "category_id": "0202315", "time": [], "star": 0.0, "review": 0}, {"name": "臼杵薬局有限会社 豊田町支店", "address": "大分県中津市豊田町１丁目７３８", "lat": 33.599855807407735, "lon": 131.18646814784927, "category": "調剤薬局", "category_id": "0202315", "time": [], "star": 0.0, "review": 0}, {"name": "株式会社グローバル薬局", "address": "大分県中津市中央町1丁目941-4", "lat": 33.5932656, "lon": 131.18945992, "category": "調剤薬局", "category_id": "0202315", "time": [], "star": 0.0, "review": 0}, {"name": "一丁目薬局", "address": "大分県中津市中央町1ー738ー1", "lat": 33.59043599, "lon": 131.1920909, "category": "薬局・薬店関連", "category_id": "0202317", "time": ["09:00-18:00"], "star": 0.0, "review": 0}, {"name": "ヒラヤマ薬品", "address": "大分県中津市1716-4", "lat": 33.6015967, "lon": 131.1871738, "category": "漢方", "category_id": "0201946", "time": [], "star": 3.0, "review": 0}, {"name": "有限会社健康堂ミント中津店", "address": "大分県中津市中殿町3丁目12", "lat": 33.59600861, "lon": 131.19710121, "category": "薬店", "category_id": "0202316", "time": [], "star": 4.0, "review": 1}, {"name": "イルカ薬局中津店", "address": "大分県中津市大字蛎瀬600-1", "lat": 33.603775950291, "lon": 131.19933045219, "category": "調剤薬局", "category_id": "0202315", "time": [], "star": 0.0, "review": 0}], "ATM": [{"name": "大分銀行 中津支店・福沢通支店・鶴居支店・中津東支店", "address": "大分県中津市豊田町2-10", "lat": 33.595729, "lon": 131.189945, "category": "銀行", "category_id": "0402596", "time": ["09:00-15:00"], "star": 4.5, "review": 1}, {"name": "ゆうちょ銀行 ATM 中津郵便局", "address": "大分県中津市中殿余木503-1-6", "lat": 33.6000743, "lon": 131.192363, "category": "ATM", "category_id": "0402785", "time": [], "star": 0.0, "review": 0}, {"name": "大分銀行中津支店", "address": "大分県中津市豊田町2-10", "lat": 33.5958159, "lon": 131.1899076, "category": "銀行", "category_id": "0402596", "time": ["09:00-15:00"], "star": 3.0, "review": 1}, {"name": "ゆうちょ銀行 中津郵便局", "address": "大分県中津市中殿余木503-1-6", "lat": 33.6000743, "lon": 131.192363, "category": "銀行", "category_id": "0402596", "time": [], "star": 3.33, "review": 1}, {"name": "銀行ATM イーネット ファミリーマートＪＲ中津駅 共同出張所", "address": "大分県中津市大字島田219-2 ", "lat": 33.599042, "lon": 131.190723, "category": "ATM", "category_id": "0402785", "time": ["05:00-24:00"], "star": 0.0, "review": 0}, {"name": "西日本シティ銀行 中津支店", "address": "大分県中津市新博多町1728-3", "lat": 33.6022847, "lon": 131.1875494, "category": "銀行", "category_id": "0402596", "time": ["09:00-15:00"], "star": 4.0, "review": 0}, {"name": "福岡銀行 ATM 中津支店", "address": "大分県中津市枝町1700-9", "lat": 33.6020341, "lon": 131.187315, "category": "ATM", "category_id": "0402785", "time": [], "star": 0.0, "review": 0}, {"name": "福岡銀行 中津支店", "address": "大分県中津市枝町1700-9", "lat": 33.6020264, "lon": 131.187341, "category": "銀行", "category_id": "0402596", "time": ["09:00-15:00"], "star": 0.0, "review": 0}, {"name": "大分銀行 中津コンサルティングプラザ", "address": "大分県中津市豊田町2-10中津支店３階", "lat": 33.595834, "lon": 131.19, "category": "銀行", "category_id": "0402596", "time": ["09:00-15:00"], "star": 4.33, "review": 1}, {"name": "北九州銀行 ATM 中津支店", "address": "大分県中津市島田527-8", "lat": 33.5993002, "lon": 131.1866, "category": "ATM", "category_id": "0402785", "time": [], "star": 0.0, "review": 0}, {"name": "北九州銀行 中津支店", "address": "大分県中津市島田527-8", "lat": 33.599346, "lon": 131.1865884, "category": "銀行", "category_id": "0402596", "time": ["09:00-15:00"], "star": 0.0, "review": 0}, {"name": "豊和銀行 中津支店", "address": "大分県中津市中殿町3-27-1", "lat": 33.5950605, "lon": 131.1929379, "category": "銀行", "category_id": "0402596", "time": ["09:00-11:30"], "star": 3.5, "review": 2}, {"name": "大分銀行 ATM 中津市役所出張所", "address": "大分県中津市豊田町14-3", "lat": 33.5982213, "lon": 131.188325, "category": "ATM", "category_id": "0402785", "time": [], "star": 0.0, "review": 0}, {"name": "大分銀行myライフプラザ中津", "address": "大分県中津市大字万田634-1", "lat": 33.5957937, "lon": 131.1899049, "category": "銀行", "category_id": "0402596", "time": [], "star": 0.0, "review": 0}, {"name": "豊和銀行 ATM 中津支店", "address": "大分県中津市中殿町3-27-1", "lat": 33.5950612, "lon": 131.192937, "category": "ATM", "category_id": "0402785", "time": [], "star": 0.0, "review": 0}, {"name": "大分銀行 ATM ゆめタウン中津出張所", "address": "大分県中津市島田134-1", "lat": 33.6024446, "lon": 131.194645, "category": "ATM", "category_id": "0402785", "time": [], "star": 0.0, "review": 0}, {"name": "大分銀行 ATM 中津支店・福沢通支店・鶴居支店・中津東支店", "address": "大分県中津市豊田町2-10", "lat": 33.5957937, "lon": 131.1899049, "category": "ATM", "category_id": "0402785", "time": [], "star": 0.0, "review": 0}, {"name": "西日本シティ銀行 ATM 中津支店", "address": "大分県中津市新博多町1728-3", "lat": 33.6023524, "lon": 131.187515, "category": "ATM", "category_id": "0402785", "time": [], "star": 0.0, "review": 0}, {"name": "大分銀行福沢通支店", "address": "大分県中津市豊田町2-10", "lat": 33.5957937, "lon": 131.1899049, "category": "銀行", "category_id": "0402596", "time": [], "star": 3.0, "review": 1}, {"name": "ゆうちょ銀行 福沢通り郵便局", "address": "大分県中津市古魚町1657-1", "lat": 33.6037158, "lon": 131.188113, "category": "銀行", "category_id": "0402596", "time": [], "star": 4.0, "review": 0}], "銭湯 温泉": [{"name": "水道口温泉", "address": "大分県中津市豊田町1丁目727", "lat": 33.59716586, "lon": 131.19039136, "category": "銭湯", "category_id": "0400578", "time": [], "star": 3.57, "review": 5}, {"name": "豊陽温泉", "address": "大分県中津市大字島田427-1", "lat": 33.59537179, "lon": 131.18957905, "category": "銭湯", "category_id": "0400578", "time": [], "star": 3.5, "review": 4}, {"name": "汐湯", "address": "大分県中津市三ノ丁1278-1", "lat": 33.60601893, "lon": 131.18400262, "category": "日帰り入浴", "category_id": "0401679", "time": ["14:00-21:00"], "star": 4.0, "review": 6}], "スーパーマーケット": [{"name": "マルショク サンリブ中津", "address": "大分県中津市豊田町9-10", "lat": 33.5988351, "lon": 131.1897298, "category": "スーパー", "category_id": "0200612", "time": ["09:30-20:00"], "star": 3.8, "review": 89}, {"name": "食品センター金枝", "address": "大分県中津市北門通り577", "lat": 33.60751506, "lon": 131.18922731, "category": "スーパー", "category_id": "0200612", "time": [], "star": 4.0, "review": 3}, {"name": "みどりストアー", "address": "大分県中津市八幡町790-15", "lat": 33.60569006, "lon": 131.19147731, "category": "スーパー", "category_id": "0200612", "time": [], "star": 3.75, "review": 1}, {"name": "ゆめタウン 中津", "address": "大分県中津市蛭子町3-99", "lat": 33.6025848, "lon": 131.1946043, "category": "ショッピングセンター・モール", "category_id": "0200537", "time": ["09:30-21:00"], "star": 4.11, "review": 229}, {"name": "デリマートかなえだ", "address": "大分県中津市北門通577", "lat": 33.60692174, "lon": 131.18969545, "category": "弁当屋", "category_id": "0101059", "time": ["10:00-19:00"], "star": 3.62, "review": 14}, {"name": "ココカラファイン サンリブ中津店", "address": "大分県中津市豊田町9-10 サンリブ中津店 1F", "lat": 33.5987601, "lon": 131.189752, "category": "ドラッグストア", "category_id": "0200699", "time": ["09:30-20:00"], "star": 3.79, "review": 10}, {"name": "ダイレックス 中津中殿店", "address": "大分県中津市中殿町3-2-1", "lat": 33.5978241, "lon": 131.1928712, "category": "ドラッグストア", "category_id": "0200699", "time": ["09:00-22:00"], "star": 4.01, "review": 219}, {"name": "かば田 中津店", "address": "大分県中津市蛭子町3-99 ゆめタウン中津", "lat": 33.6027304, "lon": 131.19396, "category": "明太子店", "category_id": "0201689", "time": ["10:00-20:00"], "star": 4.5, "review": 4}, {"name": "カフェファディ 中津店", "address": "大分県中津市沖代町1-1-7", "lat": 33.5923693, "lon": 131.1977209, "category": "コーヒー豆店", "category_id": "0200497", "time": ["10:00-19:00"], "star": 4.19, "review": 86}, {"name": "ドラッグセイムス 中津新博多店", "address": "大分県中津市新博多町1710-5", "lat": 33.60156128115079, "lon": 131.18714424292918, "category": "ドラッグストア", "category_id": "0200699", "time": ["09:00-23:00"], "star": 3.81, "review": 26}, {"name": "有限会社司城商店", "address": "大分県中津市大字島田443-5", "lat": 33.59602001, "lon": 131.18781223, "category": "食料品店", "category_id": "0200122", "time": [], "star": 0.0, "review": 0}]}, "top_restaurant": {"name": "じゃらじゃら堂", "category": "ラーメン店", "star": 4.67, "review": 2}}, {"name": "乙原", "name_en": "", "lat": 33.2746865, "lon": 131.4830977, "osm_id": 1058466623, "operator": "", "railway": "station", "wikidata": "Q11369871", "wikipedia_tag": "ja:別府ラクテンチケーブル線", "lines": [], "pref": "大分県", "wikipedia_text": "乙原駅\n\n乙原駅 (島根県) （おんばらえき） - 島根県邑智郡美郷町にあったJR西日本三江線の駅。\n乙原駅 (大分県) （おとばるえき） - 大分県別府市にある別府ラクテンチケーブル線の駅。", "nearest_convenience": {"name": "ファミリーマート", "lat": 33.2837253, "lon": 131.4769102, "address": "", "distance_m": 1158, "brand": "ファミリーマート"}, "nearest_restaurant": {"name": "五九〇", "lat": 33.2842045, "lon": 131.4769317, "address": "", "distance_m": 1204, "cuisine": ""}, "nearby_pois": {"ラーメン": [{"name": "シン成", "address": "大分県別府市青山町12-21", "lat": 33.279755317605, "lon": 131.48955514593, "category": "台湾料理店", "category_id": "0101283", "time": ["11:00-14:30", "17:00-24:00"], "star": 3.91, "review": 14}, {"name": "一食堂", "address": "大分県別府市山の手町5-16", "lat": 33.2800835, "lon": 131.4856637, "category": "定食屋", "category_id": "0101441", "time": [], "star": 0.0, "review": 1}, {"name": "台湾料理 鑫成", "address": "大分県別府市青山町12-21", "lat": 33.27971402, "lon": 131.48952237, "category": "台湾料理店", "category_id": "0101283", "time": ["11:00-14:30", "17:00-24:00"], "star": 4.17, "review": 6}], "飲食店": [{"name": "ファミリーレストラン なしか!", "address": "大分県別府市流川通り18 別府ケーブルラクテンチ内", "lat": 33.274179877607, "lon": 131.48218950588, "category": "定食屋", "category_id": "0101441", "time": ["09:30-17:00"], "star": 3.7, "review": 4}, {"name": "cafe Route.S", "address": "大分県別府市上原町12-24", "lat": 33.279383487604, "lon": 131.48542238593, "category": "カフェ・喫茶", "category_id": "0100344", "time": ["11:00-16:00", "17:30-20:00"], "star": 3.65, "review": 2}, {"name": "たこ焼き ころた", "address": "大分県別府市青山町1-15 ともやビル 1F", "lat": 33.275795087609, "lon": 131.49294146589, "category": "たこ焼き店", "category_id": "0100134", "time": ["10:00-20:00"], "star": 3.98, "review": 8}, {"name": "ムーラン", "address": "大分県別府市中島町12-9", "lat": 33.2748516, "lon": 131.48984165, "category": "カフェ・喫茶", "category_id": "0100344", "time": [], "star": 4.24, "review": 37}, {"name": "八わのあひる", "address": "大分県別府市乙原2組", "lat": 33.273247997607, "lon": 131.48073383587, "category": "カフェ・喫茶", "category_id": "0100344", "time": [], "star": 3.75, "review": 3}, {"name": "いろいろ屋台", "address": "大分県別府市乙原2", "lat": 33.27332191253, "lon": 131.4803486067, "category": "レストラン", "category_id": "0100111", "time": [], "star": 3.15, "review": 2}, {"name": "フードコア", "address": "大分県別府市乙原2", "lat": 33.27333808, "lon": 131.48048722, "category": "レストラン", "category_id": "0100111", "time": [], "star": 0.0, "review": 0}, {"name": "AHIRUCAFE", "address": "大分県別府市乙原 3698番地の2", "lat": 33.2767448425293, "lon": 131.4845428466797, "category": "飲食店", "category_id": "0102732", "time": [], "star": 0.0, "review": 0}, {"name": "ジョイフル 青山店", "address": "大分県別府市上原町1", "lat": 33.2783726, "lon": 131.4890585, "category": "ファミリーレストラン", "category_id": "0100788", "time": ["08:00-25:00"], "star": 3.96, "review": 48}, {"name": "森のカレー屋さん", "address": "大分県別府市流川通り18 別府ラクテンチ", "lat": 33.275089517606, "lon": 131.48098587589, "category": "カレー店", "category_id": "0100359", "time": ["09:00-17:00"], "star": 3.81, "review": 11}, {"name": "ストロベリーフィールズ", "address": "大分県別府市朝見2-15-2", "lat": 33.271651157611, "lon": 131.49224023585, "category": "レストラン", "category_id": "0100111", "time": ["11:30-14:00", "18:00-22:00"], "star": 3.64, "review": 6}, {"name": "ミルキーランドラクテンチ店", "address": "大分県別府市乙原3633", "lat": 33.2750313, "lon": 131.4855417, "category": "", "category_id": "", "time": [], "star": 4.5, "review": 0}, {"name": "くつろい茶屋", "address": "大分県別府市乙原2", "lat": 33.27333808, "lon": 131.48048722, "category": "レストラン", "category_id": "0100111", "time": [], "star": 0.0, "review": 0}, {"name": "Chez Maman", "address": "大分県別府市山の手町11-52", "lat": 33.28199658, "lon": 131.48782472, "category": "カフェ・喫茶", "category_id": "0100344", "time": ["11:30-21:00"], "star": 3.85, "review": 17}, {"name": "観海寺温泉 いちのいで会館", "address": "大分県別府市上原14-2", "lat": 33.278486297603, "lon": 131.48109517592, "category": "日帰り入浴", "category_id": "0401679", "time": ["11:00-17:00"], "star": 3.93, "review": 28}, {"name": "アクロスプラザ 別府山の手ライフガーデン", "address": "大分県別府市山の手町3249番、他", "lat": 33.2817082, "lon": 131.485771, "category": "ショッピングセンター・モール", "category_id": "0200537", "time": [], "star": 4.56, "review": 9}, {"name": "活魚廻転寿し水天", "address": "大分県別府市山の手町13", "lat": 33.28234605, "lon": 131.48674532, "category": "回転寿司店", "category_id": "0101332", "time": [], "star": 4.36, "review": 6}, {"name": "割烹 小菊", "address": "大分県別府市中島町12-25", "lat": 33.27519402, "lon": 131.49075632, "category": "割烹・小料理屋", "category_id": "0101190", "time": ["11:00-14:00", "18:00-22:00"], "star": 3.79, "review": 6}, {"name": "活魚廻転寿し 水天 山の手店", "address": "大分県別府市山の手町3264-1", "lat": 33.282356027603, "lon": 131.48672688596, "category": "回転寿司店", "category_id": "0101332", "time": ["11:00-14:00", "17:00-22:00"], "star": 4.27, "review": 57}, {"name": "fog hut foghut/coffeeparlor", "address": "大分県 別府市 青山町8-6 メイプルビル2F", "lat": 33.2764434, "lon": 131.4918162, "category": "飲食店", "category_id": "0102732", "time": ["00:00-24:00"], "star": 0.0, "review": 0}], "カフェ": [{"name": "cafe Route.S", "address": "大分県別府市上原町12-24", "lat": 33.279383487604, "lon": 131.48542238593, "category": "カフェ・喫茶", "category_id": "0100344", "time": ["11:00-16:00", "17:30-20:00"], "star": 3.65, "review": 2}, {"name": "ムーラン", "address": "大分県別府市中島町12-9", "lat": 33.2748516, "lon": 131.48984165, "category": "カフェ・喫茶", "category_id": "0100344", "time": [], "star": 4.24, "review": 37}, {"name": "八わのあひる", "address": "大分県別府市乙原2組", "lat": 33.273247997607, "lon": 131.48073383587, "category": "カフェ・喫茶", "category_id": "0100344", "time": [], "star": 3.75, "review": 3}, {"name": "Chez Maman", "address": "大分県別府市山の手町11-52", "lat": 33.28199658, "lon": 131.48782472, "category": "カフェ・喫茶", "category_id": "0100344", "time": ["11:30-21:00"], "star": 3.85, "review": 17}, {"name": "タイフード&カフェ チャン・ノーイ", "address": "大分県別府市山の手町2-11", "lat": 33.2800113, "lon": 131.4866639, "category": "タイ料理店", "category_id": "0100629", "time": [], "star": 4.0, "review": 1}, {"name": "Cafe チャンノーイ", "address": "大分県別府市大分県別府市山の手町2-11", "lat": 33.28000384, "lon": 131.48666863, "category": "カフェ・喫茶", "category_id": "0100344", "time": [], "star": 0.0, "review": 0}, {"name": "tricot", "address": "大分県別府市南立石2173-4 サンシティー紅葉坂3号 1F", "lat": 33.283560862921, "lon": 131.48153217717, "category": "カフェ・喫茶", "category_id": "0100344", "time": [], "star": 0.0, "review": 0}, {"name": "アゼリア", "address": "大分県別府市観海寺1 杉乃井ホテル Hana館 1F", "lat": 33.2793334, "lon": 131.4739258, "category": "カフェ・喫茶", "category_id": "0100344", "time": [], "star": 0.0, "review": 0}], "ドラッグストア": [{"name": "ドラッグストアコスモス 別府中島店", "address": "大分県別府市中島町８－２ ", "lat": 33.27450901, "lon": 131.4936275, "category": "ドラッグストア", "category_id": "0200699", "time": ["10:00-21:00"], "star": 4.21, "review": 36}, {"name": "ドラッグセイムス 別府流川通店", "address": "大分県別府市中島町2415番1", "lat": 33.2752228, "lon": 131.49357197, "category": "ドラッグストア", "category_id": "0200699", "time": ["08:00-22:00"], "star": 4.12, "review": 36}, {"name": "富士薬品 ドラッグセイムス別府流川通店", "address": "大分県別府市中島町2415-1", "lat": 33.2752215, "lon": 131.493575, "category": "調剤薬局", "category_id": "0202315", "time": [], "star": 0.0, "review": 1}, {"name": "ロイヤルグリーン薬局", "address": "大分県別府市山の手町3267-2", "lat": 33.28142586, "lon": 131.48492902, "category": "調剤薬局", "category_id": "0202315", "time": [], "star": 0.0, "review": 0}, {"name": "そうごう薬局 別府流川店", "address": "大分県別府市中島町14-24", "lat": 33.27543391, "lon": 131.49282481, "category": "調剤薬局", "category_id": "0202315", "time": ["09:00-18:00"], "star": 0.0, "review": 0}, {"name": "日伸薬局", "address": "大分県別府市青山町9-53", "lat": 33.27722625, "lon": 131.49061446, "category": "調剤薬局", "category_id": "0202315", "time": [], "star": 0.0, "review": 0}, {"name": "Bースポーツ薬局", "address": "大分県別府市山の手町17", "lat": 33.28168141, "lon": 131.48251791, "category": "調剤薬局", "category_id": "0202315", "time": [], "star": 0.0, "review": 0}], "ATM": [{"name": "ゆうちょ銀行 別府中島郵便局", "address": "大分県別府市中島町20-25 コーポ井上 1F", "lat": 33.2763813, "lon": 131.491205, "category": "銀行", "category_id": "0402596", "time": [], "star": 4.5, "review": 1}, {"name": "大分銀行 ATM 野口病院出張所", "address": "大分県別府市青山町7-52", "lat": 33.2795009, "lon": 131.491836, "category": "ATM", "category_id": "0402785", "time": [], "star": 0.0, "review": 0}, {"name": "ゆうちょ銀行 ATM 別府中島郵便局", "address": "大分県別府市中島町20-25 コーポ井上 1F", "lat": 33.2763813, "lon": 131.491205, "category": "ATM", "category_id": "0402785", "time": [], "star": 0.0, "review": 0}, {"name": "みずほ銀行 ATM マックスバリュ別府上原店出張所", "address": "大分県別府市上原町9-3", "lat": 33.2795188, "lon": 131.488318, "category": "ATM", "category_id": "0402785", "time": [], "star": 0.0, "review": 0}, {"name": "イオン銀行 ATM マックスバリュ別府上原店出張所(1F 出入口付近WAONステーション並び)", "address": "大分県別府市上原町9-3", "lat": 33.2794581, "lon": 131.488326, "category": "ATM", "category_id": "0402785", "time": ["00:00-24:00"], "star": 0.0, "review": 0}], "銭湯 温泉": [{"name": "別府ラクテンチ", "address": "大分県別府市流川通り18丁目", "lat": 33.27495075, "lon": 131.4856131, "category": "日帰り入浴", "category_id": "0401679", "time": ["09:30-17:00"], "star": 4.26, "review": 323}, {"name": "観海寺温泉 いちのいで会館", "address": "大分県別府市上原14-2", "lat": 33.278486297603, "lon": 131.48109517592, "category": "日帰り入浴", "category_id": "0401679", "time": ["11:00-17:00"], "star": 3.93, "review": 28}, {"name": "祇園温泉", "address": "大分県別府市朝見3丁目9-5", "lat": 33.27331205, "lon": 131.49045266, "category": "日帰り入浴", "category_id": "0401679", "time": ["06:00-11:00", "13:00-23:00"], "star": 0.0, "review": 2}, {"name": "上原温泉", "address": "大分県別府市上原町1-13", "lat": 33.27811214371083, "lon": 131.48831579215852, "category": "日帰り入浴", "category_id": "0401679", "time": ["06:00-12:00", "14:00-22:00"], "star": 0.0, "review": 0}, {"name": "日帰り入浴 べっぷ昭和園", "address": "大分県別府市乙原3783-1", "lat": 33.2734178, "lon": 131.4858558, "category": "日帰り入浴", "category_id": "0401679", "time": [], "star": 0.0, "review": 0}, {"name": "新光泉", "address": "大分県別府市中島町14-14", "lat": 33.27525202, "lon": 131.49206596, "category": "日帰り入浴", "category_id": "0401679", "time": ["12:00-16:00"], "star": 0.0, "review": 0}, {"name": "白蓮の湯", "address": "大分県別府市青山町8-68", "lat": 33.27716678943177, "lon": 131.49172946641, "category": "日帰り入浴", "category_id": "0401679", "time": ["10:00-15:00"], "star": 0.0, "review": 0}, {"name": "日帰り入浴 美湯の宿 両築別邸", "address": "大分県別府市観海寺3", "lat": 33.2814171, "lon": 131.4767676, "category": "日帰り入浴", "category_id": "0401679", "time": ["11:00-14:00"], "star": 0.0, "review": 0}], "スーパーマーケット": [{"name": "マックスバリュ 別府上原店", "address": "大分県別府市上原町9-3", "lat": 33.2794058, "lon": 131.4882113, "category": "スーパー", "category_id": "0200612", "time": ["00:00-24:00"], "star": 4.02, "review": 159}, {"name": "新鮮市場 山の手店", "address": "大分県別府市山の手町3250-1", "lat": 33.281139, "lon": 131.4856087, "category": "スーパー", "category_id": "0200612", "time": ["09:00-20:00"], "star": 4.25, "review": 85}, {"name": "アクロスプラザ 別府山の手ライフガーデン", "address": "大分県別府市山の手町3249番、他", "lat": 33.2817082, "lon": 131.485771, "category": "ショッピングセンター・モール", "category_id": "0200537", "time": [], "star": 4.56, "review": 9}, {"name": "セリア 生活良品 別府山の手店", "address": "大分県別府市山の手町3249 別府山の手ライフガーデン", "lat": 33.2812029, "lon": 131.4861198, "category": "100円ショップ", "category_id": "0200001", "time": [], "star": 4.15, "review": 45}]},