[{"name": "JR五位堂", "name_en": "JR Goidō", "lat": 34.5277508, "lon": 135.7183935, "osm_id": 8021696835, "operator": "", "railway": "station", "wikidata": "Q3655990", "wikipedia_tag": "ja:JR五位堂駅", "lines": [], "pref": "奈良県", "wikipedia_text": "JR五位堂駅（ジェイアールごいどうえき）は、奈良県香芝市五位堂六丁目にある、西日本旅客鉄道（JR西日本）和歌山線の駅である。", "wikipedia_image": "https://upload.wikimedia.org/wikipedia/commons/f/f6/JR-Goid%C5%8D_Station_south_entrance.jpg", "nearest_convenience": {"name": "セブン-イレブン 香芝五位堂3丁目店", "lat": 34.5330642, "lon": 135.7169341, "address": "", "distance_m": 606, "brand": ""}, "nearest_restaurant": {"name": "", "lat": 34.5281178, "lon": 135.7169698, "address": "", "distance_m": 137, "cuisine": "coffee_shop"}, "nearby_pois": {"コンビニ": [{"name": "セブンイレブン 香芝五位堂3丁目", "address": "奈良県香芝市五位堂3-457-1", "lat": 34.5330541, "lon": 135.7168989, "category": "コンビニ", "category_id": "0200487", "time": ["00:00-24:00"], "star": 4.2, "review": 21}, {"name": "ローソン 香芝瓦口", "address": "奈良県香芝市瓦口32-1", "lat": 34.5337236, "lon": 135.7208263, "category": "コンビニ", "category_id": "0200487", "time": ["00:00-24:00"], "star": 3.85, "review": 20}, {"name": "セブンイレブン 大和高田上大谷", "address": "奈良県大和高田市大谷342-1", "lat": 34.5289521, "lon": 135.7290116, "category": "コンビニ", "category_id": "0200487", "time": ["00:00-24:00"], "star": 3.85, "review": 18}, {"name": "ファミリーマート 近鉄五位堂駅改札外橋上店", "address": "奈良県香芝市瓦口268", "lat": 34.5348734, "lon": 135.7181737, "category": "コンビニ", "category_id": "0200487", "time": ["05:45-23:15"], "star": 4.07, "review": 35}, {"name": "ハーベス 五位堂店", "address": "奈良県香芝市瓦口2227", "lat": 34.536333011914024, "lon": 135.71724652925866, "category": "スーパー", "category_id": "0200612", "time": ["09:00-21:50"], "star": 3.72, "review": 226}, {"name": "スーパーヤオヒコ 良福寺店", "address": "奈良県香芝市良福寺47-1", "lat": 34.5255549, "lon": 135.7090692, "category": "スーパー", "category_id": "0200612", "time": ["09:00-20:00"], "star": 3.56, "review": 125}], "ラーメン": [{"name": "BarRISE", "address": "奈良県香芝市瓦口69", "lat": 34.53501386, "lon": 135.71663384, "category": "ラーメン店", "category_id": "0100097", "time": [], "star": 4.14, "review": 6}, {"name": "喜MAMA屋", "address": "奈良県香芝市瓦口2302", "lat": 34.53548386, "lon": 135.71911388, "category": "ラーメン店", "category_id": "0100097", "time": ["11:30-14:00", "18:00-23:00"], "star": 3.76, "review": 18}, {"name": "中国料理 四川亭", "address": "奈良県香芝市鎌田419-19", "lat": 34.52466784, "lon": 135.71003528, "category": "中華料理店", "category_id": "0100990", "time": ["11:30-14:00", "17:00-22:00"], "star": 4.04, "review": 25}, {"name": "野菜肉巻きと博多もつ鍋のお店 金太郎 五位堂駅前店", "address": "奈良県香芝市瓦口2250-1", "lat": 34.536322818154, "lon": 135.71836282566, "category": "もつ鍋料理店", "category_id": "0100208", "time": ["17:00-24:00"], "star": 3.59, "review": 4}], "飲食店": [{"name": "ワリゴノアキヅ", "address": "奈良県香芝市瓦口2236 シャーメゾン1F", "lat": 34.536079614282, "lon": 135.71791142822, "category": "定食屋", "category_id": "0101441", "time": [], "star": 4.17, "review": 2}, {"name": "925’scafe", "address": "奈良県香芝市五位堂5丁目45", "lat": 34.52811447, "lon": 135.71697507, "category": "飲食店", "category_id": "0102732", "time": [], "star": 4.5, "review": 0}, {"name": "デイ アフター デイ コーヒー", "address": "奈良県香芝市瓦口2238 シャーメゾン秋山 101", "lat": 34.535982448154, "lon": 135.71762940565, "category": "カフェ・喫茶", "category_id": "0100344", "time": ["10:00-19:00"], "star": 3.48, "review": 6}, {"name": "豚と酒と飯 ぽるく", "address": "奈良県香芝市別所123-3", "lat": 34.532766288158, "lon": 135.72505333562, "category": "居酒屋", "category_id": "0101495", "time": ["11:30-14:30", "17:00-23:00"], "star": 3.48, "review": 10}, {"name": "澤田酒造 蔵元直売所・角打ち処", "address": "奈良県香芝市五位堂3-590-1", "lat": 34.534144048155, "lon": 135.71663903564, "category": "立ち飲み店", "category_id": "0102815", "time": ["09:30-22:00"], "star": 3.9, "review": 3}, {"name": "HiLViS", "address": "奈良県香芝市瓦口2251-1 倭ビル 2F", "lat": 34.536346158154, "lon": 135.71861406566, "category": "パスタ料理店", "category_id": "0100575", "time": [], "star": 4.0, "review": 4}, {"name": "かじゅある割烹 絵空", "address": "奈良県香芝市瓦口68 サントゥネール寿ビル 1F", "lat": 34.535327508154, "lon": 135.71639719565, "category": "和食店", "category_id": "0100126", "time": [], "star": 3.63, "review": 9}, {"name": "紅榮", "address": "奈良県香芝市瓦口サントゥネール寿 1F68-1", "lat": 34.535311016178, "lon": 135.71639192392, "category": "居酒屋", "category_id": "0101495", "time": [], "star": 0.0, "review": 0}, {"name": "SOLA CAFE", "address": "奈良県香芝市五位堂5-21-3", "lat": 34.52670715, "lon": 135.71665125, "category": "カフェ・喫茶", "category_id": "0100344", "time": ["11:00-17:00"], "star": 3.55, "review": 4}, {"name": "mimi DAYAFTERDAYCOFFEE", "address": "奈良県香芝市瓦口2238シャーメゾン秋山101", "lat": 34.536022276209, "lon": 135.71770966138, "category": "カフェ・喫茶", "category_id": "0100344", "time": [], "star": 0.0, "review": 0}, {"name": "マゼソバアイガ トマラナイ #TRICO", "address": "奈良県香芝市五位堂3丁目602-1 エムエフビル 106号", "lat": 34.53433176, "lon": 135.7181265, "category": "飲食店", "category_id": "0102732", "time": ["11:00-14:00"], "star": 4.4, "review": 2}, {"name": "Lungo", "address": "奈良県香芝市五位堂3-599-2 ホワイトタウン 1F", "lat": 34.534413928155, "lon": 135.71700842564, "category": "イタリア料理店", "category_id": "0100263", "time": ["17:00-24:00"], "star": 4.07, "review": 10}, {"name": "こよみ", "address": "奈良県香芝市五位堂3-599-2 ホワイトタウン 104", "lat": 34.534397938155, "lon": 135.71699550564, "category": "居酒屋", "category_id": "0101495", "time": ["12:00-15:00", "17:00-24:00"], "star": 4.23, "review": 26}, {"name": "ビッグボーイ 香芝五位堂店", "address": "奈良県香芝市瓦口159-3", "lat": 34.5363315, "lon": 135.7194902, "category": "ファミリーレストラン", "category_id": "0100788", "time": [], "star": 4.01, "review": 118}, {"name": "炎宴", "address": "奈良県香芝市瓦口32-7", "lat": 34.534136738156, "lon": 135.72087302563, "category": "居酒屋", "category_id": "0101495", "time": ["17:00-23:00"], "star": 4.34, "review": 9}, {"name": "スタンドアサヒ", "address": "奈良県香芝市別所123-3", "lat": 34.532737731933594, "lon": 135.72500610351562, "category": "飲食店", "category_id": "0102732", "time": [], "star": 4.0, "review": 1}, {"name": "CAFE&BAR Woodstock", "address": "奈良県香芝市瓦口2238", "lat": 34.536039938154, "lon": 135.71774293565, "category": "カフェ・喫茶", "category_id": "0100344", "time": ["17:00-24:00"], "star": 4.48, "review": 18}, {"name": "寿司と炉端 あっぱれ", "address": "奈良県香芝市瓦口2250-1", "lat": 34.536362, "lon": 135.718358, "category": "居酒屋", "category_id": "0101495", "time": ["17:00-25:00"], "star": 4.38, "review": 10}, {"name": "マガジーノ", "address": "奈良県香芝市鎌田172-1", "lat": 34.52065705, "lon": 135.71232209, "category": "イタリア料理店", "category_id": "0100263", "time": ["11:30-14:00", "17:30-21:00"], "star": 3.9, "review": 89}, {"name": "カフェ コロン", "address": "奈良県香芝市瓦口2305", "lat": 34.53476867, "lon": 135.71939498, "category": "カフェ・喫茶", "category_id": "0100344", "time": ["09:00-18:00"], "star": 3.75, "review": 17}], "カフェ": [{"name": "デイ アフター デイ コーヒー", "address": "奈良県香芝市瓦口2238 シャーメゾン秋山 101", "lat": 34.535982448154, "lon": 135.71762940565, "category": "カフェ・喫茶", "category_id": "0100344", "time": ["10:00-19:00"], "star": 3.48, "review": 6}, {"name": "SOLA CAFE", "address": "奈良県香芝市五位堂5-21-3", "lat": 34.52670715, "lon": 135.71665125, "category": "カフェ・喫茶", "category_id": "0100344", "time": ["11:00-17:00"], "star": 3.55, "review": 4}, {"name": "カフェ コロン", "address": "奈良県香芝市瓦口2305", "lat": 34.53476867, "lon": 135.71939498, "category": "カフェ・喫茶", "category_id": "0100344", "time": ["09:00-18:00"], "star": 3.75, "review": 17}, {"name": "mimi DAYAFTERDAYCOFFEE", "address": "奈良県香芝市瓦口2238シャーメゾン秋山101", "lat": 34.536022276209, "lon": 135.71770966138, "category": "カフェ・喫茶", "category_id": "0100344", "time": [], "star": 0.0, "review": 0}, {"name": "CAFE&BAR Woodstock", "address": "奈良県香芝市瓦口2238", "lat": 34.536039938154, "lon": 135.71774293565, "category": "カフェ・喫茶", "category_id": "0100344", "time": ["17:00-24:00"], "star": 4.48, "review": 18}, {"name": "クリーム ドール", "address": "奈良県香芝市瓦口2251-1", "lat": 34.536304728154, "lon": 135.71866443566, "category": "ケーキ店", "category_id": "0100460", "time": ["09:30-20:00"], "star": 3.76, "review": 29}, {"name": "バンビーナ", "address": "奈良県香芝市別所74-5", "lat": 34.531403468159, "lon": 135.7250564056, "category": "カフェ・喫茶", "category_id": "0100344", "time": [], "star": 0.0, "review": 0}, {"name": "喫茶アロマ", "address": "奈良県香芝市五位堂3丁目455", "lat": 34.53372236, "lon": 135.71684996, "category": "カフェ・喫茶", "category_id": "0100344", "time": [], "star": 4.0, "review": 1}, {"name": "KOTOBUKI COFFEE", "address": "奈良県香芝市瓦口74-3", "lat": 34.535636178456, "lon": 135.71574551651, "category": "飲食店", "category_id": "0102732", "time": [], "star": 4.0, "review": 2}, {"name": "カラオケステージふらっと(FLAT)", "address": "奈良県香芝市五位堂3丁目599-2", "lat": 34.534377, "lon": 135.716963, "category": "カフェ・喫茶", "category_id": "0100344", "time": [], "star": 4.0, "review": 1}, {"name": "ホットクラブ", "address": "奈良県香芝市瓦口68 サントゥネール寿ビル 1F", "lat": 34.535238438154, "lon": 135.71636851565, "category": "カフェ・喫茶", "category_id": "0100344", "time": ["11:00-18:00"], "star": 0.0, "review": 0}, {"name": "グリーンノート", "address": "奈良県香芝市五位堂3丁目602-1", "lat": 34.5343338, "lon": 135.7181255, "category": "カフェ・喫茶", "category_id": "0100344", "time": [], "star": 0.0, "review": 0}, {"name": "スタンドアサヒ", "address": "奈良県香芝市別所123-3", "lat": 34.532737731933594, "lon": 135.72500610351562, "category": "飲食店", "category_id": "0102732", "time": [], "star": 4.0, "review": 1}, {"name": "くじゃく", "address": "奈良県香芝市鎌田419-18", "lat": 34.524603, "lon": 135.709992, "category": "カフェ・喫茶", "category_id": "0100344", "time": [], "star": 0.0, "review": 0}, {"name": "カフェバーバンビーナ", "address": "奈良県香芝市別所74-5", "lat": 34.5314706, "lon": 135.72498839, "category": "カフェ・喫茶", "category_id": "0100344", "time": [], "star": 0.0, "review": 0}, {"name": "にこり", "address": "奈良県大和高田市大字野口325-3", "lat": 34.5251063, "lon": 135.7210498, "category": "特別養護老人ホーム", "category_id": "0402851", "time": [], "star": 4.5, "review": 0}, {"name": "RISE", "address": "奈良県香芝市瓦口69-1", "lat": 34.535029558154, "lon": 135.71669296565, "category": "バー", "category_id": "0100536", "time": [], "star": 3.75, "review": 1}, {"name": "大倉本家エキマエノミセ", "address": "奈良県香芝市五位堂3-602-1-101", "lat": 34.534462468155, "lon": 135.71811258564, "category": "日本酒バー", "category_id": "0101683", "time": ["17:00-22:00"], "star": 4.03, "review": 9}, {"name": "mimi", "address": "奈良県香芝市瓦口2238 シャーメゾン秋山101", "lat": 34.535929, "lon": 135.717601, "category": "美容院", "category_id": "0400766", "time": [], "star": 0.0, "review": 1}], "ドラッグストア": [{"name": "サンドラッグ 奈良香芝店", "address": "奈良県香芝市別所５２－１", "lat": 34.53343753, "lon": 135.72280941, "category": "ドラッグストア", "category_id": "0200699", "time": ["09:15-20:45"], "star": 3.65, "review": 52}, {"name": "サンドラッグ良福寺店", "address": "奈良県香芝市良福寺51 ", "lat": 34.52610208, "lon": 135.7096525, "category": "ドラッグストア", "category_id": "0200699", "time": ["09:00-19:00"], "star": 3.83, "review": 70}, {"name": "スギ薬局 香芝別所店", "address": "奈良県香芝市別所123-1", "lat": 34.5322302, "lon": 135.725788, "category": "ドラッグストア", "category_id": "0200699", "time": ["09:00-22:00"], "star": 4.26, "review": 20}, {"name": "サンドラッグ 香芝良福寺店", "address": "奈良県香芝市良福寺１４１－１", "lat": 34.53149308, "lon": 135.71116611, "category": "ドラッグストア", "category_id": "0200699", "time": ["09:00-21:00"], "star": 4.5, "review": 1}, {"name": "スギ薬局 香芝別所店", "address": "奈良県香芝市別所123-1", "lat": 34.5322155, "lon": 135.7257564, "category": "調剤薬局", "category_id": "0202315", "time": [], "star": 4.5, "review": 2}, {"name": "オレンジ元気薬局 五位堂店", "address": "奈良県香芝市鎌田438-82 1F", "lat": 34.52498984, "lon": 135.71443262, "category": "調剤薬局", "category_id": "0202315", "time": ["08:30-19:00"], "star": 3.0, "review": 0}, {"name": "ユニスマイル薬局 香芝店", "address": "奈良県香芝市五位堂1-298-1", "lat": 34.5306405, "lon": 135.71537406, "category": "医療・薬・保険衛生関連", "category_id": "0401237", "time": ["08:30-20:00"], "star": 0.0, "review": 0}, {"name": "サン薬局 五位堂店", "address": "奈良県香芝市瓦口2309-1 I.Bグランド", "lat": 34.5351247, "lon": 135.719165, "category": "調剤薬局", "category_id": "0202315", "time": ["09:00-19:30"], "star": 3.5, "review": 2}, {"name": "くすりのア・ム", "address": "奈良県香芝市瓦口61", "lat": 34.5350872, "lon": 135.7168933, "category": "漢方", "category_id": "0201946", "time": [], "star": 3.0, "review": 0}, {"name": "かなで薬局五位堂店", "address": "奈良県香芝市五位堂3丁目436-12", "lat": 34.53345413, "lon": 135.71990357, "category": "調剤薬局", "category_id": "0202315", "time": [], "star": 3.0, "review": 0}, {"name": "ここみ薬局", "address": "奈良県香芝市瓦口2341", "lat": 34.53551631, "lon": 135.71729294, "category": "調剤薬局", "category_id": "0202315", "time": [], "star": 3.0, "review": 0}, {"name": "ヨシカワ薬店", "address": "奈良県香芝市良福寺215-43", "lat": 34.53272488, "lon": 135.71158326, "category": "薬店", "category_id": "0202316", "time": [], "star": 2.0, "review": 0}, {"name": "スーパーヤオヒコ 良福寺店", "address": "奈良県香芝市良福寺47-1", "lat": 34.5255549, "lon": 135.7090692, "category": "スーパー", "category_id": "0200612", "time": ["09:00-20:00"], "star": 3.56, "review": 125}, {"name": "若葉薬局香芝店", "address": "奈良県香芝市五位堂1007", "lat": 34.53455121, "lon": 135.71953469, "category": "医療・薬・保険衛生関連", "category_id": "0401237", "time": ["09:00-19:30"], "star": 0.0, "review": 0}], "ATM": [{"name": "りそな銀行 香芝支店", "address": "奈良県香芝市瓦口2245", "lat": 34.5365732, "lon": 135.7184014, "category": "銀行", "category_id": "0402596", "time": ["09:00-17:00"], "star": 4.06, "review": 9}, {"name": "ゆうちょ銀行 香芝別所郵便局", "address": "奈良県香芝市別所1025-1", "lat": 34.5343518, "lon": 135.721937, "category": "銀行", "category_id": "0402596", "time": [], "star": 4.33, "review": 4}, {"name": "ゆうちょ銀行 香芝五位堂郵便局", "address": "奈良県香芝市五位堂5-317-5", "lat": 34.5304481, "lon": 135.71408, "category": "銀行", "category_id": "0402596", "time": [], "star": 3.67, "review": 3}, {"name": "ゆうちょ銀行 ATM 近鉄五位堂駅内出張所", "address": "奈良県香芝市瓦口268", "lat": 34.5347873, "lon": 135.7181154, "category": "ATM", "category_id": "0402785", "time": [], "star": 3.5, "review": 0}, {"name": "ゆうちょ銀行 ATM 香芝五位堂郵便局", "address": "奈良県香芝市五位堂5-317-5", "lat": 34.5304481, "lon": 135.71408, "category": "ATM", "category_id": "0402785", "time": [], "star": 0.0, "review": 0}, {"name": "南都銀行 ATM オークワ香芝南店内", "address": "奈良県香芝市鎌田390-1", "lat": 34.5240503, "lon": 135.710461, "category": "ATM", "category_id": "0402785", "time": [], "star": 0.0, "review": 0}, {"name": "りそな銀行 ATM 香芝支店", "address": "奈良県香芝市瓦口2245", "lat": 34.5365534, "lon": 135.718324, "category": "ATM", "category_id": "0402785", "time": [], "star": 0.0, "review": 0}, {"name": "セブン銀行 近鉄電車 五位堂駅", "address": "奈良県香芝市瓦口268", "lat": 34.5347523, "lon": 135.718127, "category": "ATM", "category_id": "0402785", "time": ["05:00-24:00"], "star": 0.0, "review": 0}, {"name": "ゆうちょ銀行 ATM 香芝別所郵便局", "address": "奈良県香芝市別所1025-1", "lat": 34.5343518, "lon": 135.721937, "category": "ATM", "category_id": "0402785", "time": [], "star": 0.0, "review": 0}, {"name": "セブン銀行 香芝五位堂3丁目店", "address": "奈良県香芝市五位堂3-457-1", "lat": 34.5330402, "lon": 135.71691, "category": "ATM", "category_id": "0402785", "time": ["00:00-24:00"], "star": 0.0, "review": 0}, {"name": "奈良中央信用金庫ATM", "address": "奈良県香芝市良福寺158-1", "lat": 34.527598, "lon": 135.70989605, "category": "銀行", "category_id": "0402596", "time": [], "star": 0.0, "review": 0}, {"name": "大和信用金庫 香芝支店", "address": "奈良県香芝市瓦口2272", "lat": 34.5364232, "lon": 135.7183736, "category": "信用金庫", "category_id": "0401098", "time": [], "star": 3.0, "review": 1}, {"name": "セブン銀行 大和高田上大谷店", "address": "奈良県大和高田市大谷342-1", "lat": 34.5289247, "lon": 135.729013, "category": "ATM", "category_id": "0402785", "time": ["00:00-24:00"], "star": 0.0, "review": 0}, {"name": "JAバンク ATM 奈良県農業協同組合(JAならけん)かしば南CC", "address": "奈良県香芝市五位堂1-325-8", "lat": 34.5315786, "lon": 135.713011, "category": "ATM", "category_id": "0402785", "time": [], "star": 0.0, "review": 0}, {"name": "ローソン銀行 香芝瓦口共同出張所", "address": "奈良県香芝市瓦口32-1", "lat": 34.5338073, "lon": 135.720857, "category": "ATM", "category_id": "0402785", "time": ["00:00-24:00"], "star": 0.0, "review": 0}, {"name": "香芝別所郵便局", "address": "奈良県香芝市別所1025-1", "lat": 34.5343518, "lon": 135.721937, "category": "郵便局", "category_id": "0400993", "time": ["09:00-17:00"], "star": 3.43, "review": 4}, {"name": "CHARGE SPOT ゆうちょATM 近鉄五位堂駅内出張所", "address": "奈良県香芝市瓦口268", "lat": 34.5346858, "lon": 135.718075, "category": "モバイルバッテリーレンタルスポット", "category_id": "0403001", "time": [], "star": 0.0, "review": 0}], "スーパーマーケット": [{"name": "サンディ 五位堂店", "address": "奈良県香芝市別所8-1", "lat": 34.533007, "lon": 135.7219956, "category": "スーパー", "category_id": "0200612", "time": ["10:00-19:30"], "star": 4.05, "review": 145}, {"name": "ハーベス 五位堂店", "address": "奈良県香芝市瓦口2227", "lat": 34.536333011914024, "lon": 135.71724652925866, "category": "スーパー", "category_id": "0200612", "time": ["09:00-21:50"], "star": 3.72, "review": 226}, {"name": "オークワ香芝南店", "address": "奈良県香芝市鎌田390-1", "lat": 34.52416903, "lon": 135.7105108, "category": "スーパー", "category_id": "0200612", "time": ["09:00-22:00"], "star": 3.62, "review": 128}, {"name": "スーパーヤオヒコ 良福寺店", "address": "奈良県香芝市良福寺47-1", "lat": 34.5255549, "lon": 135.7090692, "category": "スーパー", "category_id": "0200612", "time": ["09:00-20:00"], "star": 3.56, "review": 125}, {"name": "ボトルワールドOK香芝店", "address": "奈良県香芝市別所52-1", "lat": 34.5334707, "lon": 135.7228598, "category": "スーパー", "category_id": "0200612", "time": [], "star": 3.94, "review": 3}, {"name": "サンドラッグ 奈良香芝店", "address": "奈良県香芝市別所５２－１", "lat": 34.53343753, "lon": 135.72280941, "category": "ドラッグストア", "category_id": "0200699", "time": ["09:15-20:45"], "star": 3.65, "review": 52}, {"name": "サンドラッグ良福寺店", "address": "奈良県香芝市良福寺51 ", "lat": 34.52610208, "lon": 135.7096525, "category": "ドラッグストア", "category_id": "0200699", "time": ["09:00-19:00"], "star": 3.83, "review": 70}]}, "top_restaurant": {"name": "925’scafe", "category": "飲食店", "star": 4.5, "review": 0}}, {"name": "ファミリー公園前", "name_en": "Family-Kōenmae", "lat": 34.598406, "lon": 135.785037, "osm_id": 10048234250, "operator": "", "railway": "station", "wikidata": "Q5433008", "wikipedia_tag": "ja:ファミリー公園前駅", "lines": [], "pref": "奈良県", "wikipedia_text": "ファミリー公園前駅（ファミリーこうえんまええき）は、奈良県大和郡山市宮堂町字毘沙門にある、近畿日本鉄道（近鉄）橿原線の駅。駅番号はB33。\n開業以来しばらくは、プール営業期間のみの臨時駅であったため一部の普通電車が通過していた時期もあったが、現在は終日停車している。", "wikipedia_image": "https://upload.wikimedia.org/wikipedia/commons/0/07/Family_koen-mae_stn.jpg", "nearest_convenience": {"name": "セブンイレブン天理稲葉町店", "lat": 34.5952829, "lon": 135.807165, "address": "", "distance_m": 2055, "brand": ""}, "nearest_restaurant": {"name": "Red beans", "lat": 34.604078, "lon": 135.794922, "address": "", "distance_m": 1103, "cuisine": "curry"}, "nearby_pois": {"コンビニ": [{"name": "ヤマザキショップコンビニエンスほりぐち", "address": "奈良県大和郡山市昭和町1-3", "lat": 34.60663473, "lon": 135.7809141, "category": "コンビニ", "category_id": "0200487", "time": [], "star": 0.0, "review": 0}], "飲食店": [{"name": "スイムピアカフェ", "address": "奈良県大和郡山市宮堂町310", "lat": 34.597973268136, "lon": 135.78395175623, "category": "カフェ・喫茶", "category_id": "0100344", "time": ["10:00-19:00"], "star": 2.0, "review": 1}, {"name": "森脇食品", "address": "奈良県大和郡山市昭和町124", "lat": 34.60664392, "lon": 135.78155043, "category": "豆腐料理店", "category_id": "0101925", "time": [], "star": 3.0, "review": 1}, {"name": "いろは", "address": "奈良県大和郡山市八条町3-1", "lat": 34.6021138, "lon": 135.7949849, "category": "オーガニックレストラン", "category_id": "0100316", "time": [], "star": 0.0, "review": 0}], "カフェ": [{"name": "スイムピアカフェ", "address": "奈良県大和郡山市宮堂町310", "lat": 34.597973268136, "lon": 135.78395175623, "category": "カフェ・喫茶", "category_id": "0100344", "time": ["10:00-19:00"], "star": 2.0, "review": 1}, {"name": "いろは", "address": "奈良県大和郡山市八条町3-1", "lat": 34.6021138, "lon": 135.7949849, "category": "オーガニックレストラン", "category_id": "0100316", "time": [], "star": 0.0, "review": 0}], "ドラッグストア": [{"name": "株式会社ショーワ薬局", "address": "奈良県大和郡山市昭和町6-1", "lat": 34.60635008, "lon": 135.78194818, "category": "調剤薬局", "category_id": "0202315", "time": [], "star": 0.0, "review": 0}, {"name": "有限会社レイルロード", "address": "奈良県大和郡山市昭和町6-3", "lat": 34.60635842, "lon": 135.78173471, "category": "調剤薬局", "category_id": "0202315", "time": [], "star": 0.0, "review": 0}], "ATM": [{"name": "ゆうちょ銀行 ATM 二階堂郵便局", "address": "奈良県天理市二階堂北菅田町176", "lat": 34.5970659, "lon": 135.794872, "category": "ATM", "category_id": "0402785", "time": [], "star": 0.0, "review": 0}, {"name": "ゆうちょ銀行 二階堂郵便局", "address": "奈良県天理市二階堂北菅田町176", "lat": 34.5970851, "lon": 135.794901, "category": "銀行", "category_id": "0402596", "time": [], "star": 4.0, "review": 1}, {"name": "JAバンク ATM 奈良県農業協同組合(JAならけん)昭和支店", "address": "奈良県大和郡山市昭和町58-1", "lat": 34.6067534, "lon": 135.782151, "category": "ATM", "category_id": "0402785", "time": [], "star": 0.0, "review": 0}, {"name": "JAバンク 奈良県農業協同組合(JAならけん)昭和支店", "address": "奈良県大和郡山市昭和町58-1", "lat": 34.60674, "lon": 135.782129, "category": "銀行", "category_id": "0402596", "time": ["08:45-15:00"], "star": 0.0, "review": 0}, {"name": "二階堂郵便局", "address": "奈良県天理市二階堂北菅田町176", "lat": 34.5970659, "lon": 135.794872, "category": "郵便局", "category_id": "0400993", "time": ["09:00-17:00"], "star": 3.25, "review": 4}]}, "top_restaurant": {"name": "森脇食品", "category": "豆腐料理店", "star": 3.0, "review": 1}}, {"name": "三本松", "name_en": "Sambommatsu", "lat": 34.5787051, "lon": 136.0363137, "osm_id": 7891898728, "operator": "近畿日本鉄道", "railway": "station", "wikidata": "Q860782", "wikipedia_tag": "ja:三本松駅 (奈良県)", "lines": [], "pref": "奈良県", "wikipedia_text": "三本松駅（さんぼんまつえき）\n\n三本松駅 (奈良県) - 奈良県宇陀市にある近鉄大阪線の駅。\n三本松駅 (香川県) - 香川県東かがわ市にあるJR四国高徳線の駅。", "nearest_convenience": {"name": "ファミリーマート", "lat": 34.6077374, "lon": 136.071458, "address": "", "distance_m": 4557, "brand": "ファミリーマート"}, "nearest_restaurant": {"name": "コレクションカフェ", "lat": 34.5795796, "lon": 136.0409964, "address": "", "distance_m": 440, "cuisine": ""}, "nearby_pois": {"飲食店": [{"name": "銭の花", "address": "奈良県宇陀市室生三本松3191-1", "lat": 34.57763476, "lon": 136.03505697, "category": "カフェ・喫茶", "category_id": "0100344", "time": ["10:00-17:00"], "star": 4.38, "review": 2}, {"name": "青葉の庄", "address": "奈良県宇陀市室生三本松3176-1", "lat": 34.576617698229, "lon": 136.03454335584, "category": "定食屋", "category_id": "0101441", "time": ["10:00-18:00"], "star": 3.78, "review": 13}, {"name": "焼肉一千鶴", "address": "奈良県宇陀市室生三本松4352-2", "lat": 34.57936243, "lon": 136.0409725199, "category": "焼肉店", "category_id": "0101963", "time": ["12:00-20:30"], "star": 4.22, "review": 5}, {"name": "道の駅 宇陀路室生", "address": "奈良県宇陀市室生三本松3176-1", "lat": 34.5765155, "lon": 136.0342593, "category": "道の駅", "category_id": "0302504", "time": ["09:00-18:00"], "star": 3.8, "review": 61}, {"name": "食いしんぼ しま村", "address": "奈良県宇陀市室生三本松2262-1", "lat": 34.5727741, "lon": 136.0296732, "category": "うどん店", "category_id": "0100033", "time": [], "star": 0.0, "review": 0}], "カフェ": [{"name": "銭の花", "address": "奈良県宇陀市室生三本松3191-1", "lat": 34.57763476, "lon": 136.03505697, "category": "カフェ・喫茶", "category_id": "0100344", "time": ["10:00-17:00"], "star": 4.38, "review": 2}, {"name": "コレクションカフェOld―New", "address": "奈良県宇陀市室生三本松4353-2", "lat": 34.57952574, "lon": 136.04095141, "category": "", "category_id": "", "time": [], "star": 0.0, "review": 0}], "ATM": [{"name": "ゆうちょ銀行 長瀬簡易郵便局", "address": "奈良県宇陀市室生三本松4181", "lat": 34.5795687, "lon": 136.042356, "category": "銀行", "category_id": "0402596", "time": [], "star": 0.0, "review": 0}]}, "top_restaurant": {"name": "銭の花", "category": "カフェ・喫茶", "star": 4.38, "review": 2}}, {"name": "三輪", "name_en": "Miwa", "lat": 34.5268994, "lon": 135.8486442, "osm_id": 7836351952, "operator": "", "railway": "station", "wikidata": "Q5362082", "wikipedia_tag": "ja:三輪駅", "lines": [], "pref": "奈良県", "wikipedia_text": "三輪駅（みわえき）は、奈良県桜井市大字三輪にある、西日本旅客鉄道（JR西日本）桜井線（万葉まほろば線）の駅である。", "wikipedia_image": "https://upload.wikimedia.org/wikipedia/commons/b/b0/Miwa_station_20190505.jpg", "nearest_convenience": {"name": "セブン-イレブン", "lat": 34.5206025, "lon": 135.8433554, "address": "", "distance_m": 851, "brand": "セブン-イレブン"}, "nearest_restaurant": {"name": "カフェ・ローズ", "lat": 34.5275585, "lon": 135.8534871, "address": "", "distance_m": 450, "cuisine": ""}, "nearby_pois": {"コンビニ": [{"name": "ミニストップ 桜井三輪店", "address": "奈良県桜井市三輪135", "lat": 34.5250658, "lon": 135.8433849, "category": "コンビニ", "category_id": "0200487", "time": [], "star": 4.4, "review": 28}, {"name": "セブンイレブン 桜井粟殿", "address": "奈良県桜井市粟殿605", "lat": 34.5205996, "lon": 135.8433711, "category": "コンビニ", "category_id": "0200487", "time": ["00:00-24:00"], "star": 3.84, "review": 49}], "ラーメン": [{"name": "ザ スタミナラーメン", "address": "奈良県桜井市大字三輪45-1", "lat": 34.522484838203, "lon": 135.84429962543, "category": "ラーメン店", "category_id": "0100097", "time": ["11:30-14:00", "19:00-22:00"], "star": 3.59, "review": 8}, {"name": "ウルトララーメン 桜井市芝店", "address": "奈良県桜井市芝293", "lat": 34.5326722, "lon": 135.840661, "category": "食料品店", "category_id": "0200122", "time": [], "star": 3.0, "review": 0}], "飲食店": [{"name": "名物みむろ最中 白玉屋榮壽 参道店", "address": "奈良県桜井市三輪460-17", "lat": 34.527635438201, "lon": 135.84751549548, "category": "和菓子店", "category_id": "0101310", "time": ["08:00-17:00"], "star": 3.99, "review": 34}, {"name": "カフェ 花凛", "address": "奈良県桜井市三輪384-2", "lat": 34.527225192128, "lon": 135.84774927365, "category": "カフェ・喫茶", "category_id": "0100344", "time": [], "star": 3.55, "review": 10}, {"name": "三輪伝承蔵", "address": "奈良県桜井市大字三輪元馬場方552", "lat": 34.5288766582, "lon": 135.84931851549, "category": "日本酒バー", "category_id": "0101683", "time": ["10:00-17:00"], "star": 3.98, "review": 9}, {"name": "明日葉奈良", "address": "奈良県桜井市三輪1186-2", "lat": 34.528224562647, "lon": 135.84469395321, "category": "カフェ・喫茶", "category_id": "0100344", "time": [], "star": 3.5, "review": 1}, {"name": "今西酒造", "address": "奈良県桜井市三輪510", "lat": 34.525428528202, "lon": 135.84709352546, "category": "日本酒バー", "category_id": "0101683", "time": ["09:00-17:30"], "star": 3.69, "review": 7}, {"name": "居酒屋 め組", "address": "奈良県桜井市三輪992-12", "lat": 34.5268300282, "lon": 135.84305472547, "category": "居酒屋", "category_id": "0101495", "time": ["16:00-23:00"], "star": 4.0, "review": 1}, {"name": "BAR たこ道", "address": "奈良県桜井市粟殿602-1", "lat": 34.5203582, "lon": 135.8440771, "category": "バー", "category_id": "0100536", "time": [], "star": 4.0, "review": 1}, {"name": "三輪そうめん流し", "address": "奈良県桜井市三輪460-24", "lat": 34.528212, "lon": 135.847735, "category": "和食店", "category_id": "0100126", "time": ["10:30-16:00"], "star": 4.33, "review": 88}, {"name": "Cafe 三輪座 駅前店", "address": "奈良県桜井市大字三輪354", "lat": 34.52701284, "lon": 135.84821034, "category": "カフェ・喫茶", "category_id": "0100344", "time": ["10:00-17:00"], "star": 4.04, "review": 15}, {"name": "タウザント", "address": "奈良県桜井市大字三輪1213-2", "lat": 34.52834824, "lon": 135.84721039, "category": "ドーナツ店", "category_id": "0100701", "time": ["11:30-16:00"], "star": 4.37, "review": 12}, {"name": "華どり", "address": "奈良県桜井市大字三輪666-3", "lat": 34.52882253, "lon": 135.84242965, "category": "飲食店", "category_id": "0102732", "time": [], "star": 4.75, "review": 4}, {"name": "千寿亭", "address": "奈良県桜井市芝293 ", "lat": 34.53257599, "lon": 135.84109054, "category": "和食店", "category_id": "0100126", "time": ["11:00-17:00"], "star": 4.29, "review": 104}, {"name": "花房", "address": "奈良県桜井市三輪666-3", "lat": 34.52882364, "lon": 135.84230994, "category": "焼肉店", "category_id": "0101963", "time": [], "star": 0.0, "review": 0}, {"name": "華水樹", "address": "奈良県桜井市三輪970-1", "lat": 34.52688777, "lon": 135.84336988, "category": "居酒屋", "category_id": "0101495", "time": ["11:00-14:00", "17:00-21:30"], "star": 3.99, "review": 18}, {"name": "井ざかや 酔ってっ亭", "address": "奈良県桜井市三輪366-6", "lat": 34.52708286110918, "lon": 135.84774967194434, "category": "居酒屋", "category_id": "0101495", "time": [], "star": 3.91, "review": 15}, {"name": "蕎麦 甘味 利久庵", "address": "奈良県桜井市三輪1186-2", "lat": 34.52844471196, "lon": 135.8446344181, "category": "蕎麦店", "category_id": "0100034", "time": ["10:00-16:00"], "star": 4.75, "review": 1}, {"name": "鳥敏の三軒となり", "address": "奈良県桜井市三輪555", "lat": 34.52701504, "lon": 135.84636103, "category": "居酒屋", "category_id": "0101495", "time": ["11:30-18:30"], "star": 4.75, "review": 4}, {"name": "ワロンカフェ", "address": "奈良県桜井市三輪225-1", "lat": 34.5299572382, "lon": 135.8503562555, "category": "カフェ・喫茶", "category_id": "0100344", "time": ["10:00-18:00"], "star": 3.98, "review": 11}, {"name": "居酒屋かわさき", "address": "奈良県桜井市大字三輪389-1", "lat": 34.52718392, "lon": 135.84715097, "category": "居酒屋", "category_id": "0101495", "time": [], "star": 3.5, "review": 2}, {"name": "ホッとなカフェ 紬", "address": "奈良県桜井市三輪1186-1", "lat": 34.52824726071206, "lon": 135.84469586325943, "category": "カフェ・喫茶", "category_id": "0100344", "time": ["09:00-18:00"], "star": 3.67, "review": 3}], "カフェ": [{"name": "カフェ 花凛", "address": "奈良県桜井市三輪384-2", "lat": 34.527225192128, "lon": 135.84774927365, "category": "カフェ・喫茶", "category_id": "0100344", "time": [], "star": 3.55, "review": 10}, {"name": "名物みむろ最中 白玉屋榮壽 参道店", "address": "奈良県桜井市三輪460-17", "lat": 34.527635438201, "lon": 135.84751549548, "category": "和菓子店", "category_id": "0101310", "time": ["08:00-17:00"], "star": 3.99, "review": 34}, {"name": "明日葉奈良", "address": "奈良県桜井市三輪1186-2", "lat": 34.528224562647, "lon": 135.84469395321, "category": "カフェ・喫茶", "category_id": "0100344", "time": [], "star": 3.5, "review": 1}, {"name": "Cafe 三輪座 駅前店", "address": "奈良県桜井市大字三輪354", "lat": 34.52701284, "lon": 135.84821034, "category": "カフェ・喫茶", "category_id": "0100344", "time": ["10:00-17:00"], "star": 4.04, "review": 15}, {"name": "ワロンカフェ", "address": "奈良県桜井市三輪225-1", "lat": 34.5299572382, "lon": 135.8503562555, "category": "カフェ・喫茶", "category_id": "0100344", "time": ["10:00-18:00"], "star": 3.98, "review": 11}, {"name": "Cafe&Dining OFFON", "address": "奈良県桜井市粟殿641-2 グリーンパーク三輪 1F", "lat": 34.521362568204, "lon": 135.84405354542, "category": "カフェ・喫茶", "category_id": "0100344", "time": ["11:00-22:00"], "star": 3.89, "review": 17}, {"name": "山辺の道 花もり", "address": "奈良県桜井市大字茅原222-4", "lat": 34.53300977, "lon": 135.85237191, "category": "カフェ・喫茶", "category_id": "0100344", "time": ["10:00-17:30"], "star": 4.25, "review": 30}, {"name": "ホッとなカフェ 紬", "address": "奈良県桜井市三輪1186-1", "lat": 34.52824726071206, "lon": 135.84469586325943, "category": "カフェ・喫茶", "category_id": "0100344", "time": ["09:00-18:00"], "star": 3.67, "review": 3}, {"name": "三輪そうめん流し", "address": "奈良県桜井市三輪460-24", "lat": 34.528212, "lon": 135.847735, "category": "和食店", "category_id": "0100126", "time": ["10:30-16:00"], "star": 4.33, "review": 88}, {"name": "ミワ華", "address": "奈良県桜井市三輪115-1 株式会社濱観光サービス 2F", "lat": 34.523963351788, "lon": 135.84374219753, "category": "カフェ・喫茶", "category_id": "0100344", "time": ["11:00-14:30"], "star": 0.0, "review": 0}, {"name": "かふぇ 楽", "address": "奈良県桜井市三輪1213-2", "lat": 34.52842684, "lon": 135.84738093, "category": "カフェ・喫茶", "category_id": "0100344", "time": ["09:00-16:00"], "star": 3.55, "review": 2}, {"name": "タウザント", "address": "奈良県桜井市大字三輪1213-2", "lat": 34.52834824, "lon": 135.84721039, "category": "ドーナツ店", "category_id": "0100701", "time": ["11:30-16:00"], "star": 4.37, "review": 12}, {"name": "カフェアンドダイニングオフオン", "address": "奈良県桜井市大字粟殿641-1", "lat": 34.52139948, "lon": 135.84405511, "category": "カフェ・喫茶", "category_id": "0100344", "time": [], "star": 4.0, "review": 2}, {"name": "カフェ・ド・ディアー", "address": "奈良県桜井市粟殿1036 シャングリラビル 1F", "lat": 34.519088665386, "lon": 135.84410267334, "category": "カフェ・喫茶", "category_id": "0100344", "time": ["07:30-19:00"], "star": 0.0, "review": 0}, {"name": "三輪の里池側", "address": "奈良県桜井市三輪250", "lat": 34.52989674, "lon": 135.85130675, "category": "甘味処", "category_id": "0102834", "time": [], "star": 3.79, "review": 15}, {"name": "詩", "address": "奈良県桜井市三輪992-16", "lat": 34.526803, "lon": 135.842808, "category": "カフェ・喫茶", "category_id": "0100344", "time": [], "star": 0.0, "review": 0}, {"name": "三輪の樹", "address": "奈良県桜井市三輪398-1", "lat": 34.527135, "lon": 135.845663, "category": "カフェ・喫茶", "category_id": "0100344", "time": [], "star": 0.0, "review": 0}, {"name": "CoCo", "address": "奈良県桜井市粟殿641-2", "lat": 34.5214599, "lon": 135.8440401, "category": "カフェ・喫茶", "category_id": "0100344", "time": [], "star": 0.0, "review": 0}, {"name": "喫茶緑", "address": "奈良県桜井市三輪36", "lat": 34.52246911, "lon": 135.84417099, "category": "カフェ・喫茶", "category_id": "0100344", "time": [], "star": 4.0, "review": 1}, {"name": "白玉屋榮壽 本店", "address": "奈良県桜井市三輪660-1", "lat": 34.52838287, "lon": 135.84297517, "category": "和菓子店", "category_id": "0101310", "time": ["08:00-19:00"], "star": 4.27, "review": 109}], "ドラッグストア": [{"name": "スギ薬局 桜井三輪店", "address": "奈良県桜井市大字三輪元松之本方132-1", "lat": 34.5243353, "lon": 135.8431794, "category": "ドラッグストア", "category_id": "0200699", "time": [], "star": 4.25, "review": 4}, {"name": "イノウエ薬局", "address": "奈良県桜井市大字三輪493", "lat": 34.52601517, "lon": 135.84736402, "category": "調剤薬局", "category_id": "0202315", "time": [], "star": 0.0, "review": 0}, {"name": "ゆう薬局", "address": "奈良県桜井市大字三輪46-1", "lat": 34.5223943, "lon": 135.8435671, "category": "調剤薬局", "category_id": "0202315", "time": [], "star": 0.0, "review": 0}, {"name": "ファーマライズ薬局 幸生堂薬局(三輪店)", "address": "奈良県桜井市芝349", "lat": 34.53287069, "lon": 135.8412933, "category": "調剤薬局", "category_id": "0202315", "time": [], "star": 0.0, "review": 0}, {"name": "木下薬局", "address": "奈良県桜井市大字芝1360", "lat": 34.53353979, "lon": 135.84165965, "category": "調剤薬局", "category_id": "0202315", "time": ["09:00-20:00"], "star": 0.0, "review": 0}, {"name": "ウエムラ薬局", "address": "奈良県桜井市大字粟殿733-1", "lat": 34.52023804, "lon": 135.84841514, "category": "調剤薬局", "category_id": "0202315", "time": [], "star": 0.0, "review": 0}], "ATM": [{"name": "ゆうちょ銀行 ATM 三輪郵便局", "address": "奈良県桜井市三輪543-1", "lat": 34.5262024, "lon": 135.847101, "category": "ATM", "category_id": "0402785", "time": [], "star": 0.0, "review": 0}, {"name": "ゆうちょ銀行 三輪郵便局", "address": "奈良県桜井市三輪543-1", "lat": 34.5262024, "lon": 135.847101, "category": "銀行", "category_id": "0402596", "time": [], "star": 0.0, "review": 0}, {"name": "JAバンク ATM 奈良県農業協同組合(JAならけん)三輪CC", "address": "奈良県桜井市三輪546", "lat": 34.5269111, "lon": 135.846647, "category": "ATM", "category_id": "0402785", "time": [], "star": 0.0, "review": 0}, {"name": "南都銀行ATM", "address": "奈良県桜井市大字三輪441-1", "lat": 34.5271747, "lon": 135.84429869, "category": "銀行", "category_id": "0402596", "time": [], "star": 0.0, "review": 0}, {"name": "ゆうちょ銀行 桜井郵便局", "address": "奈良県桜井市粟殿474-3", "lat": 34.5200453, "lon": 135.844099, "category": "銀行", "category_id": "0402596", "time": [], "star": 4.0, "review": 1}, {"name": "ゆうちょ銀行 ATM 桜井郵便局", "address": "奈良県桜井市粟殿474-3", "lat": 34.5200453, "lon": 135.844099, "category": "ATM", "category_id": "0402785", "time": [], "star": 0.0, "review": 0}, {"name": "イオン銀行 ATM ミニストップ桜井三輪店出張所(店内)", "address": "奈良県桜井市三輪135", "lat": 34.5250111, "lon": 135.843394, "category": "ATM", "category_id": "0402785", "time": ["00:00-24:00"], "star": 0.0, "review": 0}, {"name": "南都銀行 ATM 大神(奈良交通 三輪明神参道口前バス停スグ)", "address": "奈良県桜井市三輪441-1", "lat": 34.5271035, "lon": 135.844162, "category": "ATM", "category_id": "0402785", "time": [], "star": 0.0, "review": 0}, {"name": "みずほ銀行 ATM ミニストップ桜井三輪店出張所", "address": "奈良県桜井市三輪135", "lat": 34.5250346, "lon": 135.843381, "category": "ATM", "category_id": "0402785", "time": [], "star": 0.0, "review": 0}, {"name": "セブン銀行 桜井粟殿店", "address": "奈良県桜井市粟殿605", "lat": 34.5205919, "lon": 135.843406, "category": "ATM", "category_id": "0402785", "time": ["00:00-24:00"], "star": 0.0, "review": 0}, {"name": "JAバンク ATM 奈良県農業協同組合(JAならけん)織田支店", "address": "奈良県桜井市芝273-1", "lat": 34.5327071, "lon": 135.840327, "category": "ATM", "category_id": "0402785", "time": [], "star": 0.0, "review": 0}, {"name": "JAバンク ATM 奈良県農業協同組合(JAならけん)粟殿キャッシュコーナー", "address": "奈良県桜井市粟殿1027", "lat": 34.5185365, "lon": 135.846115, "category": "ATM", "category_id": "0402785", "time": [], "star": 0.0, "review": 0}, {"name": "JAバンク 奈良県農業協同組合(JAならけん)織田支店", "address": "奈良県桜井市芝273-1", "lat": 34.5327048, "lon": 135.840315, "category": "銀行", "category_id": "0402596", "time": [], "star": 0.0, "review": 0}]}, "top_restaurant": {"name": "華どり", "category": "飲食店", "star": 4.75, "review": 4}}, {"name": "上狛", "name_en": "Kamikoma", "lat": 34.7504339, "lon": 135.8212435, "osm_id": 7775105756, "operator": "西日本旅客鉄道", "railway": "station", "wikidata": "Q1049010", "wikipedia_tag": "ja:上狛駅", "lines": ["奈良線"], "pref": "奈良県", "nearby_bus_stops": [{"name": "上狛", "lat": 34.7520502, "lon": 135.8179034, "distance_m": 354, "operator": ""}, {"name": "上狛小学校", "lat": 34.7530794, "lon": 135.8179564, "distance_m": 420, "operator": ""}], "wikipedia_text": "上狛駅（かみこまえき）は、京都府木津川市山城町上狛北野田芝にある、西日本旅客鉄道（JR西日本）奈良線の駅である。駅番号はJR-D18。", "wikipedia_image": "https://upload.wikimedia.org/wikipedia/commons/0/03/%E4%B8%8A%E7%8B%9B%E9%A7%85%E8%88%8E%E5%A4%96%E8%A6%B3.jpg", "nearest_convenience": {"name": "デイリーヤマザキ", "lat": 34.7363783, "lon": 135.8232429, "address": "", "distance_m": 1574, "brand": "デイリーヤマザキ"}, "nearest_restaurant": {"name": "ユウ", "lat": 34.7495517, "lon": 135.8181609, "address": "", "distance_m": 298, "cuisine": ""}, "nearby_pois": {"コンビニ": [{"name": "ファミリーマート 山城上狛店", "address": "京都府木津川市山城町上狛野日向2-2", "lat": 34.7498017, "lon": 135.8185578, "category": "コンビニ", "category_id": "0200487", "time": ["00:00-24:00"], "star": 4.16, "review": 21}, {"name": "セブンイレブン 山城上狛", "address": "京都府木津川市山城町上狛猩々垣外5-1", "lat": 34.7519708, "lon": 135.8143553, "category": "コンビニ", "category_id": "0200487", "time": ["06:00-24:00"], "star": 4.17, "review": 32}], "飲食店": [{"name": "まつもと", "address": "京都府木津川市山城町上狛野日向28-1", "lat": 34.748338578942, "lon": 135.81889105946, "category": "定食屋", "category_id": "0101441", "time": [], "star": 0.0, "review": 0}, {"name": "ユウ", "address": "京都府木津川市山城町上狛野日向1-4", "lat": 34.7481161, "lon": 135.8185724, "category": "カフェ・喫茶", "category_id": "0100344", "time": [], "star": 0.0, "review": 0}, {"name": "カラオケ・日向", "address": "京都府木津川市山城町上狛野日向1-8", "lat": 34.749516, "lon": 135.818139, "category": "カフェ・喫茶", "category_id": "0100344", "time": [], "star": 0.0, "review": 0}, {"name": "すし園", "address": "京都府木津川市山城町上狛山神2-1", "lat": 34.74943447, "lon": 135.8152828, "category": "寿司店", "category_id": "0100101", "time": ["18:00-22:00"], "star": 4.0, "review": 1}, {"name": "カフェカラオケ和乃歌", "address": "京都府木津川市山城町上狛北的場5-2", "lat": 34.75036024, "lon": 135.81726287, "category": "カフェ・喫茶", "category_id": "0100344", "time": [], "star": 0.0, "review": 0}, {"name": "かしわ網焼食堂しんさん", "address": "京都府木津川市山城町上狛宝本5-2", "lat": 34.7529896, "lon": 135.81392503, "category": "焼き鳥店", "category_id": "0101960", "time": [], "star": 3.29, "review": 17}, {"name": "やきとり居酒屋太助", "address": "京都府木津川市山城町上狛野日向34", "lat": 34.74778, "lon": 135.8200833, "category": "焼き鳥店", "category_id": "0101960", "time": [], "star": 0.0, "review": 0}], "カフェ": [{"name": "カラオケ・日向", "address": "京都府木津川市山城町上狛野日向1-8", "lat": 34.749516, "lon": 135.818139, "category": "カフェ・喫茶", "category_id": "0100344", "time": [], "star": 0.0, "review": 0}, {"name": "ユウ", "address": "京都府木津川市山城町上狛野日向1-4", "lat": 34.7481161, "lon": 135.8185724, "category": "カフェ・喫茶", "category_id": "0100344", "time": [], "star": 0.0, "review": 0}, {"name": "カフェカラオケ和乃歌", "address": "京都府木津川市山城町上狛北的場5-2", "lat": 34.75036024, "lon": 135.81726287, "category": "カフェ・喫茶", "category_id": "0100344", "time": [], "star": 0.0, "review": 0}], "ATM": [{"name": "銀行ATM イーネット ファミリーマート山城上狛 共同出張所", "address": "京都府木津川市山城町上狛野日向2-2 ", "lat": 34.74978506, "lon": 135.81862443, "category": "ATM", "category_id": "0402785", "time": ["00:00-24:00"], "star": 0.0, "review": 0}, {"name": "南都銀行 ATM 木津川市山城支所駐車場内", "address": "京都府木津川市山城町上狛北的場3-1", "lat": 34.749887, "lon": 135.817471, "category": "ATM", "category_id": "0402785", "time": [], "star": 0.0, "review": 0}, {"name": "ゆうちょ銀行 ATM 山城町郵便局", "address": "京都府木津川市山城町上狛乾町1-4", "lat": 34.7517108, "lon": 135.817816, "category": "ATM", "category_id": "0402785", "time": [], "star": 0.0, "review": 0}, {"name": "ゆうちょ銀行 山城町郵便局", "address": "京都府木津川市山城町上狛乾町1-4", "lat": 34.7517108, "lon": 135.817816, "category": "銀行", "category_id": "0402596", "time": ["09:00-16:00"], "star": 0.0, "review": 0}, {"name": "セブン銀行 山城上狛店", "address": "京都府木津川市山城町上狛猩々垣外5-1", "lat": 34.7519346, "lon": 135.814405, "category": "ATM", "category_id": "0402785", "time": ["00:00-24:00"], "star": 0.0, "review": 0}, {"name": "JAバンク 京都やましろ農業協同組合(JA京都やましろ)山城支店", "address": "京都府木津川市山城町椿井柳田1-1", "lat": 34.7580524, "lon": 135.815564, "category": "銀行", "category_id": "0402596", "time": ["09:00-15:00"], "star": 0.0, "review": 0}, {"name": "JAバンク ATM 京都やましろ農業協同組合(JA京都やましろ)山城支店", "address": "京都府木津川市山城町椿井柳田1-1", "lat": 34.7580311, "lon": 135.815571, "category": "ATM", "category_id": "0402785", "time": [], "star": 0.0, "review": 0}], "スーパーマーケット": [{"name": "京都南部地方卸売市場丸寿青果株式会社", "address": "京都府木津川市山城町上狛日詰20", "lat": 34.74818251, "lon": 135.82063458, "category": "スーパー", "category_id": "0200612", "time": [], "star": 0.0, "review": 1}, {"name": "株式会社丸又園", "address": "京都府木津川市山城町上狛東岸下21", "lat": 34.7452869, "lon": 135.8163909, "category": "茶葉販売店", "category_id": "0200048", "time": [], "star": 0.0, "review": 0}]}, "top_restaurant": {"name": "すし園", "category": "寿司店", "star": 4.0, "review": 1}}, {"name": "下兵庫", "name_en": "Shimo-Hyogo", "lat": 34.3226895, "lon": 135.6348319, "osm_id": 267332906, "operator": "", "railway": "station", "wikidata": "Q3557822", "wikipedia_tag": "ja:下兵庫駅 (和歌山県)", "lines": [], "pref": "奈良県", "wikipedia_text": "下兵庫駅（しもひょうごえき）は、和歌山県橋本市隅田町下兵庫にある、西日本旅客鉄道（JR西日本）和歌山線の駅である。", "wikipedia_image": "https://upload.wikimedia.org/wikipedia/commons/0/05/Shimo-Hyogo_Station_202603.jpg", "nearest_convenience": {"name": "ローソン", "lat": 34.3246079, "lon": 135.6351616, "address": "", "distance_m": 215, "brand": "LAWSON"}, "nearest_restaurant": {"name": "朱鷺", "lat": 34.3242788, "lon": 135.6342155, "address": "", "distance_m": 186, "cuisine": ""}, "nearby_pois": {"コンビニ": [{"name": "ローソン 橋本隅田町", "address": "和歌山県橋本市隅田町下兵庫字中山82-4", "lat": 34.3245351, "lon": 135.6350432, "category": "コンビニ", "category_id": "0200487", "time": ["00:00-24:00"], "star": 4.21, "review": 9}, {"name": "セブンイレブン 橋本河瀬", "address": "和歌山県橋本市隅田町河瀬423", "lat": 34.3225242, "lon": 135.627905, "category": "コンビニ", "category_id": "0200487", "time": ["00:00-24:00"], "star": 4.08, "review": 11}], "飲食店": [{"name": "スターバックス コーヒー 和歌山橋本店", "address": "和歌山県橋本市隅田町下兵庫615-1", "lat": 34.322848, "lon": 135.629842, "category": "カフェ・喫茶", "category_id": "0100344", "time": ["08:00-22:00"], "star": 4.15, "review": 17}, {"name": "朱鷺", "address": "和歌山県橋本市隅田町下兵庫734-6", "lat": 34.324313768262, "lon": 135.63425066357, "category": "カフェ・喫茶", "category_id": "0100344", "time": ["08:30-17:30"], "star": 0.0, "review": 1}, {"name": "まごころ 隅田店", "address": "和歌山県橋本市隅田町下兵庫547-1", "lat": 34.32316191, "lon": 135.63075055, "category": "寿司店", "category_id": "0100101", "time": ["11:00-14:30", "17:00-22:00"], "star": 3.73, "review": 28}, {"name": "炭火焼肉屋さかい 和歌山橋本店", "address": "和歌山県橋本市隅田町下兵庫字中田519-2", "lat": 34.3238963, "lon": 135.6317685, "category": "焼肉店", "category_id": "0101963", "time": ["17:00-23:00"], "star": 3.94, "review": 7}, {"name": "E-ANBAI", "address": "和歌山県橋本市隅田町河瀬425-1", "lat": 34.32286834716797, "lon": 135.6288299560547, "category": "バー", "category_id": "0100536", "time": [], "star": 4.5, "review": 0}, {"name": "よっちゃん", "address": "和歌山県橋本市隅田町下兵庫94-3", "lat": 34.324685688262, "lon": 135.63580091358, "category": "焼肉店", "category_id": "0101963", "time": ["12:00-14:00"], "star": 3.85, "review": 9}, {"name": "和食さと 橋本店", "address": "和歌山県橋本市隅田町下兵庫619-1", "lat": 34.32144098, "lon": 135.63030756, "category": "和食店", "category_id": "0100126", "time": ["11:00-24:00"], "star": 3.01, "review": 9}, {"name": "しげよし 橋本店", "address": "和歌山県橋本市隅田町下兵庫 565-1", "lat": 34.3227424621582, "lon": 135.6302032470703, "category": "飲食店", "category_id": "0102732", "time": [], "star": 0.0, "review": 0}, {"name": "にぎり長次郎 橋本店", "address": "和歌山県橋本市隅田町下兵庫544-1", "lat": 34.32335744, "lon": 135.6312519, "category": "回転寿司店", "category_id": "0101332", "time": ["11:00-15:00", "17:00-22:00"], "star": 3.87, "review": 33}, {"name": "お好み焼き美希", "address": "和歌山県橋本市隅田町河瀬400", "lat": 34.32332853, "lon": 135.6276372, "category": "飲食店", "category_id": "0102732", "time": ["15:00-22:00"], "star": 0.0, "review": 0}, {"name": "和久", "address": "和歌山県橋本市隅田河瀬池之内379-4", "lat": 34.32207172, "lon": 135.62650926, "category": "うどん店", "category_id": "0100033", "time": ["11:00-15:00", "17:00-20:00"], "star": 3.35, "review": 34}, {"name": "SUN LAND", "address": "和歌山県橋本市隅田町河瀬 835-20", "lat": 34.3238708506, "lon": 135.627179132, "category": "飲食店", "category_id": "0102732", "time": [], "star": 0.0, "review": 0}, {"name": "チロル", "address": "和歌山県橋本市隅田町中島192", "lat": 34.32744619, "lon": 135.64323518, "category": "カフェ・喫茶", "category_id": "0100344", "time": ["07:30-19:00"], "star": 3.0, "review": 1}, {"name": "活魚廻転寿司にぎり長次郎橋本店", "address": "和歌山県橋本市隅田町下兵庫544-1", "lat": 34.32335883, "lon": 135.63125328, "category": "寿司店", "category_id": "0100101", "time": [], "star": 3.0, "review": 1}, {"name": "ワーク", "address": "和歌山県橋本市隅田町下兵庫565-1", "lat": 34.322749, "lon": 135.630228, "category": "居酒屋", "category_id": "0101495", "time": [], "star": 0.0, "review": 0}, {"name": "カレーハウス CoCo壱番屋 橋本国道24号店", "address": "和歌山県橋本市隅田町中島190-1", "lat": 34.3276292, "lon": 135.643784, "category": "カレー店", "category_id": "0100359", "time": ["11:00-21:30"], "star": 3.82, "review": 23}], "カフェ": [{"name": "スターバックス コーヒー 和歌山橋本店", "address": "和歌山県橋本市隅田町下兵庫615-1", "lat": 34.322848, "lon": 135.629842, "category": "カフェ・喫茶", "category_id": "0100344", "time": ["08:00-22:00"], "star": 4.15, "review": 17}, {"name": "朱鷺", "address": "和歌山県橋本市隅田町下兵庫734-6", "lat": 34.324313768262, "lon": 135.63425066357, "category": "カフェ・喫茶", "category_id": "0100344", "time": ["08:30-17:30"], "star": 0.0, "review": 1}, {"name": "田舎屋カフェ九鬼善", "address": "和歌山県橋本市隅田町下兵庫420", "lat": 34.32045165, "lon": 135.62910573, "category": "", "category_id": "", "time": [], "star": 3.0, "review": 1}, {"name": "チロル", "address": "和歌山県橋本市隅田町中島192", "lat": 34.32744619, "lon": 135.64323518, "category": "カフェ・喫茶", "category_id": "0100344", "time": ["07:30-19:00"], "star": 3.0, "review": 1}], "ATM": [{"name": "ローソン銀行 橋本隅田町共同出張所", "address": "和歌山県橋本市隅田町下兵庫字中山82-4", "lat": 34.3245719, "lon": 135.635112, "category": "ATM", "category_id": "0402785", "time": ["00:00-24:00"], "star": 0.0, "review": 0}, {"name": "セブン銀行 橋本河瀬店", "address": "和歌山県橋本市隅田町河瀬423", "lat": 34.3225683, "lon": 135.627906, "category": "ATM", "category_id": "0402785", "time": ["00:00-24:00"], "star": 0.0, "review": 0}], "スーパーマーケット": [{"name": "プロマート 橋本店", "address": "和歌山県橋本市隅田町下兵庫17-1", "lat": 34.323813, "lon": 135.6341794, "category": "業務用食材店", "category_id": "0201765", "time": ["09:00-19:30"], "star": 3.86, "review": 25}]}, "top_restaurant": {"name": "E-ANBAI", "category": "バー", "star": 4.5, "review": 0}}, {"name": "下市口", "name_en": "Shimoichiguchi", "lat": 34.3840535, "lon": 135.7870164, "osm_id": 7835222976, "operator": "", "railway": "station", "wikidata": "Q7496967", "wikipedia_tag": "ja:下市口駅", "lines": [], "pref": "奈良県", "nearby_bus_stops": [{"name": "下市口駅", "lat": 34.3832292, "lon": 135.7878575, "distance_m": 120, "operator": "奈良交通"}, {"name": "岡崎町", "lat": 34.3818494, "lon": 135.7870884, "distance_m": 245, "operator": ""}], "wikipedia_text": "下市口駅（しもいちぐちえき）は、奈良県吉野郡大淀町下渕にある、近畿日本鉄道（近鉄）吉野線の駅。駅番号はF52。\n駅名は吉野川（紀の川）を挟んだ下市町に由来する（詳しくは後述した#駅名の由来を参照）。大淀町、下市町はもとより、その南に位置する黒滝村、天川村へのバスが発着し、公共交通機関における、黒滝・天川村への玄関口ともなっている。\n開業当初は近隣の山林から産出される材木輸送などの貨物が重要な位置を占めていた。", "wikipedia_image": "https://upload.wikimedia.org/wikipedia/commons/5/53/%E8%BF%91%E9%89%84%E5%90%89%E9%87%8E%E7%B7%9A_%E4%B8%8B%E5%B8%82%E5%8F%A3%E9%A7%85_Shimoichiguchi_station_2010.4.04_-_panoramio.jpg", "nearest_convenience": {"name": "Lawson", "lat": 34.3839788, "lon": 135.7876746, "address": "", "distance_m": 61, "brand": "Lawson"}, "nearest_restaurant": {"name": "おけ常", "lat": 34.3773146, "lon": 135.78763, "address": "", "distance_m": 751, "cuisine": ""}, "nearby_pois": {"コンビニ": [{"name": "ローソン 近鉄下市口駅前", "address": "奈良県吉野郡大淀町下渕869-4", "lat": 34.3839233, "lon": 135.7878014, "category": "コンビニ", "category_id": "0200487", "time": ["06:00-23:00"], "star": 4.0, "review": 18}, {"name": "ローソン 大淀町下渕", "address": "奈良県吉野郡大淀町下渕21-1", "lat": 34.3821013, "lon": 135.7921845, "category": "コンビニ", "category_id": "0200487", "time": ["00:00-24:00"], "star": 3.65, "review": 21}, {"name": "ローソン 大淀町桧垣本", "address": "奈良県吉野郡大淀町桧垣本2319", "lat": 34.3927002, "lon": 135.7871762, "category": "コンビニ", "category_id": "0200487", "time": ["00:00-24:00"], "star": 3.48, "review": 20}], "ラーメン": [{"name": "ラーメン ならの", "address": "奈良県吉野郡大淀町下渕66", "lat": 34.38186244, "lon": 135.79064015, "category": "飲食店", "category_id": "0102732", "time": ["12:00-15:00", "17:00-20:00"], "star": 3.5, "review": 2}, {"name": "ビリケンラーメン", "address": "奈良県吉野郡大淀町下渕319", "lat": 34.38097359, "lon": 135.78617939, "category": "飲食店", "category_id": "0102732", "time": [], "star": 3.0, "review": 5}, {"name": "来来飯店 大淀店", "address": "奈良県吉野郡大淀町下渕42", "lat": 34.38223005785273, "lon": 135.7914739650949, "category": "中華料理店", "category_id": "0100990", "time": ["11:00-22:00"], "star": 4.05, "review": 43}, {"name": "宴や", "address": "奈良県吉野郡大淀町下渕1465", "lat": 34.38806756, "lon": 135.78334998, "category": "居酒屋", "category_id": "0101495", "time": ["17:00-23:00"], "star": 3.34, "review": 6}], "飲食店": [{"name": "我ガ家", "address": "奈良県吉野郡大淀町下渕825", "lat": 34.383668924242, "lon": 135.78665234622, "category": "たこ焼き店", "category_id": "0100134", "time": [], "star": 0.0, "review": 0}, {"name": "恵", "address": "奈良県吉野郡大淀町下渕319", "lat": 34.38099859, "lon": 135.78618772, "category": "お好み焼き店", "category_id": "0100046", "time": [], "star": 3.5, "review": 2}, {"name": "Grill&cafe the RED Piano", "address": "奈良県吉野郡大淀町下渕66", "lat": 34.381829668275, "lon": 135.79058825405, "category": "洋食店", "category_id": "0100129", "time": ["08:00-15:00", "17:00-21:00"], "star": 4.03, "review": 9}, {"name": "そんたんカフェ", "address": "奈良県吉野郡大淀町桧垣本1935", "lat": 34.387983048272, "lon": 135.79230798411, "category": "カフェ・喫茶", "category_id": "0100344", "time": ["09:00-17:00"], "star": 0.0, "review": 0}, {"name": "ラーメン ならの", "address": "奈良県吉野郡大淀町下渕66", "lat": 34.38186244, "lon": 135.79064015, "category": "飲食店", "category_id": "0102732", "time": ["12:00-15:00", "17:00-20:00"], "star": 3.5, "review": 2}, {"name": "どんちゃん食堂 大和大淀店", "address": "奈良県吉野郡大淀町下渕216-2", "lat": 34.382723669355, "lon": 135.78729535162, "category": "定食屋", "category_id": "0101441", "time": [], "star": 4.0, "review": 3}, {"name": "ヴィンテージ", "address": "奈良県吉野郡大淀町下渕21-1", "lat": 34.381915308275, "lon": 135.79178559405, "category": "カフェ・喫茶", "category_id": "0100344", "time": ["10:00-18:00"], "star": 4.0, "review": 12}, {"name": "ビリケンラーメン", "address": "奈良県吉野郡大淀町下渕319", "lat": 34.38097359, "lon": 135.78617939, "category": "飲食店", "category_id": "0102732", "time": [], "star": 3.0, "review": 5}, {"name": "小紋", "address": "奈良県吉野郡大淀町下渕683-4", "lat": 34.386556951129, "lon": 135.78220658666, "category": "カフェ・喫茶", "category_id": "0100344", "time": ["11:00-15:30"], "star": 3.9, "review": 5}, {"name": "割烹 三笠", "address": "奈良県吉野郡大淀町下渕151-1", "lat": 34.381905, "lon": 135.78865, "category": "割烹・小料理屋", "category_id": "0101190", "time": ["11:30-15:00", "17:00-21:00"], "star": 4.09, "review": 11}, {"name": "たらふく村", "address": "奈良県吉野郡大淀町大字下渕2", "lat": 34.38264712, "lon": 135.79357937, "category": "居酒屋", "category_id": "0101495", "time": [], "star": 4.2, "review": 4}, {"name": "喫茶おうきに", "address": "奈良県吉野郡大淀町下渕180-1", "lat": 34.3810847, "lon": 135.78728736, "category": "カフェ・喫茶", "category_id": "0100344", "time": ["08:00-18:00"], "star": 3.4, "review": 1}, {"name": "喫茶&スナックまりも", "address": "奈良県吉野郡大淀町下渕113-1", "lat": 34.38208462, "lon": 135.78873612, "category": "カフェ・喫茶", "category_id": "0100344", "time": [], "star": 3.68, "review": 4}, {"name": "鮨亀", "address": "奈良県吉野郡大淀町大字下渕361-7", "lat": 34.38489675, "lon": 135.78298065, "category": "寿司店", "category_id": "0100101", "time": ["17:00-23:00"], "star": 4.4, "review": 3}, {"name": "来来飯店 大淀店", "address": "奈良県吉野郡大淀町下渕42", "lat": 34.38223005785273, "lon": 135.7914739650949, "category": "中華料理店", "category_id": "0100990", "time": ["11:00-22:00"], "star": 4.05, "review": 43}, {"name": "庵", "address": "奈良県吉野郡大淀町大字桧垣本2112-9", "lat": 34.39028669827, "lon": 135.79039239413, "category": "カフェ・喫茶", "category_id": "0100344", "time": ["11:30-20:00"], "star": 3.74, "review": 5}, {"name": "カフェマロン", "address": "奈良県吉野郡大淀町桧垣本 2059-6", "lat": 34.38868713378906, "lon": 135.78787231445312, "category": "飲食店", "category_id": "0102732", "time": [], "star": 3.75, "review": 0}, {"name": "うどんカフェ 三和", "address": "奈良県吉野郡大淀町桧垣本2140-1", "lat": 34.39127564, "lon": 135.78912501, "category": "うどん店", "category_id": "0100033", "time": ["07:00-17:00"], "star": 4.03, "review": 14}, {"name": "更科食堂", "address": "奈良県吉野郡大淀町下渕183-7", "lat": 34.38083472, "lon": 135.78715377, "category": "うどん店", "category_id": "0100033", "time": ["10:00-20:00"], "star": 3.4, "review": 6}, {"name": "宴や", "address": "奈良県吉野郡大淀町下渕1465", "lat": 34.38806756, "lon": 135.78334998, "category": "居酒屋", "category_id": "0101495", "time": ["17:00-23:00"], "star": 3.34, "review": 6}], "カフェ": [{"name": "Grill&cafe the RED Piano", "address": "奈良県吉野郡大淀町下渕66", "lat": 34.381829668275, "lon": 135.79058825405, "category": "洋食店", "category_id": "0100129", "time": ["08:00-15:00", "17:00-21:00"], "star": 4.03, "review": 9}, {"name": "そんたんカフェ", "address": "奈良県吉野郡大淀町桧垣本1935", "lat": 34.387983048272, "lon": 135.79230798411, "category": "カフェ・喫茶", "category_id": "0100344", "time": ["09:00-17:00"], "star": 0.0, "review": 0}, {"name": "ヴィンテージ", "address": "奈良県吉野郡大淀町下渕21-1", "lat": 34.381915308275, "lon": 135.79178559405, "category": "カフェ・喫茶", "category_id": "0100344", "time": ["10:00-18:00"], "star": 4.0, "review": 12}, {"name": "小紋", "address": "奈良県吉野郡大淀町下渕683-4", "lat": 34.386556951129, "lon": 135.78220658666, "category": "カフェ・喫茶", "category_id": "0100344", "time": ["11:00-15:30"], "star": 3.9, "review": 5}, {"name": "喫茶&スナックまりも", "address": "奈良県吉野郡大淀町下渕113-1", "lat": 34.38208462, "lon": 135.78873612, "category": "カフェ・喫茶", "category_id": "0100344", "time": [], "star": 3.68, "review": 4}, {"name": "喫茶おうきに", "address": "奈良県吉野郡大淀町下渕180-1", "lat": 34.3810847, "lon": 135.78728736, "category": "カフェ・喫茶", "category_id": "0100344", "time": ["08:00-18:00"], "star": 3.4, "review": 1}, {"name": "カフェマロン", "address": "奈良県吉野郡大淀町桧垣本 2059-6", "lat": 34.38868713378906, "lon": 135.78787231445312, "category": "飲食店", "category_id": "0102732", "time": [], "star": 3.75, "review": 0}, {"name": "庵", "address": "奈良県吉野郡大淀町大字桧垣本2112-9", "lat": 34.39028669827, "lon": 135.79039239413, "category": "カフェ・喫茶", "category_id": "0100344", "time": ["11:30-20:00"], "star": 3.74, "review": 5}, {"name": "うどんカフェ 三和", "address": "奈良県吉野郡大淀町桧垣本2140-1", "lat": 34.39127564, "lon": 135.78912501, "category": "うどん店", "category_id": "0100033", "time": ["07:00-17:00"], "star": 4.03, "review": 14}, {"name": "ゆり", "address": "奈良県吉野郡大淀町下渕319", "lat": 34.3809975, "lon": 135.7861881, "category": "カフェ・喫茶", "category_id": "0100344", "time": [], "star": 0.0, "review": 0}, {"name": "ギャラリーカフェそんたん", "address": "奈良県吉野郡大淀町大字桧垣本1935", "lat": 34.38804683, "lon": 135.79233209, "category": "カフェ・喫茶", "category_id": "0100344", "time": [], "star": 0.0, "review": 0}, {"name": "ピエロ", "address": "奈良県吉野郡大淀町桧垣本7-5", "lat": 34.382993, "lon": 135.793842, "category": "カフェ・喫茶", "category_id": "0100344", "time": [], "star": 0.0, "review": 0}, {"name": "花", "address": "奈良県吉野郡大淀町桧垣本1829", "lat": 34.3901446, "lon": 135.7923321, "category": "カフェ・喫茶", "category_id": "0100344", "time": [], "star": 0.0, "review": 0}], "ドラッグストア": [{"name": "キリン堂ドラッグストア 大淀桧垣本店", "address": "奈良県吉野郡大淀町桧垣本1399-1", "lat": 34.3885312, "lon": 135.7953396, "category": "ドラッグストア", "category_id": "0200699", "time": ["09:00-21:00"], "star": 3.94, "review": 36}, {"name": "まるやす薬店", "address": "奈良県吉野郡大淀町大字下渕360", "lat": 34.38478567, "lon": 135.78369087, "category": "ドラッグストア", "category_id": "0200699", "time": [], "star": 0.0, "review": 0}, {"name": "おおよど薬局", "address": "奈良県吉野郡大淀町大字下渕359-10", "lat": 34.38460513, "lon": 135.78369088, "category": "調剤薬局", "category_id": "0202315", "time": [], "star": 4.0, "review": 1}, {"name": "クボ薬局", "address": "奈良県吉野郡大淀町下渕153-1", "lat": 34.3826262, "lon": 135.7875856, "category": "調剤薬局", "category_id": "0202315", "time": [], "star": 3.0, "review": 1}, {"name": "うちの薬局大淀店", "address": "奈良県吉野郡大淀町大字下渕81-4", "lat": 34.38141553, "lon": 135.78967079, "category": "調剤薬局", "category_id": "0202315", "time": [], "star": 0.0, "review": 0}, {"name": "さくら薬局大淀", "address": "奈良県吉野郡大淀町大字下渕376-1", "lat": 34.38389211, "lon": 135.7826371, "category": "調剤薬局", "category_id": "0202315", "time": ["09:00-18:00"], "star": 0.0, "review": 0}, {"name": "にしわき薬局しん町店", "address": "奈良県吉野郡大淀町大字下渕933", "lat": 34.38283679, "lon": 135.79086928, "category": "調剤薬局", "category_id": "0202315", "time": [], "star": 0.0, "review": 0}], "ATM": [{"name": "南都銀行 ATM 大淀支店・下市支店・黒滝支店 共同店舗", "address": "奈良県吉野郡大淀町下渕171-7", "lat": 34.381065, "lon": 135.787551, "category": "ATM", "category_id": "0402785", "time": [], "star": 0.0, "review": 0}, {"name": "ゆうちょ銀行 大淀下渕郵便局", "address": "奈良県吉野郡大淀町下渕156", "lat": 34.3822675, "lon": 135.787508, "category": "銀行", "category_id": "0402596", "time": [], "star": 4.0, "review": 1}, {"name": "ゆうちょ銀行 ATM 大淀下渕郵便局", "address": "奈良県吉野郡大淀町下渕156", "lat": 34.3823216, "lon": 135.787565, "category": "ATM", "category_id": "0402785", "time": [], "star": 0.0, "review": 0}, {"name": "JAバンク 奈良県農業協同組合(JAならけん)下市口駅前出張所", "address": "奈良県吉野郡大淀町下渕868-2", "lat": 34.383775, "lon": 135.7879, "category": "銀行", "category_id": "0402596", "time": ["08:45-15:00"], "star": 3.0, "review": 1}, {"name": "ローソン銀行 近鉄下市口駅前共同出張所", "address": "奈良県吉野郡大淀町下渕869-4", "lat": 34.3839099, "lon": 135.78774, "category": "ATM", "category_id": "0402785", "time": ["06:00-23:00"], "star": 0.0, "review": 0}, {"name": "南都銀行 ATM 大淀町役場横", "address": "奈良県吉野郡大淀町桧垣本2090", "lat": 34.3906021, "lon": 135.79031245, "category": "ATM", "category_id": "0402785", "time": [], "star": 0.0, "review": 0}, {"name": "JAバンク ATM 奈良県農業協同組合(JAならけん)下市口駅前出張所", "address": "奈良県吉野郡大淀町下渕868-2", "lat": 34.3838627, "lon": 135.787944, "category": "ATM", "category_id": "0402785", "time": [], "star": 0.0, "review": 0}, {"name": "ゆうちょ銀行 北町簡易郵便局", "address": "奈良県吉野郡大淀町下渕1243-3", "lat": 34.387988, "lon": 135.786369, "category": "銀行", "category_id": "0402596", "time": [], "star": 0.0, "review": 0}, {"name": "ゆうちょ銀行 新住簡易郵便局", "address": "奈良県吉野郡下市町新住65-1", "lat": 34.3794044, "lon": 135.783213, "category": "銀行", "category_id": "0402596", "time": [], "star": 0.0, "review": 0}, {"name": "JAATM", "address": "奈良県吉野郡下市町大字新住71-1", "lat": 34.37951286, "lon": 135.78382461, "category": "銀行", "category_id": "0402596", "time": [], "star": 0.0, "review": 0}, {"name": "JAバンク ATM 奈良県農業協同組合(JAならけん)新住キャッシュコーナー", "address": "奈良県吉野郡下市町新住71-1", "lat": 34.3793627, "lon": 135.783885, "category": "ATM", "category_id": "0402785", "time": [], "star": 0.0, "review": 0}, {"name": "ローソン銀行 大淀町下渕共同出張所", "address": "奈良県吉野郡大淀町下渕21-1", "lat": 34.3820594, "lon": 135.792175, "category": "ATM", "category_id": "0402785", "time": ["00:00-24:00"], "star": 0.0, "review": 0}, {"name": "大淀下渕郵便局", "address": "奈良県吉野郡大淀町大淀町下渕156", "lat": 34.38232072, "lon": 135.7875653, "category": "郵便局", "category_id": "0400993", "time": ["09:00-17:00"], "star": 3.0, "review": 2}, {"name": "ゆうちょ銀行 阿知賀簡易郵便局", "address": "奈良県吉野郡下市町阿知賀1087-5", "lat": 34.3802853, "lon": 135.794212, "category": "銀行", "category_id": "0402596", "time": [], "star": 0.0, "review": 0}, {"name": "ローソン銀行 大淀町桧垣本共同出張所", "address": "奈良県吉野郡大淀町桧垣本2321", "lat": 34.3927222, "lon": 135.787111, "category": "ATM", "category_id": "0402785", "time": ["00:00-24:00"], "star": 0.0, "review": 0}], "スーパーマーケット": [{"name": "オークワ大淀西店", "address": "奈良県吉野郡大淀町下渕645-5", "lat": 34.3898476, "lon": 135.78167952, "category": "スーパー", "category_id": "0200612", "time": ["09:00-22:00"], "star": 3.73, "review": 87}, {"name": "Aコープ 下市店", "address": "奈良県吉野郡下市町新住71-1", "lat": 34.379307, "lon": 135.7838741, "category": "スーパー", "category_id": "0200612", "time": ["09:30-19:00"], "star": 3.92, "review": 10}, {"name": "吉野ストアー本社", "address": "奈良県吉野郡 大淀町大字下渕360", "lat": 34.38485683, "lon": 135.78367509, "category": "スーパー", "category_id": "0200612", "time": [], "star": 2.0, "review": 2}, {"name": "キリン堂ドラッグストア 大淀桧垣本店", "address": "奈良県吉野郡大淀町桧垣本1399-1", "lat": 34.3885312, "lon": 135.7953396, "category": "ドラッグストア", "category_id": "0200699", "time": ["09:00-21:00"], "star": 3.94, "review": 36}]}, "top_restaurant": {"name": "鮨亀", "category": "寿司店", "star": 4.4, "review": 3}}, {"name": "二上神社口", "name_en": "Nijō-Jinjaguchi", "lat": 34.5318614, "lon": 135.6943402, "osm_id": 413337680, "operator": "", "railway": "station", "wikidata": "Q7034581", "wikipedia_tag": "ja:二上神社口駅", "lines": [], "pref": "奈良県", "wikipedia_text": "二上神社口駅（にじょうじんじゃぐちえき）は、奈良県葛城市加守にある、近畿日本鉄道（近鉄）南大阪線の駅。駅番号はF20。通常で急行・区間急行は通過するが、石光寺の牡丹開花時に隣の当麻寺駅と共に、一部の急行・区間急行が臨時停車（ただし14時台に1本のみ）する。1990年代前半までは、4月29日から5月5日にかけての土日祝祭日に、午前9時30分頃から午後4時30分頃までの上下快速急行（ぼたん号、上下各3 - 4本）及び急行（毎時上下各2本）が停車。上下それぞれ16本前後の臨時停車があった。", "wikipedia_image": "https://upload.wikimedia.org/wikipedia/commons/6/6a/%E8%BF%91%E9%89%84%E5%8D%97%E5%A4%A7%E9%98%AA%E7%B7%9A_%E4%BA%8C%E4%B8%8A%E7%A5%9E%E7%A4%BE%E5%8F%A3%E9%A7%85_Nij%C5%8Djinjaguchi_station%2C_Kintetsu_Minami-%C5%8Csaka_line_-_panoramio.jpg", "nearest_convenience": {"name": "ローソン", "lat": 34.5265571, "lon": 135.6953593, "address": "", "distance_m": 597, "brand": ""}, "nearest_restaurant": {"name": "", "lat": 34.5261413, "lon": 135.6925353, "address": "", "distance_m": 657, "cuisine": ""}, "nearby_pois": {"コンビニ": [{"name": "ローソン 葛城新在家", "address": "奈良県葛城市新在家455", "lat": 34.5268268, "lon": 135.6947287, "category": "コンビニ", "category_id": "0200487", "time": ["00:00-24:00"], "star": 4.35, "review": 38}, {"name": "セブンイレブン 葛城新在家", "address": "奈良県葛城市新在家349", "lat": 34.5260936, "lon": 135.6963397, "category": "コンビニ", "category_id": "0200487", "time": ["00:00-24:00"], "star": 3.52, "review": 21}, {"name": "セブンイレブン 香芝磯壁4丁目", "address": "奈良県香芝市狐井119", "lat": 34.5345509, "lon": 135.7041221, "category": "コンビニ", "category_id": "0200487", "time": ["00:00-24:00"], "star": 3.98, "review": 16}, {"name": "プラスワン ザ・ビッグエクストラ香芝店", "address": "奈良県香芝市畑2-1528 ザ・ビッグエクストラ香芝店1F", "lat": 34.53911679, "lon": 135.69427, "category": "靴修理店", "category_id": "0402692", "time": ["10:00-19:00"], "star": 4.21, "review": 230}], "飲食店": [{"name": "たいま～る", "address": "奈良県葛城市新在家390", "lat": 34.52626068317, "lon": 135.69226120535, "category": "カフェ・喫茶", "category_id": "0100344", "time": [], "star": 0.0, "review": 0}, {"name": "コーヒーハウス トモ", "address": "奈良県香芝市磯壁3-98-106", "lat": 34.53560236815, "lon": 135.70336062566, "category": "カフェ・喫茶", "category_id": "0100344", "time": ["09:00-17:00"], "star": 0.0, "review": 0}, {"name": "THE INY COFFEE", "address": "奈良県葛城市新在家389-1", "lat": 34.5261274, "lon": 135.6923377, "category": "飲食店", "category_id": "0102732", "time": ["10:00-18:00"], "star": 4.71, "review": 4}, {"name": "KAFUU", "address": "奈良県香芝市畑5-43-1", "lat": 34.53783492, "lon": 135.68865321, "category": "カフェ・喫茶", "category_id": "0100344", "time": ["11:30-16:00"], "star": 4.14, "review": 13}, {"name": "ジ イニー コーヒー", "address": "奈良県葛城市新在家389-1", "lat": 34.5258334, "lon": 135.6923596, "category": "カフェ・喫茶", "category_id": "0100344", "time": [], "star": 4.29, "review": 15}, {"name": "まいどおおきに食堂 香芝畑2丁目食堂", "address": "奈良県香芝市畑2-1459-1", "lat": 34.5400834, "lon": 135.6973031, "category": "定食屋", "category_id": "0101441", "time": ["10:30-21:30"], "star": 4.1, "review": 37}, {"name": "旬菜居酒屋 まるん", "address": "奈良県香芝市磯壁4-163-3", "lat": 34.53376156, "lon": 135.70359527, "category": "居酒屋", "category_id": "0101495", "time": ["17:30-24:00"], "star": 4.5, "review": 2}, {"name": "モンステラ", "address": "奈良県香芝市磯壁1-1057-3", "lat": 34.538990037341, "lon": 135.69977337454, "category": "カフェ・喫茶", "category_id": "0100344", "time": ["09:00-17:00"], "star": 4.18, "review": 45}, {"name": "郷土食 當麻の家", "address": "奈良県葛城市新在家402-1", "lat": 34.526453408081, "lon": 135.6931788129, "category": "郷土料理店", "category_id": "0100075", "time": ["10:00-15:00"], "star": 3.84, "review": 23}, {"name": "道の駅 ふたかみパーク當麻", "address": "奈良県葛城市新在家402-1", "lat": 34.5265241, "lon": 135.693276, "category": "道の駅", "category_id": "0302504", "time": ["09:00-17:00"], "star": 4.04, "review": 170}, {"name": "個室×海鮮 笑えもん あかり屋", "address": "奈良県香芝市磯壁4-160", "lat": 34.53499751, "lon": 135.70360385, "category": "居酒屋", "category_id": "0101495", "time": ["17:00-25:00"], "star": 3.89, "review": 20}, {"name": "ナジママキッチン", "address": "奈良県香芝市磯壁1-968", "lat": 34.53561065, "lon": 135.69684574, "category": "カフェ・喫茶", "category_id": "0100344", "time": ["11:30-17:00"], "star": 0.0, "review": 0}, {"name": "喫茶鈴鹿", "address": "奈良県香芝市磯壁4-160", "lat": 34.53494668, "lon": 135.70360662, "category": "カフェ・喫茶", "category_id": "0100344", "time": [], "star": 3.33, "review": 2}, {"name": "うだつ", "address": "奈良県香芝市磯壁 3丁目116-6", "lat": 34.53610899, "lon": 135.7013251, "category": "飲食店", "category_id": "0102732", "time": [], "star": 0.0, "review": 0}, {"name": "喫茶蘭", "address": "奈良県葛城市新在家390", "lat": 34.52636659, "lon": 135.69232083, "category": "カフェ・喫茶", "category_id": "0100344", "time": [], "star": 0.0, "review": 0}, {"name": "御生菓子司 朝日堂", "address": "奈良県香芝市磯壁4丁目425-1", "lat": 34.53323607, "lon": 135.70360945, "category": "和菓子店", "category_id": "0101310", "time": ["09:00-18:00"], "star": 3.82, "review": 11}, {"name": "鮨割烹 あい川", "address": "奈良県香芝市磯壁3-96-3", "lat": 34.53610153, "lon": 135.70351577, "category": "会席・懐石料理店", "category_id": "0101064", "time": ["09:00-18:00"], "star": 3.67, "review": 7}, {"name": "Dal Tama", "address": "奈良県香芝市狐井121-4", "lat": 34.53494330815, "lon": 135.70391337565, "category": "たこ焼き店", "category_id": "0100134", "time": [], "star": 3.0, "review": 1}, {"name": "結風パーラー", "address": "奈良県香芝市畑2-758-1", "lat": 34.538272668144, "lon": 135.6906619657, "category": "沖縄料理店", "category_id": "0101841", "time": ["13:00-19:00"], "star": 0.0, "review": 0}, {"name": "狸ばやし", "address": "奈良県香芝市磯壁2-1093-3", "lat": 34.53825177, "lon": 135.70115507, "category": "居酒屋", "category_id": "0101495", "time": ["17:00-22:00"], "star": 3.25, "review": 4}], "カフェ": [{"name": "ジ イニー コーヒー", "address": "奈良県葛城市新在家389-1", "lat": 34.5258334, "lon": 135.6923596, "category": "カフェ・喫茶", "category_id": "0100344", "time": [], "star": 4.29, "review": 15}, {"name": "たいま～る", "address": "奈良県葛城市新在家390", "lat": 34.52626068317, "lon": 135.69226120535, "category": "カフェ・喫茶", "category_id": "0100344", "time": [], "star": 0.0, "review": 0}, {"name": "KAFUU", "address": "奈良県香芝市畑5-43-1", "lat": 34.53783492, "lon": 135.68865321, "category": "カフェ・喫茶", "category_id": "0100344", "time": ["11:30-16:00"], "star": 4.14, "review": 13}, {"name": "コーヒーハウス トモ", "address": "奈良県香芝市磯壁3-98-106", "lat": 34.53560236815, "lon": 135.70336062566, "category": "カフェ・喫茶", "category_id": "0100344", "time": ["09:00-17:00"], "star": 0.0, "review": 0}, {"name": "モンステラ", "address": "奈良県香芝市磯壁1-1057-3", "lat": 34.538990037341, "lon": 135.69977337454, "category": "カフェ・喫茶", "category_id": "0100344", "time": ["09:00-17:00"], "star": 4.18, "review": 45}, {"name": "THE INY COFFEE", "address": "奈良県葛城市新在家389-1", "lat": 34.5261274, "lon": 135.6923377, "category": "飲食店", "category_id": "0102732", "time": ["10:00-18:00"], "star": 4.71, "review": 4}, {"name": "ナジママキッチン", "address": "奈良県香芝市磯壁1-968", "lat": 34.53561065, "lon": 135.69684574, "category": "カフェ・喫茶", "category_id": "0100344", "time": ["11:30-17:00"], "star": 0.0, "review": 0}, {"name": "喫茶鈴鹿", "address": "奈良県香芝市磯壁4-160", "lat": 34.53494668, "lon": 135.70360662, "category": "カフェ・喫茶", "category_id": "0100344", "time": [], "star": 3.33, "review": 2}, {"name": "喫茶蘭", "address": "奈良県葛城市新在家390", "lat": 34.52636659, "lon": 135.69232083, "category": "カフェ・喫茶", "category_id": "0100344", "time": [], "star": 0.0, "review": 0}, {"name": "S BAKE", "address": "奈良県香芝市磯壁4-163-3", "lat": 34.5338471, "lon": 135.70359249, "category": "ベーカリー", "category_id": "0100522", "time": ["09:00-18:00"], "star": 4.43, "review": 18}, {"name": "御生菓子司 朝日堂", "address": "奈良県香芝市磯壁4丁目425-1", "lat": 34.53323607, "lon": 135.70360945, "category": "和菓子店", "category_id": "0101310", "time": ["09:00-18:00"], "star": 3.82, "review": 11}], "ドラッグストア": [{"name": "中垣薬局", "address": "奈良県香芝市磯壁2丁目1090-15", "lat": 34.53830258, "lon": 135.70067788, "category": "調剤薬局", "category_id": "0202315", "time": [], "star": 3.0, "review": 0}], "ATM": [{"name": "ゆうちょ銀行 磯壁簡易郵便局", "address": "奈良県香芝市磯壁5-6-18", "lat": 34.5329657, "lon": 135.69912, "category": "銀行", "category_id": "0402596", "time": [], "star": 4.0, "review": 0}, {"name": "イオン銀行 ATM ザ・ビッグエクストラ香芝店出張所(店内)", "address": "奈良県香芝市畑2-1528", "lat": 34.5391409, "lon": 135.694543, "category": "ATM", "category_id": "0402785", "time": ["08:00-22:00"], "star": 0.0, "review": 0}, {"name": "みずほ銀行 ATM ザ・ビッグエクストラ香芝店出張所", "address": "奈良県香芝市畑2-1528", "lat": 34.5390903, "lon": 135.694601, "category": "ATM", "category_id": "0402785", "time": [], "star": 0.0, "review": 0}, {"name": "セブン銀行 葛城新在家店", "address": "奈良県葛城市新在家349", "lat": 34.5260369, "lon": 135.696378, "category": "ATM", "category_id": "0402785", "time": ["00:00-24:00"], "star": 0.0, "review": 0}, {"name": "ローソン銀行 葛城新在家共同出張所", "address": "奈良県葛城市新在家455", "lat": 34.5267715, "lon": 135.694774, "category": "ATM", "category_id": "0402785", "time": ["00:00-24:00"], "star": 0.0, "review": 0}, {"name": "セブン銀行 香芝磯壁4丁目店", "address": "奈良県香芝市狐井119", "lat": 34.534533, "lon": 135.704107, "category": "ATM", "category_id": "0402785", "time": ["00:00-24:00"], "star": 0.0, "review": 0}], "スーパーマーケット": [{"name": "プラスワン ザ・ビッグエクストラ香芝店", "address": "奈良県香芝市畑2-1528 ザ・ビッグエクストラ香芝店1F", "lat": 34.53911679, "lon": 135.69427, "category": "靴修理店", "category_id": "0402692", "time": ["10:00-19:00"], "star": 4.21, "review": 230}, {"name": "イオンビッグ香芝ショッピングセンター", "address": "奈良県香芝市畑2丁目1528", "lat": 34.5392973, "lon": 135.6947922, "category": "ショッピングセンター・モール", "category_id": "0200537", "time": [], "star": 4.08, "review": 49}, {"name": "ダイソー イオンビッグ香芝ショッピングセンター店", "address": "奈良県香芝市畑２丁目１５２８ ", "lat": 34.53911679, "lon": 135.69427, "category": "100円ショップ", "category_id": "0200001", "time": ["09:00-21:00"], "star": 4.49, "review": 29}, {"name": "THREEPPY イオンビッグ香芝ショッピングセンター店", "address": "奈良県香芝市畑２丁目１５２８ ", "lat": 34.53911679, "lon": 135.69427, "category": "100円ショップ", "category_id": "0200001", "time": ["09:00-21:00"], "star": 4.14, "review": 56}]}, "top_restaurant": {"name": "THE INY COFFEE", "category": "飲食店", "star": 4.71, "review": 4}}, {"name": "二階堂", "name_en": "Nikaidō", "lat": 34.6021124, "lon": 135.7958677, "osm_id": 8182433139, "operator": "", "railway": "station", "wikidata": "Q7034721", "wikipedia_tag": "ja:二階堂駅", "lines": [], "pref": "奈良県", "wikipedia_text": "二階堂駅（にかいどうえき）は、奈良県天理市二階堂上ノ庄町にある、近畿日本鉄道（近鉄）天理線の駅。駅番号はH33。\n天理市内の駅だが徒歩2 - 3分程度で大和郡山市との市境となり、駅すぐ西側を通る奈良県道193号筒井二階堂線を挟んで大和郡山市八条町と近接、同町内の東端の極一部の地域は当駅から徒歩圏内である。県道の他、駅の東側を国道25号が通っているが国道から直接駅へはアクセス出来ない。", "wikipedia_image": "https://upload.wikimedia.org/wikipedia/commons/5/51/Nikaido_Station_south_entrance.jpg", "nearest_convenience": {"name": "セブンイレブン天理稲葉町店", "lat": 34.5952829, "lon": 135.807165, "address": "", "distance_m": 1283, "brand": ""}, "nearest_restaurant": {"name": "Red beans", "lat": 34.604078, "lon": 135.794922, "address": "", "distance_m": 235, "cuisine": "curry"}, "nearby_pois": {"コンビニ": [{"name": "ファミリーマート 郡山南インター店", "address": "奈良県天理市南六条町元六条方179-1", "lat": 34.607617, "lon": 135.7983989, "category": "コンビニ", "category_id": "0200487", "time": ["00:00-24:00"], "star": 4.6, "review": 17}, {"name": "ローソン 天理中町南", "address": "奈良県天理市中町106-1", "lat": 34.6040536, "lon": 135.797974, "category": "コンビニ", "category_id": "0200487", "time": ["00:00-24:00"], "star": 4.4, "review": 46}, {"name": "カーコンビニ倶楽部 郡山インター店", "address": "奈良県天理市中町285-1", "lat": 34.6060033, "lon": 135.7971407, "category": "自動車修理・整備店", "category_id": "0400986", "time": [], "star": 0.0, "review": 0}, {"name": "和蔵 天然温泉「睡蓮の湯」 グランヴィリオホテル奈良和蔵 -ルートインホテルズ-", "address": "奈良県天理市二階堂上ノ庄町430-1", "lat": 34.59654882, "lon": 135.79670204, "category": "ホテル", "category_id": "0300124", "time": [], "star": 4.58, "review": 165}, {"name": "かね好", "address": "奈良県天理市中町142", "lat": 34.603712, "lon": 135.801893, "category": "お好み焼き店", "category_id": "0100046", "time": ["17:00-21:00"], "star": 0.0, "review": 0}], "ラーメン": [{"name": "豚菜館", "address": "奈良県天理市二階堂上ノ庄町24-6", "lat": 34.59980486, "lon": 135.79796102, "category": "ラーメン店", "category_id": "0100097", "time": ["11:15-15:00", "18:00-20:00"], "star": 3.99, "review": 136}, {"name": "IEKEI KANSAI 王道家直系 我道家", "address": "奈良県天理市中町218-1", "lat": 34.605467518135, "lon": 135.7979396163, "category": "ラーメン店", "category_id": "0100097", "time": ["11:00-15:00", "15:30-23:00"], "star": 3.17, "review": 92}, {"name": "神座 天理店", "address": "奈良県天理市荒蒔町359-3", "lat": 34.5962885, "lon": 135.797842, "category": "ラーメン店", "category_id": "0100097", "time": ["11:00-23:00"], "star": 0.0, "review": 0}, {"name": "餃子の王将 天理荒蒔町店", "address": "奈良県天理市荒蒔町359-3", "lat": 34.5959878, "lon": 135.7978686, "category": "餃子店", "category_id": "0102733", "time": ["11:00-22:30"], "star": 3.84, "review": 131}, {"name": "おしどり 天理本店", "address": "奈良県天理市二階堂上ノ庄町343-3", "lat": 34.599353, "lon": 135.798319, "category": "焼き鳥店", "category_id": "0101960", "time": ["17:00-24:00"], "star": 3.85, "review": 26}], "飲食店": [{"name": "cafe de Green Garden", "address": "奈良県天理市二階堂上ノ庄町334-1", "lat": 34.599063753743, "lon": 135.79837332209, "category": "カフェ・喫茶", "category_id": "0100344", "time": [], "star": 0.0, "review": 0}, {"name": "四季の蔵", "address": "奈良県天理市二階堂上の庄町430-1 グランヴリオホテル奈良 和蔵 1F", "lat": 34.596723820417, "lon": 135.7972241588, "category": "会席・懐石料理店", "category_id": "0101064", "time": ["06:30-09:30", "18:00-22:00"], "star": 3.9, "review": 3}, {"name": "脂醤油組 別邸", "address": "奈良県天理市中町218-1", "lat": 34.605458138135, "lon": 135.7979309763, "category": "定食屋", "category_id": "0101441", "time": [], "star": 0.0, "review": 0}, {"name": "赤いそら豆", "address": "奈良県大和郡山市八条町43-4", "lat": 34.603991788135, "lon": 135.79492568629, "category": "カフェ・喫茶", "category_id": "0100344", "time": ["10:00-16:00"], "star": 4.28, "review": 4}, {"name": "豚菜館", "address": "奈良県天理市二階堂上ノ庄町24-6", "lat": 34.59980486, "lon": 135.79796102, "category": "ラーメン店", "category_id": "0100097", "time": ["11:15-15:00", "18:00-20:00"], "star": 3.99, "review": 136}, {"name": "綿宗", "address": "奈良県大和郡山市八条町45", "lat": 34.60412847, "lon": 135.79488176, "category": "うなぎ料理店", "category_id": "0100035", "time": ["11:00-13:00", "16:30-19:00"], "star": 3.99, "review": 11}, {"name": "IEKEI KANSAI 王道家直系 我道家", "address": "奈良県天理市中町218-1", "lat": 34.605467518135, "lon": 135.7979396163, "category": "ラーメン店", "category_id": "0100097", "time": ["11:00-15:00", "15:30-23:00"], "star": 3.17, "review": 92}, {"name": "株式会社柿の葉ずし総本家平宗本社工場", "address": "奈良県天理市中町216", "lat": 34.60472571, "lon": 135.79851779, "category": "寿司店", "category_id": "0100101", "time": [], "star": 3.92, "review": 2}, {"name": "平宗 便利館", "address": "奈良県天理市中町217-2", "lat": 34.604751, "lon": 135.79845, "category": "寿司店", "category_id": "0100101", "time": ["09:30-19:00"], "star": 3.94, "review": 12}, {"name": "金平十", "address": "奈良県天理市二階堂上ノ庄町234-1", "lat": 34.59945686814, "lon": 135.79994917624, "category": "居酒屋", "category_id": "0101495", "time": [], "star": 3.5, "review": 2}, {"name": "ドトールキッチン EneJet天理稲葉店", "address": "奈良県天理市稲葉町94", "lat": 34.5945259, "lon": 135.8011423, "category": "カフェ・喫茶", "category_id": "0100344", "time": ["07:00-22:00"], "star": 3.94, "review": 39}, {"name": "おしどり 天理本店", "address": "奈良県天理市二階堂上ノ庄町343-3", "lat": 34.599353, "lon": 135.798319, "category": "焼き鳥店", "category_id": "0101960", "time": ["17:00-24:00"], "star": 3.85, "review": 26}, {"name": "焼肉 牛松", "address": "奈良県天理市荒蒔町357-2", "lat": 34.596319258141, "lon": 135.79830437621, "category": "焼肉店", "category_id": "0101963", "time": ["17:00-23:00"], "star": 4.03, "review": 7}, {"name": "お好み焼みなみ", "address": "奈良県天理市二階堂上ノ庄町23-3", "lat": 34.59976542, "lon": 135.79779076, "category": "お好み焼き店", "category_id": "0100046", "time": ["11:00-14:00", "17:00-21:00"], "star": 3.8, "review": 1}, {"name": "ガスト 天理店", "address": "奈良県天理市二階堂上ノ庄町167-1 ", "lat": 34.59701, "lon": 135.7979, "category": "ファミリーレストラン", "category_id": "0100788", "time": ["08:00-23:30"], "star": 3.81, "review": 104}, {"name": "大地のぶた 天理店", "address": "奈良県天理市嘉幡町671", "lat": 34.59366195, "lon": 135.79877081, "category": "しゃぶしゃぶ店", "category_id": "0100095", "time": ["18:00-22:30"], "star": 4.18, "review": 23}, {"name": "山中家上ノ庄店", "address": "奈良県天理市二階堂上ノ庄町235-2", "lat": 34.59949242, "lon": 135.79912869, "category": "たこ焼き店", "category_id": "0100134", "time": [], "star": 4.88, "review": 4}, {"name": "肉将軍風林火山 奈良天理店", "address": "奈良県天理市荒蒔町359-3", "lat": 34.5962975, "lon": 135.797965, "category": "焼肉店", "category_id": "0101963", "time": [], "star": 3.93, "review": 21}, {"name": "串カツ ほたる", "address": "奈良県天理市荒蒔町357-2 NEW245-1番館", "lat": 34.596191237336, "lon": 135.79831107504, "category": "串揚げ店", "category_id": "0101000", "time": ["18:00-23:30"], "star": 4.06, "review": 15}, {"name": "餃子の王将 天理荒蒔町店", "address": "奈良県天理市荒蒔町359-3", "lat": 34.5959878, "lon": 135.7978686, "category": "餃子店", "category_id": "0102733", "time": ["11:00-22:30"], "star": 3.84, "review": 131}], "カフェ": [{"name": "cafe de Green Garden", "address": "奈良県天理市二階堂上ノ庄町334-1", "lat": 34.599063753743, "lon": 135.79837332209, "category": "カフェ・喫茶", "category_id": "0100344", "time": [], "star": 0.0, "review": 0}, {"name": "赤いそら豆", "address": "奈良県大和郡山市八条町43-4", "lat": 34.603991788135, "lon": 135.79492568629, "category": "カフェ・喫茶", "category_id": "0100344", "time": ["10:00-16:00"], "star": 4.28, "review": 4}, {"name": "ドトールキッチン EneJet天理稲葉店", "address": "奈良県天理市稲葉町94", "lat": 34.5945259, "lon": 135.8011423, "category": "カフェ・喫茶", "category_id": "0100344", "time": ["07:00-22:00"], "star": 3.94, "review": 39}, {"name": "ギャラリーカフェ赤いそら豆", "address": "奈良県大和郡山市八条町43-4", "lat": 34.60399876, "lon": 135.79486454, "category": "", "category_id": "", "time": [], "star": 0.0, "review": 0}, {"name": "いろは", "address": "奈良県大和郡山市八条町3-1", "lat": 34.6021138, "lon": 135.7949849, "category": "オーガニックレストラン", "category_id": "0100316", "time": [], "star": 0.0, "review": 0}, {"name": "平宗 便利館", "address": "奈良県天理市中町217-2", "lat": 34.604751, "lon": 135.79845, "category": "寿司店", "category_id": "0100101", "time": ["09:30-19:00"], "star": 3.94, "review": 12}], "ドラッグストア": [{"name": "ジャパン 天理店", "address": "奈良県天理市二階堂上ノ庄町439-1", "lat": 34.5953073, "lon": 135.7975464, "category": "ディスカウントストア", "category_id": "0200677", "time": ["08:00-22:00"], "star": 4.19, "review": 82}], "ATM": [{"name": "ゆうちょ銀行 ATM 二階堂郵便局", "address": "奈良県天理市二階堂北菅田町176", "lat": 34.5970659, "lon": 135.794872, "category": "ATM", "category_id": "0402785", "time": [], "star": 0.0, "review": 0}, {"name": "ゆうちょ銀行 二階堂郵便局", "address": "奈良県天理市二階堂北菅田町176", "lat": 34.5970851, "lon": 135.794901, "category": "銀行", "category_id": "0402596", "time": [], "star": 4.0, "review": 1}, {"name": "銀行ATM イーネット ファミリーマート郡山南インター 共同出張所", "address": "奈良県天理市南六条町179-1 ", "lat": 34.60761148, "lon": 135.79838219, "category": "ATM", "category_id": "0402785", "time": ["00:00-24:00"], "star": 0.0, "review": 0}, {"name": "ローソン銀行 天理中町南共同出張所", "address": "奈良県天理市中町106-1", "lat": 34.6039869, "lon": 135.797938, "category": "ATM", "category_id": "0402785", "time": ["00:00-24:00"], "star": 0.0, "review": 0}, {"name": "南都銀行 ATM 嘉幡町(国道24号線嘉幡町交差点前)", "address": "奈良県天理市嘉幡町673-1", "lat": 34.5938978, "lon": 135.797907, "category": "ATM", "category_id": "0402785", "time": [], "star": 0.0, "review": 0}, {"name": "二階堂郵便局", "address": "奈良県天理市二階堂北菅田町176", "lat": 34.5970659, "lon": 135.794872, "category": "郵便局", "category_id": "0400993", "time": ["09:00-17:00"], "star": 3.25, "review": 4}], "スーパーマーケット": [{"name": "ジャパン 天理店", "address": "奈良県天理市二階堂上ノ庄町439-1", "lat": 34.5953073, "lon": 135.7975464, "category": "ディスカウントストア", "category_id": "0200677", "time": ["08:00-22:00"], "star": 4.19, "review": 82}]}, "top_restaurant": {"name": "山中家上ノ庄店", "category": "たこ焼き店", "star": 4.88, "review": 4}}, {"name": "五位堂", "name_en": "Goidō", "lat": 34.5348056, "lon": 135.7180662, "osm_id": 7890642618, "operator": "近畿日本鉄道", "railway": "station", "wikidata": "Q5577645", "wikipedia_tag": "ja:五位堂駅", "lines": [], "pref": "奈良県", "wikipedia_text": "五位堂駅（ごいどうえき）は、奈良県香芝市瓦口にある、近畿日本鉄道（近鉄）大阪線の駅である。副駅名は「真美ヶ丘ニュータウン・畿央大学前」（まみがおかニュータウン・きおうだいがくまえ）。駅番号はD23。", "wikipedia_image": "https://upload.wikimedia.org/wikipedia/commons/6/6f/Goido_stn.jpg", "nearest_convenience": {"name": "ファミリーマート", "lat": 34.5346464, "lon": 135.7180486, "address": "", "distance_m": 18, "brand": "FamilyMart"}, "nearest_restaurant": {"name": "味人", "lat": 34.5354436, "lon": 135.7187798, "address": "", "distance_m": 96, "cuisine": ""}, "nearby_pois": {"コンビニ": [{"name": "ファミリーマート 近鉄五位堂駅改札外橋上店", "address": "奈良県香芝市瓦口268", "lat": 34.5348734, "lon": 135.7181737, "category": "コンビニ", "category_id": "0200487", "time": ["05:45-23:15"], "star": 4.07, "review": 35}, {"name": "セブンイレブン 香芝五位堂3丁目", "address": "奈良県香芝市五位堂3-457-1", "lat": 34.5330541, "lon": 135.7168989, "category": "コンビニ", "category_id": "0200487", "time": ["00:00-24:00"], "star": 4.2, "review": 21}, {"name": "ローソン 香芝瓦口", "address": "奈良県香芝市瓦口32-1", "lat": 34.5337236, "lon": 135.7208263, "category": "コンビニ", "category_id": "0200487", "time": ["00:00-24:00"], "star": 3.85, "review": 20}, {"name": "セブンイレブン 香芝すみれ野1丁目", "address": "奈良県香芝市すみれ野1-15-1", "lat": 34.5412141, "lon": 135.7136462, "category": "コンビニ", "category_id": "0200487", "time": ["00:00-24:00"], "star": 3.94, "review": 27}, {"name": "ファミリーマート 香芝真美ヶ丘二丁目店", "address": "奈良県香芝市真美ヶ丘2-1-2", "lat": 34.5415003, "lon": 135.7192429, "category": "コンビニ", "category_id": "0200487", "time": ["00:00-24:00"], "star": 3.92, "review": 18}, {"name": "ローソン ならコープwithローソン真美ケ丘店", "address": "奈良県香芝市真美ヶ丘1丁目14-5", "lat": 34.5413144, "lon": 135.7184875, "category": "コンビニ", "category_id": "0200487", "time": [], "star": 4.11, "review": 32}, {"name": "ハーベス 五位堂店", "address": "奈良県香芝市瓦口2227", "lat": 34.536333011914024, "lon": 135.71724652925866, "category": "スーパー", "category_id": "0200612", "time": ["09:00-21:50"], "star": 3.72, "review": 226}, {"name": "ならコープ 真美ヶ丘", "address": "奈良県香芝市真美ケ丘1-14-5", "lat": 34.5412379, "lon": 135.718516, "category": "スーパー", "category_id": "0200612", "time": ["09:00-19:00"], "star": 4.11, "review": 54}], "ラーメン": [{"name": "BarRISE", "address": "奈良県香芝市瓦口69", "lat": 34.53501386, "lon": 135.71663384, "category": "ラーメン店", "category_id": "0100097", "time": [], "star": 4.14, "review": 6}, {"name": "喜MAMA屋", "address": "奈良県香芝市瓦口2302", "lat": 34.53548386, "lon": 135.71911388, "category": "ラーメン店", "category_id": "0100097", "time": ["11:30-14:00", "18:00-23:00"], "star": 3.76, "review": 18}, {"name": "文福", "address": "奈良県香芝市下田東3-1214-8", "lat": 34.54080477, "lon": 135.71514803, "category": "ラーメン店", "category_id": "0100097", "time": ["11:00-14:30", "18:00-23:00"], "star": 3.92, "review": 15}, {"name": "野菜肉巻きと博多もつ鍋のお店 金太郎 五位堂駅前店", "address": "奈良県香芝市瓦口2250-1", "lat": 34.536322818154, "lon": 135.71836282566, "category": "もつ鍋料理店", "category_id": "0100208", "time": ["17:00-24:00"], "star": 3.59, "review": 4}], "飲食店": [{"name": "ワリゴノアキヅ", "address": "奈良県香芝市瓦口2236 シャーメゾン1F", "lat": 34.536079614282, "lon": 135.71791142822, "category": "定食屋", "category_id": "0101441", "time": [], "star": 4.17, "review": 2}, {"name": "デイ アフター デイ コーヒー", "address": "奈良県香芝市瓦口2238 シャーメゾン秋山 101", "lat": 34.535982448154, "lon": 135.71762940565, "category": "カフェ・喫茶", "category_id": "0100344", "time": ["10:00-19:00"], "star": 3.48, "review": 6}, {"name": "HiLViS", "address": "奈良県香芝市瓦口2251-1 倭ビル 2F", "lat": 34.536346158154, "lon": 135.71861406566, "category": "パスタ料理店", "category_id": "0100575", "time": [], "star": 4.0, "review": 4}, {"name": "かじゅある割烹 絵空", "address": "奈良県香芝市瓦口68 サントゥネール寿ビル 1F", "lat": 34.535327508154, "lon": 135.71639719565, "category": "和食店", "category_id": "0100126", "time": [], "star": 3.63, "review": 9}, {"name": "mimi DAYAFTERDAYCOFFEE", "address": "奈良県香芝市瓦口2238シャーメゾン秋山101", "lat": 34.536022276209, "lon": 135.71770966138, "category": "カフェ・喫茶", "category_id": "0100344", "time": [], "star": 0.0, "review": 0}, {"name": "澤田酒造 蔵元直売所・角打ち処", "address": "奈良県香芝市五位堂3-590-1", "lat": 34.534144048155, "lon": 135.71663903564, "category": "立ち飲み店", "category_id": "0102815", "time": ["09:30-22:00"], "star": 3.9, "review": 3}, {"name": "紅榮", "address": "奈良県香芝市瓦口サントゥネール寿 1F68-1", "lat": 34.535311016178, "lon": 135.71639192392, "category": "居酒屋", "category_id": "0101495", "time": [], "star": 0.0, "review": 0}, {"name": "マゼソバアイガ トマラナイ #TRICO", "address": "奈良県香芝市五位堂3丁目602-1 エムエフビル 106号", "lat": 34.53433176, "lon": 135.7181265, "category": "飲食店", "category_id": "0102732", "time": ["11:00-14:00"], "star": 4.4, "review": 2}, {"name": "豚と酒と飯 ぽるく", "address": "奈良県香芝市別所123-3", "lat": 34.532766288158, "lon": 135.72505333562, "category": "居酒屋", "category_id": "0101495", "time": ["11:30-14:30", "17:00-23:00"], "star": 3.48, "review": 10}, {"name": "ビッグボーイ 香芝五位堂店", "address": "奈良県香芝市瓦口159-3", "lat": 34.5363315, "lon": 135.7194902, "category": "ファミリーレストラン", "category_id": "0100788", "time": [], "star": 4.01, "review": 118}, {"name": "寿司と炉端 あっぱれ", "address": "奈良県香芝市瓦口2250-1", "lat": 34.536362, "lon": 135.718358, "category": "居酒屋", "category_id": "0101495", "time": ["17:00-25:00"], "star": 4.38, "review": 10}, {"name": "Lungo", "address": "奈良県香芝市五位堂3-599-2 ホワイトタウン 1F", "lat": 34.534413928155, "lon": 135.71700842564, "category": "イタリア料理店", "category_id": "0100263", "time": ["17:00-24:00"], "star": 4.07, "review": 10}, {"name": "CAFE&BAR Woodstock", "address": "奈良県香芝市瓦口2238", "lat": 34.536039938154, "lon": 135.71774293565, "category": "カフェ・喫茶", "category_id": "0100344", "time": ["17:00-24:00"], "star": 4.48, "review": 18}, {"name": "こよみ", "address": "奈良県香芝市五位堂3-599-2 ホワイトタウン 104", "lat": 34.534397938155, "lon": 135.71699550564, "category": "居酒屋", "category_id": "0101495", "time": ["12:00-15:00", "17:00-24:00"], "star": 4.23, "review": 26}, {"name": "炎宴", "address": "奈良県香芝市瓦口32-7", "lat": 34.534136738156, "lon": 135.72087302563, "category": "居酒屋", "category_id": "0101495", "time": ["17:00-23:00"], "star": 4.34, "review": 9}, {"name": "五位堂酒場 ももちゃん", "address": "奈良県香芝市五位堂3-602-1", "lat": 34.53434393735, "lon": 135.71813517448, "category": "居酒屋", "category_id": "0101495", "time": ["18:00-24:00"], "star": 3.36, "review": 9}, {"name": "にぎわい酒場 葛菜", "address": "奈良県香芝市瓦口61 カルタボンビル1F", "lat": 34.53505664, "lon": 135.71689882, "category": "居酒屋", "category_id": "0101495", "time": ["11:30-15:00", "18:00-24:00"], "star": 3.99, "review": 21}, {"name": "アミティエ", "address": "奈良県香芝市瓦口2166", "lat": 34.5374868, "lon": 135.7171211, "category": "カフェ・喫茶", "category_id": "0100344", "time": [], "star": 4.0, "review": 1}, {"name": "カフェ コロン", "address": "奈良県香芝市瓦口2305", "lat": 34.53476867, "lon": 135.71939498, "category": "カフェ・喫茶", "category_id": "0100344", "time": ["09:00-18:00"], "star": 3.75, "review": 17}, {"name": "大倉本家エキマエノミセ", "address": "奈良県香芝市五位堂3-602-1-101", "lat": 34.534462468155, "lon": 135.71811258564, "category": "日本酒バー", "category_id": "0101683", "time": ["17:00-22:00"], "star": 4.03, "review": 9}], "カフェ": [{"name": "デイ アフター デイ コーヒー", "address": "奈良県香芝市瓦口2238 シャーメゾン秋山 101", "lat": 34.535982448154, "lon": 135.71762940565, "category": "カフェ・喫茶", "category_id": "0100344", "time": ["10:00-19:00"], "star": 3.48, "review": 6}, {"name": "カフェ コロン", "address": "奈良県香芝市瓦口2305", "lat": 34.53476867, "lon": 135.71939498, "category": "カフェ・喫茶", "category_id": "0100344", "time": ["09:00-18:00"], "star": 3.75, "review": 17}, {"name": "mimi DAYAFTERDAYCOFFEE", "address": "奈良県香芝市瓦口2238シャーメゾン秋山101", "lat": 34.536022276209, "lon": 135.71770966138, "category": "カフェ・喫茶", "category_id": "0100344", "time": [], "star": 0.0, "review": 0}, {"name": "cafe braliva", "address": "奈良県香芝市瓦口2215", "lat": 34.53691888, "lon": 135.71569639, "category": "カフェ・喫茶", "category_id": "0100344", "time": ["11:30-21:30"], "star": 3.89, "review": 27}, {"name": "CAFE&BAR Woodstock", "address": "奈良県香芝市瓦口2238", "lat": 34.536039938154, "lon": 135.71774293565, "category": "カフェ・喫茶", "category_id": "0100344", "time": ["17:00-24:00"], "star": 4.48, "review": 18}, {"name": "Pilot Coffee kitchen", "address": "奈良県香芝市真美ケ丘2-13-8", "lat": 34.540338028152, "lon": 135.7186156757, "category": "カフェ・喫茶", "category_id": "0100344", "time": ["11:00-22:00"], "star": 3.71, "review": 8}, {"name": "クリーム ドール", "address": "奈良県香芝市瓦口2251-1", "lat": 34.536304728154, "lon": 135.71866443566, "category": "ケーキ店", "category_id": "0100460", "time": ["09:30-20:00"], "star": 3.76, "review": 29}, {"name": "アミティエ", "address": "奈良県香芝市瓦口2166", "lat": 34.5374868, "lon": 135.7171211, "category": "カフェ・喫茶", "category_id": "0100344", "time": [], "star": 4.0, "review": 1}, {"name": "Umi食堂", "address": "奈良県香芝市西真美1丁目33-4", "lat": 34.54142967, "lon": 135.71396367, "category": "カフェ・喫茶", "category_id": "0100344", "time": [], "star": 4.33, "review": 37}, {"name": "MIMIIA BY INTERIOR", "address": "奈良県香芝市真美ケ丘3-12-4", "lat": 34.53608805, "lon": 135.72415592, "category": "カフェ・喫茶", "category_id": "0100344", "time": [], "star": 4.2, "review": 4}, {"name": "カラオケステージふらっと(FLAT)", "address": "奈良県香芝市五位堂3丁目599-2", "lat": 34.534377, "lon": 135.716963, "category": "カフェ・喫茶", "category_id": "0100344", "time": [], "star": 4.0, "review": 1}, {"name": "ホットクラブ", "address": "奈良県香芝市瓦口68 サントゥネール寿ビル 1F", "lat": 34.535238438154, "lon": 135.71636851565, "category": "カフェ・喫茶", "category_id": "0100344", "time": ["11:00-18:00"], "star": 0.0, "review": 0}, {"name": "喫茶アロマ", "address": "奈良県香芝市五位堂3丁目455", "lat": 34.53372236, "lon": 135.71684996, "category": "カフェ・喫茶", "category_id": "0100344", "time": [], "star": 4.0, "review": 1}, {"name": "KOTOBUKI COFFEE", "address": "奈良県香芝市瓦口74-3", "lat": 34.535636178456, "lon": 135.71574551651, "category": "飲食店", "category_id": "0102732", "time": [], "star": 4.0, "review": 2}, {"name": "グリーンノート", "address": "奈良県香芝市五位堂3丁目602-1", "lat": 34.5343338, "lon": 135.7181255, "category": "カフェ・喫茶", "category_id": "0100344", "time": [], "star": 0.0, "review": 0}, {"name": "SOLA CAFE", "address": "奈良県香芝市五位堂5-21-3", "lat": 34.52670715, "lon": 135.71665125, "category": "カフェ・喫茶", "category_id": "0100344", "time": ["11:00-17:00"], "star": 3.55, "review": 4}, {"name": "ボードゲームカフェCARIVAN", "address": "奈良県香芝市真美ケ丘 2-13-8", "lat": 34.54033379, "lon": 135.71861245, "category": "飲食店", "category_id": "0102732", "time": ["10:00-22:00"], "star": 0.0, "review": 1}, {"name": "バンビーナ", "address": "奈良県香芝市別所74-5", "lat": 34.531403468159, "lon": 135.7250564056, "category": "カフェ・喫茶", "category_id": "0100344", "time": [], "star": 0.0, "review": 0}, {"name": "RISE", "address": "奈良県香芝市瓦口69-1", "lat": 34.535029558154, "lon": 135.71669296565, "category": "バー", "category_id": "0100536", "time": [], "star": 3.75, "review": 1}, {"name": "大倉本家エキマエノミセ", "address": "奈良県香芝市五位堂3-602-1-101", "lat": 34.534462468155, "lon": 135.71811258564, "category": "日本酒バー", "category_id": "0101683", "time": ["17:00-22:00"], "star": 4.03, "review": 9}], "ドラッグストア": [{"name": "サンドラッグ 奈良香芝店", "address": "奈良県香芝市別所５２－１", "lat": 34.53343753, "lon": 135.72280941, "category": "ドラッグストア", "category_id": "0200699", "time": ["09:15-20:45"], "star": 3.65, "review": 52}, {"name": "クスリのアオキ 真美ヶ丘店", "address": "奈良県香芝市真美ヶ丘2-13-17", "lat": 34.540681, "lon": 135.7188763, "category": "ドラッグストア", "category_id": "0200699", "time": ["09:00-22:00"], "star": 4.2, "review": 21}, {"name": "スギ薬局 香芝別所店", "address": "奈良県香芝市別所123-1", "lat": 34.5322302, "lon": 135.725788, "category": "ドラッグストア", "category_id": "0200699", "time": ["09:00-22:00"], "star": 4.26, "review": 20}, {"name": "サンドラッグ 香芝良福寺店", "address": "奈良県香芝市良福寺１４１－１", "lat": 34.53149308, "lon": 135.71116611, "category": "ドラッグストア", "category_id": "0200699", "time": ["09:00-21:00"], "star": 4.5, "review": 1}, {"name": "くすりのア・ム", "address": "奈良県香芝市瓦口61", "lat": 34.5350872, "lon": 135.7168933, "category": "漢方", "category_id": "0201946", "time": [], "star": 3.0, "review": 0}, {"name": "サン薬局 五位堂店", "address": "奈良県香芝市瓦口2309-1 I.Bグランド", "lat": 34.5351247, "lon": 135.719165, "category": "調剤薬局", "category_id": "0202315", "time": ["09:00-19:30"], "star": 3.5, "review": 2}, {"name": "スギ薬局 香芝別所店", "address": "奈良県香芝市別所123-1", "lat": 34.5322155, "lon": 135.7257564, "category": "調剤薬局", "category_id": "0202315", "time": [], "star": 4.5, "review": 2}, {"name": "クスリのアオキ調剤 真美ヶ丘店", "address": "奈良県香芝市真美ヶ丘2-13-17", "lat": 34.5406978, "lon": 135.718894, "category": "調剤薬局", "category_id": "0202315", "time": ["09:00-22:00"], "star": 4.75, "review": 3}, {"name": "ここみ薬局", "address": "奈良県香芝市瓦口2341", "lat": 34.53551631, "lon": 135.71729294, "category": "調剤薬局", "category_id": "0202315", "time": [], "star": 3.0, "review": 0}, {"name": "かなで薬局五位堂店", "address": "奈良県香芝市五位堂3丁目436-12", "lat": 34.53345413, "lon": 135.71990357, "category": "調剤薬局", "category_id": "0202315", "time": [], "star": 3.0, "review": 0}, {"name": "ファーマシィ薬局 真美ヶ丘", "address": "奈良県香芝市真美ヶ丘1-14-5", "lat": 34.5413, "lon": 135.718544, "category": "調剤薬局", "category_id": "0202315", "time": [], "star": 4.0, "review": 1}, {"name": "ユニスマイル薬局 香芝店", "address": "奈良県香芝市五位堂1-298-1", "lat": 34.5306405, "lon": 135.71537406, "category": "医療・薬・保険衛生関連", "category_id": "0401237", "time": ["08:30-20:00"], "star": 0.0, "review": 0}, {"name": "若葉薬局香芝店", "address": "奈良県香芝市五位堂1007", "lat": 34.53455121, "lon": 135.71953469, "category": "医療・薬・保険衛生関連", "category_id": "0401237", "time": ["09:00-19:30"], "star": 0.0, "review": 0}, {"name": "ヨシカワ薬店", "address": "奈良県香芝市良福寺215-43", "lat": 34.53272488, "lon": 135.71158326, "category": "薬店", "category_id": "0202316", "time": [], "star": 2.0, "review": 0}, {"name": "かしの木薬局", "address": "奈良県香芝市真美ヶ丘1丁目13-12", "lat": 34.54254075, "lon": 135.71922736, "category": "調剤薬局", "category_id": "0202315", "time": [], "star": 3.0, "review": 0}], "ATM": [{"name": "ゆうちょ銀行 ATM 近鉄五位堂駅内出張所", "address": "奈良県香芝市瓦口268", "lat": 34.5347873, "lon": 135.7181154, "category": "ATM", "category_id": "0402785", "time": [], "star": 3.5, "review": 0}, {"name": "南都銀行 真美ヶ丘支店", "address": "奈良県香芝市瓦口2147", "lat": 34.53689255, "lon": 135.71832921, "category": "銀行", "category_id": "0402596", "time": ["09:00-15:00"], "star": 4.32, "review": 5}, {"name": "りそな銀行 香芝支店", "address": "奈良県香芝市瓦口2245", "lat": 34.5365732, "lon": 135.7184014, "category": "銀行", "category_id": "0402596", "time": ["09:00-17:00"], "star": 4.06, "review": 9}, {"name": "セブン銀行 近鉄電車 五位堂駅", "address": "奈良県香芝市瓦口268", "lat": 34.5347523, "lon": 135.718127, "category": "ATM", "category_id": "0402785", "time": ["05:00-24:00"], "star": 0.0, "review": 0}, {"name": "ゆうちょ銀行 香芝別所郵便局", "address": "奈良県香芝市別所1025-1", "lat": 34.5343518, "lon": 135.721937, "category": "銀行", "category_id": "0402596", "time": [], "star": 4.33, "review": 4}, {"name": "りそな銀行 ATM 香芝支店", "address": "奈良県香芝市瓦口2245", "lat": 34.5365534, "lon": 135.718324, "category": "ATM", "category_id": "0402785", "time": [], "star": 0.0, "review": 0}, {"name": "大和信用金庫 香芝支店", "address": "奈良県香芝市瓦口2272", "lat": 34.5364232, "lon": 135.7183736, "category": "信用金庫", "category_id": "0401098", "time": [], "star": 3.0, "review": 1}, {"name": "南都銀行 ATM 真美ヶ丘支店・馬見支店 共同店舗", "address": "奈良県香芝市瓦口2147", "lat": 34.5368762, "lon": 135.718348, "category": "ATM", "category_id": "0402785", "time": [], "star": 0.0, "review": 0}, {"name": "ゆうちょ銀行 香芝五位堂郵便局", "address": "奈良県香芝市五位堂5-317-5", "lat": 34.5304481, "lon": 135.71408, "category": "銀行", "category_id": "0402596", "time": [], "star": 3.67, "review": 3}, {"name": "ゆうちょ銀行 ATM 香芝別所郵便局", "address": "奈良県香芝市別所1025-1", "lat": 34.5343518, "lon": 135.721937, "category": "ATM", "category_id": "0402785", "time": [], "star": 0.0, "review": 0}, {"name": "セブン銀行 香芝五位堂3丁目店", "address": "奈良県香芝市五位堂3-457-1", "lat": 34.5330402, "lon": 135.71691, "category": "ATM", "category_id": "0402785", "time": ["00:00-24:00"], "star": 0.0, "review": 0}, {"name": "CHARGE SPOT ゆうちょATM 近鉄五位堂駅内出張所", "address": "奈良県香芝市瓦口268", "lat": 34.5346858, "lon": 135.718075, "category": "モバイルバッテリーレンタルスポット", "category_id": "0403001", "time": [], "star": 0.0, "review": 0}, {"name": "ローソン銀行 香芝瓦口共同出張所", "address": "奈良県香芝市瓦口32-1", "lat": 34.5338073, "lon": 135.720857, "category": "ATM", "category_id": "0402785", "time": ["00:00-24:00"], "star": 0.0, "review": 0}, {"name": "ゆうちょ銀行 ATM 香芝五位堂郵便局", "address": "奈良県香芝市五位堂5-317-5", "lat": 34.5304481, "lon": 135.71408, "category": "ATM", "category_id": "0402785", "time": [], "star": 0.0, "review": 0}, {"name": "ゆうちょ銀行 ATM ファミリーマート香芝真美ヶ丘二丁目店内出張所", "address": "奈良県香芝市真美ヶ丘2-1-2", "lat": 34.5415844, "lon": 135.719305, "category": "ATM", "category_id": "0402785", "time": [], "star": 0.0, "review": 0}, {"name": "セブン銀行 香芝すみれ野1丁目店", "address": "奈良県香芝市すみれ野1-15-1", "lat": 34.5410096, "lon": 135.713938, "category": "ATM", "category_id": "0402785", "time": ["00:00-24:00"], "star": 0.0, "review": 0}, {"name": "JAバンク ATM 奈良県農業協同組合(JAならけん)かしば南CC", "address": "奈良県香芝市五位堂1-325-8", "lat": 34.5315786, "lon": 135.713011, "category": "ATM", "category_id": "0402785", "time": [], "star": 0.0, "review": 0}, {"name": "香芝別所郵便局", "address": "奈良県香芝市別所1025-1", "lat": 34.5343518, "lon": 135.721937, "category": "郵便局", "category_id": "0400993", "time": ["09:00-17:00"], "star": 3.43, "review": 4}], "スーパーマーケット": [{"name": "ハーベス 五位堂店", "address": "奈良県香芝市瓦口2227", "lat": 34.536333011914024, "lon": 135.71724652925866, "category": "スーパー", "category_id": "0200612", "time": ["09:00-21:50"], "star": 3.72, "review": 226}, {"name": "サンディ 五位堂店", "address": "奈良県香芝市別所8-1", "lat": 34.533007, "lon": 135.7219956, "category": "スーパー", "category_id": "0200612", "time": ["10:00-19:30"], "star": 4.05, "review": 145}, {"name": "ならコープ 真美ヶ丘", "address": "奈良県香芝市真美ケ丘1-14-5", "lat": 34.5412379, "lon": 135.718516, "category": "スーパー", "category_id": "0200612", "time": ["09:00-19:00"], "star": 4.11, "review": 54}, {"name": "ボトルワールドOK香芝店", "address": "奈良県香芝市別所52-1", "lat": 34.5334707, "lon": 135.7228598, "category": "スーパー", "category_id": "0200612", "time": [], "star": 3.94, "review": 3}, {"name": "サンドラッグ 奈良香芝店", "address": "奈良県香芝市別所５２－１", "lat": 34.53343753, "lon": 135.72280941, "category": "ドラッグストア", "category_id": "0200699", "time": ["09:15-20:45"], "star": 3.65, "review": 52}, {"name": "クスリのアオキ 真美ヶ丘店", "address": "奈良県香芝市真美ヶ丘2-13-17", "lat": 34.540681, "lon": 135.7188763, "category": "ドラッグストア", "category_id": "0200699", "time": ["09:00-22:00"], "star": 4.2, "review": 21}]}, "top_restaurant": {"name": "CAFE&BAR Woodstock", "category": "カフェ・喫茶", "star": 4.48, "review": 18}}, {"name": "五条", "name_en": "Gojo", "lat": 34.3558348, "lon": 135.6988469, "osm_id": 8024753029, "operator": "", "railway": "station", "wikidata": "Q4980394", "wikipedia_tag": "ja:五条駅 (奈良県)", "lines": [], "pref": "奈良県", "nearby_bus_stops": [{"name": "五条駅", "lat": 34.3555757, "lon": 135.6992641, "distance_m": 48, "operator": ""}, {"name": "五條バスセンター", "lat": 34.3533641, "lon": 135.701197, "distance_m": 349, "operator": "Nara-kotsu"}, {"name": "五條町", "lat": 34.3520857, "lon": 135.6968637, "distance_m": 455, "operator": "Nara Kotsu Bus Lines Co.,Ltd."}], "wikipedia_text": "五条駅（ごじょうえき）\n\n五条駅 (京都府) - 京都府京都市下京区にある京都市営地下鉄烏丸線の駅。\n五条駅 (京阪) - 京都府京都市東山区にある京阪電気鉄道京阪本線の清水五条駅の旧称。\n五条駅 (奈良県) - 奈良県五條市にある西日本旅客鉄道和歌山線の駅。\n西鉄五条駅 - 福岡県太宰府市にある西日本鉄道太宰府線の駅。", "nearest_convenience": {"name": "セブン-イレブン", "lat": 34.353591, "lon": 135.70009, "address": "", "distance_m": 274, "brand": "7-ELEVEN"}, "nearest_restaurant": {"name": "喜久家", "lat": 34.3552547, "lon": 135.6990382, "address": "", "distance_m": 67, "cuisine": ""}, "nearby_pois": {"コンビニ": [{"name": "セブンイレブン 五條須恵", "address": "奈良県五條市須恵3-8-17", "lat": 34.3535994, "lon": 135.7000564, "category": "コンビニ", "category_id": "0200487", "time": ["00:00-24:00"], "star": 4.4, "review": 13}], "ラーメン": [{"name": "ミスター博", "address": "奈良県五條市須恵2-2-30", "lat": 34.354005108011, "lon": 135.69709955174, "category": "中華料理店", "category_id": "0100990", "time": ["11:30-14:30", "17:00-20:00"], "star": 3.68, "review": 11}, {"name": "たべてんか", "address": "奈良県五條市須恵1-11-17", "lat": 34.35354591, "lon": 135.69559374, "category": "ちゃんぽん店", "category_id": "0100146", "time": ["11:30-14:00", "17:00-20:00"], "star": 3.8, "review": 14},