[{"name": "JR北川駅", "name_en": "", "lat": 32.6903412, "lon": 131.6976752, "osm_id": 10175390054, "operator": "", "railway": "halt", "wikidata": "", "wikipedia_tag": "", "lines": [], "pref": "宮崎県", "nearest_restaurant": {"name": "レストランはゆま", "lat": 32.6660607, "lon": 131.704395, "address": "", "distance_m": 2772, "cuisine": ""}, "nearby_pois": {"ドラッグストア": [{"name": "北川調剤薬局", "address": "宮崎県延岡市北川町川内名7055-14", "lat": 32.68640107, "lon": 131.69432052, "category": "調剤薬局", "category_id": "0202315", "time": [], "star": 0.0, "review": 0}], "ATM": [{"name": "ゆうちょ銀行 ATM 北川郵便局", "address": "宮崎県延岡市北川町川内名7029-3", "lat": 32.6859238, "lon": 131.693218, "category": "ATM", "category_id": "0402785", "time": [], "star": 0.0, "review": 0}, {"name": "JAバンク ATM 宮崎県農業協同組合(JAみやざき)北川支店", "address": "宮崎県延岡市北川町川内名7103-1", "lat": 32.6879724, "lon": 131.693672, "category": "ATM", "category_id": "0402785", "time": [], "star": 0.0, "review": 0}, {"name": "ゆうちょ銀行 北川郵便局", "address": "宮崎県延岡市北川町川内名7029-3", "lat": 32.6860229, "lon": 131.693305, "category": "銀行", "category_id": "0402596", "time": [], "star": 0.0, "review": 0}, {"name": "JAバンク 宮崎県農業協同組合(JAみやざき)北川支店", "address": "宮崎県延岡市北川町川内名7103-1", "lat": 32.6879599, "lon": 131.693694, "category": "銀行", "category_id": "0402596", "time": [], "star": 0.0, "review": 0}], "スーパーマーケット": [{"name": "Aコープ 北川店", "address": "宮崎県延岡市北川町川内名7095", "lat": 32.6878217, "lon": 131.6940822, "category": "スーパー", "category_id": "0200612", "time": ["09:30-18:00"], "star": 3.1, "review": 0}]}}, {"name": "あさぎり", "name_en": "Asagiri", "lat": 32.2363192, "lon": 130.8939365, "osm_id": 265927239, "operator": "くま川鉄道", "railway": "station", "wikidata": "Q11092703", "wikipedia_tag": "ja:あさぎり駅", "lines": ["くま川鉄道湯前線"], "pref": "宮崎県", "wikipedia_text": "あさぎり駅（あさぎりえき）は、熊本県球磨郡あさぎり町免田東大正町にあるくま川鉄道湯前線の駅である。駅番号は8。", "wikipedia_image": "https://upload.wikimedia.org/wikipedia/commons/5/54/Asagiri-town_commerce-and-industry_center_poppo-kan_1.jpg", "nearest_restaurant": {"name": "ジョイフル", "lat": 32.2291297, "lon": 130.8847314, "address": "", "distance_m": 1178, "cuisine": "western"}, "nearby_pois": {"コンビニ": [{"name": "ファミリーマート サンロード免田店", "address": "熊本県球磨郡あさぎり町免田東1256-17", "lat": 32.2371574, "lon": 130.8969014, "category": "コンビニ", "category_id": "0200487", "time": ["00:00-24:00"], "star": 3.98, "review": 16}, {"name": "ファミリーマート 球磨あさぎり上北店", "address": "熊本県球磨郡あさぎり町上北19-1", "lat": 32.2310968, "lon": 130.8888798, "category": "コンビニ", "category_id": "0200487", "time": ["00:00-24:00"], "star": 4.57, "review": 3}], "ラーメン": [{"name": "ゆきラーメン", "address": "熊本県球磨郡あさぎり町免田東吉井2673", "lat": 32.240453061207, "lon": 130.9031720589, "category": "ラーメン店", "category_id": "0100097", "time": [], "star": 4.0, "review": 2}, {"name": "辛麺屋 たけ", "address": "熊本県球磨郡あさぎり町免田東1241-56", "lat": 32.23787627, "lon": 130.89777578, "category": "ラーメン店", "category_id": "0100097", "time": ["11:30-14:30", "19:00-23:00"], "star": 4.0, "review": 2}, {"name": "らぁ麺集い処 喜希屋", "address": "熊本県球磨郡あさぎり町免田東2074-25", "lat": 32.239071838079, "lon": 130.90050465583, "category": "ラーメン店", "category_id": "0100097", "time": ["11:00-14:00", "18:00-23:00"], "star": 3.35, "review": 2}, {"name": "おまかせ居酒屋 わさもん", "address": "熊本県球磨郡あさぎり町免田東1840-21", "lat": 32.237231928079, "lon": 130.89794914581, "category": "居酒屋", "category_id": "0101495", "time": ["17:00-25:00"], "star": 3.3, "review": 1}, {"name": "屋台 いちご一会", "address": "熊本県球磨郡あさぎり町免田東1841-24", "lat": 32.2377517, "lon": 130.8986627, "category": "うどん店", "category_id": "0100033", "time": [], "star": 0.0, "review": 0}], "飲食店": [{"name": "K's Copain", "address": "熊本県球磨郡あさぎり町免田東1601-1", "lat": 32.236556051962935, "lon": 130.89054281179696, "category": "レストラン", "category_id": "0100111", "time": ["11:30-14:30", "18:00-22:00"], "star": 3.45, "review": 5}, {"name": "しいばストアー", "address": "熊本県球磨郡あさぎり町免田東1840-20", "lat": 32.2372305, "lon": 130.8977958, "category": "飲食店", "category_id": "0102732", "time": ["11:30-14:30", "18:00-21:00"], "star": 3.63, "review": 4}, {"name": "ゆきラーメン", "address": "熊本県球磨郡あさぎり町免田東吉井2673", "lat": 32.240453061207, "lon": 130.9031720589, "category": "ラーメン店", "category_id": "0100097", "time": [], "star": 4.0, "review": 2}, {"name": "ペティートキッチン", "address": "熊本県球磨郡あさぎり町免田東大正町1706", "lat": 32.2347795, "lon": 130.8958275, "category": "カフェ・喫茶", "category_id": "0100344", "time": [], "star": 4.5, "review": 0}, {"name": "カフェバーラ・ポルタ", "address": "熊本県球磨郡あさぎり町免田東1483", "lat": 32.23602224, "lon": 130.89456854, "category": "カフェ・喫茶", "category_id": "0100344", "time": [], "star": 0.0, "review": 0}, {"name": "彦六", "address": "熊本県球磨郡あさぎり町免田東1497-13", "lat": 32.2347354, "lon": 130.89271646, "category": "和食店", "category_id": "0100126", "time": ["11:00-14:00", "17:00-22:00"], "star": 3.83, "review": 2}, {"name": "すなお", "address": "熊本県球磨郡あさぎり町免田東1694-4", "lat": 32.23428629, "lon": 130.89320504, "category": "居酒屋", "category_id": "0101495", "time": ["17:00-22:00"], "star": 4.15, "review": 2}, {"name": "焼肉 居酒家 まるとく食堂", "address": "熊本県球磨郡あさぎり町免田東1494-3", "lat": 32.23543896, "lon": 130.89391803, "category": "定食屋", "category_id": "0101441", "time": ["18:00-22:30"], "star": 3.08, "review": 6}, {"name": "525CAFE", "address": "熊本県球磨郡あさぎり町免田東1694-17", "lat": 32.23396688, "lon": 130.89347503, "category": "飲食店", "category_id": "0102732", "time": [], "star": 0.0, "review": 1}, {"name": "松の泉酒造 お食事処", "address": "熊本県球磨郡あさぎり町上北169-1", "lat": 32.23326709808, "lon": 130.89143150578, "category": "郷土料理店", "category_id": "0100075", "time": ["11:00-13:30"], "star": 4.16, "review": 8}, {"name": "やきとり居酒屋 てんろく", "address": "熊本県球磨郡あさぎり町免田東1497-48", "lat": 32.23513815, "lon": 130.89337557, "category": "焼き鳥店", "category_id": "0101960", "time": ["17:30-23:00"], "star": 3.98, "review": 4}, {"name": "おまかせ居酒屋 わさもん", "address": "熊本県球磨郡あさぎり町免田東1840-21", "lat": 32.237231928079, "lon": 130.89794914581, "category": "居酒屋", "category_id": "0101495", "time": ["17:00-25:00"], "star": 3.3, "review": 1}, {"name": "居酒屋 一番星", "address": "熊本県球磨郡あさぎり町免田東八幡町1841", "lat": 32.237431808079, "lon": 130.89852733582, "category": "居酒屋", "category_id": "0101495", "time": ["18:00-20:00"], "star": 4.0, "review": 1}, {"name": "小料理まんまる", "address": "熊本県球磨郡あさぎり町免田東1683-2", "lat": 32.23406881, "lon": 130.89290979, "category": "和食店", "category_id": "0100126", "time": [], "star": 4.5, "review": 0}, {"name": "喜しん", "address": "熊本県球磨郡あさぎり町免田東1922-29", "lat": 32.23520519, "lon": 130.90238358, "category": "居酒屋", "category_id": "0101495", "time": ["11:00-14:00", "17:00-22:00"], "star": 4.5, "review": 3}, {"name": "ビジネスホテル肥前屋", "address": "熊本県球磨郡あさぎり町免田東1493-4", "lat": 32.23590198, "lon": 130.89463687, "category": "ビジネスホテル", "category_id": "0300758", "time": [], "star": 3.0, "review": 2}, {"name": "チーコッコ", "address": "熊本県球磨郡あさぎり町免田東吉井1974-6", "lat": 32.23946172, "lon": 130.9020624, "category": "レストラン", "category_id": "0100111", "time": ["11:00-19:00"], "star": 0.0, "review": 0}, {"name": "串焼きモダン", "address": "熊本県球磨郡あさぎり町免田東1840-40", "lat": 32.236889898079, "lon": 130.89731646581, "category": "焼き鳥店", "category_id": "0101960", "time": ["18:00-22:00"], "star": 3.55, "review": 2}, {"name": "こぶし", "address": "熊本県球磨郡あさぎり町免田東八幡町1828", "lat": 32.23635150808, "lon": 130.8980947458, "category": "居酒屋", "category_id": "0101495", "time": [], "star": 3.5, "review": 1}, {"name": "居酒屋萬両", "address": "熊本県球磨郡あさぎり町免田東1691-1", "lat": 32.23389271, "lon": 130.8925687, "category": "居酒屋", "category_id": "0101495", "time": ["18:00-25:00"], "star": 3.1, "review": 2}], "カフェ": [{"name": "ペティートキッチン", "address": "熊本県球磨郡あさぎり町免田東大正町1706", "lat": 32.2347795, "lon": 130.8958275, "category": "カフェ・喫茶", "category_id": "0100344", "time": [], "star": 4.5, "review": 0}, {"name": "カフェバーラ・ポルタ", "address": "熊本県球磨郡あさぎり町免田東1483", "lat": 32.23602224, "lon": 130.89456854, "category": "カフェ・喫茶", "category_id": "0100344", "time": [], "star": 0.0, "review": 0}], "ドラッグストア": [{"name": "清風薬局サンロード免田店", "address": "熊本県球磨郡 あさぎり町免田東八幡町1253-1", "lat": 32.237436167211, "lon": 130.89658712394, "category": "調剤薬局", "category_id": "0202315", "time": [], "star": 0.0, "review": 0}, {"name": "清風薬局免田店", "address": "熊本県球磨郡あさぎり町上北167", "lat": 32.23306194, "lon": 130.89104632, "category": "調剤薬局", "category_id": "0202315", "time": [], "star": 0.0, "review": 0}, {"name": "きりん本町薬局", "address": "熊本県球磨郡あさぎり町免田東1497", "lat": 32.23461487, "lon": 130.89330448, "category": "調剤薬局", "category_id": "0202315", "time": [], "star": 0.0, "review": 0}, {"name": "くるみ薬局事務所", "address": "熊本県球磨郡あさぎり町上北181", "lat": 32.23274948, "lon": 130.89208014, "category": "調剤薬局", "category_id": "0202315", "time": [], "star": 0.0, "review": 0}], "ATM": [{"name": "ゆうちょ銀行 ATM 免田郵便局", "address": "熊本県球磨郡あさぎり町免田東1699-13", "lat": 32.2346808, "lon": 130.89408, "category": "ATM", "category_id": "0402785", "time": [], "star": 0.0, "review": 0}, {"name": "肥後銀行 ATM 免田支店", "address": "熊本県球磨郡あさぎり町免田東1706-7", "lat": 32.2347584, "lon": 130.895126, "category": "ATM", "category_id": "0402785", "time": [], "star": 0.0, "review": 0}, {"name": "肥後銀行 免田支店", "address": "熊本県球磨郡あさぎり町免田東1706-7", "lat": 32.2347604, "lon": 130.8951488, "category": "銀行", "category_id": "0402596", "time": ["09:00-15:00"], "star": 0.0, "review": 0}, {"name": "ろうきん ATM 九州労働金庫 サンロード免田店", "address": "熊本県球磨郡あさぎり町免田東1253-1 サンロード免田店駐車場", "lat": 32.23755212, "lon": 130.89658559, "category": "ATM", "category_id": "0402785", "time": [], "star": 0.0, "review": 0}, {"name": "ゆうちょ銀行 免田郵便局", "address": "熊本県球磨郡あさぎり町免田東1699-13", "lat": 32.2346011, "lon": 130.893756, "category": "銀行", "category_id": "0402596", "time": [], "star": 0.0, "review": 0}, {"name": "銀行ATM イーネット ファミリーマートサンロード免田 共同出張所", "address": "熊本県球磨郡あさぎり町免田東1256-17 ", "lat": 32.2371491, "lon": 130.89690975, "category": "ATM", "category_id": "0402785", "time": ["00:00-24:00"], "star": 0.0, "review": 0}, {"name": "JAバンク 球磨地域農業協同組合(JAくま)あさぎり支所免田店", "address": "熊本県球磨郡あさぎり町免田東1482-2", "lat": 32.2358531, "lon": 130.893951, "category": "銀行", "category_id": "0402596", "time": [], "star": 0.0, "review": 0}, {"name": "JAバンク ATM(管理元店舗:球磨地域農業協同組合(JAくま)あさぎり支所)", "address": "熊本県球磨郡あさぎり町免田東1482-3 Aコープなかくま", "lat": 32.2356911, "lon": 130.893858, "category": "ATM", "category_id": "0402785", "time": [], "star": 0.0, "review": 0}, {"name": "宝くじ ATM 肥後銀行免田支店", "address": "熊本県球磨郡あさぎり町免田東1706-7", "lat": 32.2347236, "lon": 130.89542, "category": "宝くじ売り場", "category_id": "0401442", "time": ["09:00-19:00"], "star": 0.0, "review": 0}, {"name": "銀行ATM イーネット ファミリーマート球磨あさぎり上北 共同出張所", "address": "熊本県球磨郡あさぎり町上北19-1 ", "lat": 32.231051, "lon": 130.888859, "category": "ATM", "category_id": "0402785", "time": ["00:00-24:00"], "star": 0.0, "review": 0}, {"name": "ゆうちょ銀行 免田吉井簡易郵便局", "address": "熊本県球磨郡あさぎり町免田東1950-7", "lat": 32.2369094, "lon": 130.901904, "category": "銀行", "category_id": "0402596", "time": [], "star": 0.0, "review": 0}], "スーパーマーケット": [{"name": "サンロード 免田店", "address": "熊本県球磨郡あさぎり町免田東1253-1", "lat": 32.2375602, "lon": 130.896207, "category": "スーパー", "category_id": "0200612", "time": ["09:00-21:00"], "star": 3.83, "review": 13}, {"name": "JA直売所 Aコープなかくま店", "address": "熊本県球磨郡あさぎり町免田東1482-3", "lat": 32.2358665, "lon": 130.893679, "category": "農産物直売所", "category_id": "0202873", "time": ["09:00-20:00"], "star": 4.54, "review": 11}, {"name": "セリア 生活良品 サンロード免田店", "address": "熊本県球磨郡あさぎり町免田東八幡1253-1", "lat": 32.23748268, "lon": 130.89611118, "category": "100円ショップ", "category_id": "0200001", "time": [], "star": 4.3, "review": 6}]}, "top_restaurant": {"name": "喜しん", "category": "居酒屋", "star": 4.5, "review": 3}}, {"name": "えびの", "name_en": "Ebino", "lat": 32.0422993, "lon": 130.8159272, "osm_id": 265852656, "operator": "九州旅客鉄道", "railway": "station", "wikidata": "Q5331860", "wikipedia_tag": "ja:えびの駅", "lines": ["JR吉都線"], "pref": "宮崎県", "wikipedia_text": "えびの駅（えびのえき）は、宮崎県えびの市大字栗下にある、九州旅客鉄道（JR九州）吉都線の駅である。", "wikipedia_image": "https://upload.wikimedia.org/wikipedia/commons/c/c4/JR_Kyushu_Ebino_station.jpg", "nearest_restaurant": {"name": "ピア", "lat": 32.0529913, "lon": 130.8164414, "address": "", "distance_m": 1190, "cuisine": ""}, "nearby_pois": {"コンビニ": [{"name": "ヤマザキショップ陸上自衛隊えびの駐屯地霧島演習場売店", "address": "宮崎県えびの市大字西長江浦 (番地無し)-", "lat": 32.03547562, "lon": 130.81017203, "category": "", "category_id": "", "time": [], "star": 0.0, "review": 0}], "ラーメン": [{"name": "武双ラーメン", "address": "宮崎県えびの市栗下211", "lat": 32.04309088, "lon": 130.81570168, "category": "ラーメン店", "category_id": "0100097", "time": [], "star": 3.39, "review": 8}, {"name": "三幸", "address": "宮崎県えびの市栗下98-2", "lat": 32.04507679, "lon": 130.81492025, "category": "ラーメン店", "category_id": "0100097", "time": ["11:00-16:00"], "star": 4.08, "review": 25}, {"name": "みはらラーメン", "address": "宮崎県えびの市栗下1262-6", "lat": 32.04294733, "lon": 130.81266234, "category": "ラーメン店", "category_id": "0100097", "time": [], "star": 3.97, "review": 15}], "飲食店": [{"name": "門前屋 さくらとはな", "address": "宮崎県えびの市栗下844", "lat": 32.03806362, "lon": 130.81634112, "category": "定食屋", "category_id": "0101441", "time": [], "star": 3.48, "review": 4}, {"name": "武双ラーメン", "address": "宮崎県えびの市栗下211", "lat": 32.04309088, "lon": 130.81570168, "category": "ラーメン店", "category_id": "0100097", "time": [], "star": 3.39, "review": 8}, {"name": "三幸", "address": "宮崎県えびの市栗下98-2", "lat": 32.04507679, "lon": 130.81492025, "category": "ラーメン店", "category_id": "0100097", "time": ["11:00-16:00"], "star": 4.08, "review": 25}, {"name": "みはらラーメン", "address": "宮崎県えびの市栗下1262-6", "lat": 32.04294733, "lon": 130.81266234, "category": "ラーメン店", "category_id": "0100097", "time": [], "star": 3.97, "review": 15}, {"name": "なん天", "address": "宮崎県えびの市小田406", "lat": 32.04652584, "lon": 130.81435219, "category": "定食屋", "category_id": "0101441", "time": [], "star": 2.5, "review": 1}], "ドラッグストア": [{"name": "二葉薬局加久藤", "address": "宮崎県えびの市大字栗下214-8", "lat": 32.04313033, "lon": 130.81515063, "category": "調剤薬局", "category_id": "0202315", "time": [], "star": 0.0, "review": 0}, {"name": "能勢薬局", "address": "宮崎県えびの市大字小田340-2", "lat": 32.04566076, "lon": 130.81549639, "category": "調剤薬局", "category_id": "0202315", "time": [], "star": 0.0, "review": 0}], "ATM": [{"name": "ゆうちょ銀行 加久藤郵便局", "address": "宮崎県えびの市小田10-1", "lat": 32.0450565, "lon": 130.815371, "category": "銀行", "category_id": "0402596", "time": [], "star": 4.0, "review": 1}, {"name": "ゆうちょ銀行 ATM 加久藤郵便局", "address": "宮崎県えびの市小田10-1", "lat": 32.0450565, "lon": 130.815371, "category": "ATM", "category_id": "0402785", "time": [], "star": 0.0, "review": 0}, {"name": "宮崎銀行 ATM えびの市役所", "address": "宮崎県えびの市栗下1292", "lat": 32.0458057, "lon": 130.810914, "category": "ATM", "category_id": "0402785", "time": [], "star": 0.0, "review": 0}, {"name": "ろうきん ATM 九州労働金庫 えびの市役所", "address": "宮崎県えびの市栗下1292", "lat": 32.0453456, "lon": 130.810812, "category": "ATM", "category_id": "0402785", "time": [], "star": 0.0, "review": 0}, {"name": "ゆうちょ銀行 栗下簡易郵便局", "address": "宮崎県えびの市東長江浦629", "lat": 32.0377495, "lon": 130.813685, "category": "銀行", "category_id": "0402596", "time": [], "star": 0.0, "review": 0}, {"name": "JAバンク ATM 宮崎県農業協同組合(JAみやざき)加久藤支店", "address": "宮崎県えびの市永山1170-2", "lat": 32.047305, "lon": 130.8107407, "category": "ATM", "category_id": "0402785", "time": [], "star": 0.0, "review": 0}, {"name": "JAバンク 宮崎県農業協同組合(JAみやざき)加久藤支店", "address": "宮崎県えびの市永山1170-2", "lat": 32.0472963, "lon": 130.810757, "category": "銀行", "category_id": "0402596", "time": [], "star": 0.0, "review": 0}, {"name": "高鍋信用金庫 えびの支店", "address": "宮崎県えびの市栗下167-3", "lat": 32.0467383, "lon": 130.8134542, "category": "信用金庫", "category_id": "0401098", "time": ["09:00-15:00"], "star": 0.0, "review": 0}], "スーパーマーケット": [{"name": "Aコープ かくとう店", "address": "宮崎県えびの市栗下1308", "lat": 32.0472716, "lon": 130.8120544, "category": "スーパー", "category_id": "0200612", "time": ["09:30-19:30"], "star": 4.28, "review": 5}, {"name": "全日食チェーン 長谷ストアー", "address": "宮崎県えびの市東長江浦633-3", "lat": 32.0372928, "lon": 130.813862, "category": "スーパー", "category_id": "0200612", "time": ["07:30-19:00"], "star": 2.7, "review": 1}]}, "top_restaurant": {"name": "三幸", "category": "ラーメン店", "star": 4.08, "review": 25}}, {"name": "えびの上江", "name_en": "Ebino Uwae", "lat": 32.0356098, "lon": 130.8500084, "osm_id": 265852672, "operator": "九州旅客鉄道", "railway": "station", "wikidata": "Q5331862", "wikipedia_tag": "ja:えびの上江駅", "lines": ["JR吉都線"], "pref": "宮崎県", "wikipedia_text": "えびの上江駅（えびのうわええき）は、宮崎県えびの市大字上江にある、九州旅客鉄道（JR九州）吉都線の駅である。", "wikipedia_image": "https://upload.wikimedia.org/wikipedia/commons/0/02/Ebinouwae20090329.JPG", "nearest_convenience": {"name": "セブン-イレブン", "lat": 32.0463479, "lon": 130.8736047, "address": "", "distance_m": 2524, "brand": "セブン-イレブン"}, "nearest_restaurant": {"name": "予約ランチ&カフェの店　ストーブハウス", "lat": 32.0370323, "lon": 130.8409359, "address": "宮崎県えびの市今西413", "distance_m": 870, "cuisine": "pizza;coffee_shop;regional"}, "nearby_pois": {"飲食店": [{"name": "ストーブハウス", "address": "宮崎県えびの市大字今西413 まつくぼ工房", "lat": 32.036998058188, "lon": 130.84093196383, "category": "カフェ・喫茶", "category_id": "0100344", "time": ["11:30-12:50", "13:00-14:20", "14:30-16:00"], "star": 4.15, "review": 14}, {"name": "森の靖思苑", "address": "宮崎県えびの市大字末永2186", "lat": 32.02734109, "lon": 130.85085894, "category": "定食屋", "category_id": "0101441", "time": [], "star": 0.0, "review": 0}], "カフェ": [{"name": "ストーブハウス", "address": "宮崎県えびの市大字今西413 まつくぼ工房", "lat": 32.036998058188, "lon": 130.84093196383, "category": "カフェ・喫茶", "category_id": "0100344", "time": ["11:30-12:50", "13:00-14:20", "14:30-16:00"], "star": 4.15, "review": 14}], "ドラッグストア": [{"name": "えびの薬局", "address": "宮崎県えびの市大字上江1026-2", "lat": 32.03058839, "lon": 130.85530701, "category": "調剤薬局", "category_id": "0202315", "time": [], "star": 0.0, "review": 0}], "ATM": [{"name": "ゆうちょ銀行 えびの上江簡易郵便局", "address": "宮崎県えびの市上江1177-11", "lat": 32.0308422, "lon": 130.849353, "category": "銀行", "category_id": "0402596", "time": [], "star": 4.0, "review": 1}]}, "top_restaurant": {"name": "ストーブハウス", "category": "カフェ・喫茶", "star": 4.15, "review": 14}}, {"name": "えびの飯野", "name_en": "Ebino Iino", "lat": 32.0304524, "lon": 130.8706681, "osm_id": 265852665, "operator": "九州旅客鉄道", "railway": "station", "wikidata": "Q5331859", "wikipedia_tag": "ja:えびの飯野駅", "lines": ["JR吉都線"], "pref": "宮崎県", "nearby_bus_stops": [{"name": "飯野", "lat": 32.0273906, "lon": 130.8717851, "distance_m": 356, "operator": ""}], "wikipedia_text": "えびの飯野駅（えびのいいのえき）は、宮崎県えびの市大字原田にある、九州旅客鉄道（JR九州）吉都線の駅。", "wikipedia_image": "https://upload.wikimedia.org/wikipedia/commons/1/1a/Ebino-Iino_stn_1.jpg", "nearest_convenience": {"name": "セブン-イレブン", "lat": 32.0463479, "lon": 130.8736047, "address": "", "distance_m": 1789, "brand": "セブン-イレブン"}, "nearest_restaurant": {"name": "正一", "lat": 32.0488514, "lon": 130.8674008, "address": "", "distance_m": 2069, "cuisine": ""}, "nearby_pois": {"ラーメン": [{"name": "天龍", "address": "宮崎県えびの市原田1403-23", "lat": 32.03110691, "lon": 130.87667393, "category": "中華料理店", "category_id": "0100990", "time": ["11:00-14:00"], "star": 4.04, "review": 18}], "飲食店": [{"name": "やぐら", "address": "宮崎県えびの市原田2170", "lat": 32.03272167, "lon": 130.87415214, "category": "和食店", "category_id": "0100126", "time": [], "star": 0.0, "review": 0}, {"name": "栄太朗", "address": "宮崎県えびの市原田2248", "lat": 32.03217719, "lon": 130.87004696, "category": "寿司店", "category_id": "0100101", "time": [], "star": 0.0, "review": 0}, {"name": "和菜", "address": "宮崎県えびの市原田2237-2", "lat": 32.0324937382, "lon": 130.87036969376, "category": "居酒屋", "category_id": "0101495", "time": ["17:30-22:00"], "star": 0.0, "review": 0}, {"name": "居心家 GEN", "address": "宮崎県えびの市原田2248", "lat": 32.0321811682, "lon": 130.87006341376, "category": "居酒屋", "category_id": "0101495", "time": ["18:00-23:00"], "star": 4.53, "review": 2}, {"name": "天龍", "address": "宮崎県えびの市原田1403-23", "lat": 32.03110691, "lon": 130.87667393, "category": "中華料理店", "category_id": "0100990", "time": ["11:00-14:00"], "star": 4.04, "review": 18}, {"name": "よし野", "address": "宮崎県えびの市大字原田2248-9", "lat": 32.0322108, "lon": 130.87016612, "category": "和食店", "category_id": "0100126", "time": [], "star": 0.0, "review": 1}, {"name": "居酒屋生駒", "address": "宮崎県えびの市大字原田2219-8", "lat": 32.03161838, "lon": 130.8711916, "category": "居酒屋", "category_id": "0101495", "time": [], "star": 0.0, "review": 0}, {"name": "やきとり生駒", "address": "宮崎県えびの市原田2219-8", "lat": 32.0316174, "lon": 130.8711833, "category": "焼き鳥店", "category_id": "0101960", "time": [], "star": 0.0, "review": 0}, {"name": "スナック純jun", "address": "宮崎県えびの市原田2248-22", "lat": 32.032492, "lon": 130.87032, "category": "居酒屋", "category_id": "0101495", "time": [], "star": 0.0, "review": 0}, {"name": "宴会のかわむら", "address": "宮崎県えびの市大字原田2315-6", "lat": 32.03572425, "lon": 130.86683935, "category": "会席・懐石料理店", "category_id": "0101064", "time": [], "star": 0.0, "review": 0}, {"name": "スナックマリー", "address": "宮崎県えびの市原田2248-22", "lat": 32.032492, "lon": 130.870317, "category": "居酒屋", "category_id": "0101495", "time": [], "star": 0.0, "review": 0}, {"name": "宝代商店", "address": "宮崎県えびの市原田1380", "lat": 32.0327024, "lon": 130.8746996, "category": "オーガニックレストラン", "category_id": "0100316", "time": [], "star": 0.0, "review": 0}], "ドラッグストア": [{"name": "いいの薬局", "address": "宮崎県えびの市大字原田2237-7", "lat": 32.03267381, "lon": 130.87038747, "category": "調剤薬局", "category_id": "0202315", "time": [], "star": 0.0, "review": 0}, {"name": "ひむか薬局えびの店", "address": "宮崎県えびの市大字原田2143-3", "lat": 32.02829713, "lon": 130.87477944, "category": "調剤薬局", "category_id": "0202315", "time": [], "star": 0.0, "review": 0}], "ATM": [{"name": "ゆうちょ銀行 ATM 飯野駅前郵便局", "address": "宮崎県えびの市原田2247-7", "lat": 32.032505, "lon": 130.869336, "category": "ATM", "category_id": "0402785", "time": [], "star": 0.0, "review": 0}, {"name": "ゆうちょ銀行 飯野駅前郵便局", "address": "宮崎県えびの市原田2247-7", "lat": 32.0325005, "lon": 130.869401, "category": "銀行", "category_id": "0402596", "time": [], "star": 0.0, "review": 0}]}, "top_restaurant": {"name": "居心家 GEN", "category": "居酒屋", "star": 4.53, "review": 2}}, {"name": "おかどめ幸福", "name_en": "Okadome-Kōfuku", "lat": 32.231476, "lon": 130.8751642, "osm_id": 265928336, "operator": "くま川鉄道", "railway": "station", "wikidata": "Q11048900", "wikipedia_tag": "ja:おかどめ幸福駅", "lines": ["くま川鉄道湯前線"], "pref": "宮崎県", "wikipedia_text": "おかどめ幸福駅（おかどめこうふくえき）は、熊本県球磨郡あさぎり町免田西にある、くま川鉄道湯前線の駅である。駅番号は7。\n日本の現存する駅で唯一「幸福」が駅名として使用されており、当駅近くにある岡留熊野座神社が幸福神社と呼ばれることが由来となっている。", "wikipedia_image": "https://upload.wikimedia.org/wikipedia/commons/3/39/Okadome-kofuku_station_1.jpg", "nearest_restaurant": {"name": "ほっともっと", "lat": 32.2287735, "lon": 130.8841011, "address": "", "distance_m": 893, "cuisine": "japanese"}, "nearby_pois": {"コンビニ": [{"name": "セブンイレブン 球磨あさぎり町", "address": "熊本県球磨郡あさぎり町免田西2522-1", "lat": 32.2255222, "lon": 130.877028, "category": "コンビニ", "category_id": "0200487", "time": ["00:00-24:00"], "star": 4.34, "review": 7}], "飲食店": [{"name": "黒豚キッチンクマクロ おかどめ幸福駅店", "address": "熊本県球磨郡あさぎり町免田西1438", "lat": 32.231529138076, "lon": 130.87566821577, "category": "飲食店", "category_id": "0102732", "time": ["08:30-17:00"], "star": 4.13, "review": 3}, {"name": "ジョイフル 熊本免田店", "address": "熊本県球磨郡あさぎり町上西265", "lat": 32.2290803, "lon": 130.884644, "category": "ファミリーレストラン", "category_id": "0100788", "time": ["08:00-25:00"], "star": 3.91, "review": 31}, {"name": "市場食堂 明泉", "address": "熊本県球磨郡あさぎり町免田西445-8", "lat": 32.2283387, "lon": 130.8827557, "category": "定食屋", "category_id": "0101441", "time": [], "star": 4.5, "review": 1}, {"name": "ひのき食事処", "address": "熊本県球磨郡あさぎり町免田西永才2573-39", "lat": 32.2306406, "lon": 130.8746877, "category": "焼き鳥店", "category_id": "0101960", "time": [], "star": 3.0, "review": 1}], "カフェ": [{"name": "黒豚キッチンクマクロ おかどめ幸福駅店", "address": "熊本県球磨郡あさぎり町免田西1438", "lat": 32.231529138076, "lon": 130.87566821577, "category": "飲食店", "category_id": "0102732", "time": ["08:30-17:00"], "star": 4.13, "review": 3}, {"name": "あさぎり町 おかどめ幸福駅・売店・クマクロ", "address": "熊本県球磨郡 あさぎり町免田西黒田1438-1", "lat": 32.22501669, "lon": 130.8716266, "category": "土産物店", "category_id": "0200202", "time": [], "star": 3.75, "review": 2}], "ドラッグストア": [{"name": "ドラッグストアモリ あさぎり店", "address": "熊本県球磨郡あさぎり町免田西2525", "lat": 32.2259194, "lon": 130.877914, "category": "ドラッグストア", "category_id": "0200699", "time": ["09:00-22:00"], "star": 4.21, "review": 7}, {"name": "ドラッグストアコスモス あさぎり店", "address": "熊本県球磨郡あさぎり町上西３７－１ ", "lat": 32.22558058, "lon": 130.88077216, "category": "ドラッグストア", "category_id": "0200699", "time": ["10:00-21:00"], "star": 4.52, "review": 21}], "ATM": [{"name": "セブン銀行 球磨あさぎり町店", "address": "熊本県球磨郡あさぎり町免田西2522-1", "lat": 32.2255313, "lon": 130.876835, "category": "ATM", "category_id": "0402785", "time": ["00:00-24:00"], "star": 0.0, "review": 0}]}, "top_restaurant": {"name": "市場食堂 明泉", "category": "定食屋", "star": 4.5, "review": 1}}, {"name": "一武", "name_en": "Ichibu", "lat": 32.2145539, "lon": 130.8399247, "osm_id": 265926992, "operator": "くま川鉄道", "railway": "station", "wikidata": "Q10863990", "wikipedia_tag": "ja:一武駅", "lines": ["くま川鉄道湯前線"], "pref": "宮崎県", "wikipedia_text": "一武駅（いちぶえき）は、熊本県球磨郡錦町大字一武にあるくま川鉄道湯前線の駅である。駅番号は5。", "wikipedia_image": "https://upload.wikimedia.org/wikipedia/commons/1/19/Ichibu_station_1.jpg", "nearest_convenience": {"name": "セブン-イレブン", "lat": 32.199038, "lon": 130.8356604, "address": "", "distance_m": 1771, "brand": "セブン-イレブン"}, "nearest_restaurant": {"name": "雪草（ゆきそう）", "lat": 32.2061721, "lon": 130.8450663, "address": "", "distance_m": 1050, "cuisine": "japanese"}, "nearby_pois": {"飲食店": [{"name": "イナホヤ", "address": "熊本県球磨郡錦町一武563-1", "lat": 32.206908587789556, "lon": 130.83621722874, "category": "カフェ・喫茶", "category_id": "0100344", "time": ["11:00-15:00"], "star": 4.35, "review": 5}], "カフェ": [{"name": "イナホヤ", "address": "熊本県球磨郡錦町一武563-1", "lat": 32.206908587789556, "lon": 130.83621722874, "category": "カフェ・喫茶", "category_id": "0100344", "time": ["11:00-15:00"], "star": 4.35, "review": 5}]}, "top_restaurant": {"name": "イナホヤ", "category": "カフェ・喫茶", "star": 4.35, "review": 5}}, {"name": "万ヶ塚", "name_en": "Mangatsuka", "lat": 31.8173891, "lon": 131.0640691, "osm_id": 265854033, "operator": "九州旅客鉄道", "railway": "station", "wikidata": "Q6748855", "wikipedia_tag": "ja:万ケ塚駅", "lines": ["JR吉都線"], "pref": "宮崎県", "nearest_convenience": {"name": "セブン-イレブン", "lat": 31.814417, "lon": 131.0951889, "address": "", "distance_m": 2959, "brand": "7-ELEVEN"}, "nearest_restaurant": {"name": "ジョイフル", "lat": 31.8161433, "lon": 131.0947146, "address": "", "distance_m": 2899, "cuisine": "western"}, "nearby_pois": {"飲食店": [{"name": "まんがつか茶屋", "address": "宮崎県都城市丸谷町454", "lat": 31.8177952, "lon": 131.0636254, "category": "定食屋", "category_id": "0101441", "time": ["11:30-14:00", "18:00-21:00"], "star": 3.96, "review": 15}], "ATM": [{"name": "ゆうちょ銀行 万ヶ塚簡易郵便局", "address": "宮崎県都城市丸谷町459-20", "lat": 31.8158769, "lon": 131.061839, "category": "銀行", "category_id": "0402596", "time": [], "star": 4.0, "review": 1}]}, "top_restaurant": {"name": "まんがつか茶屋", "category": "定食屋", "star": 3.96, "review": 15}}, {"name": "三股", "name_en": "Mimata", "lat": 31.7338903, "lon": 131.1199481, "osm_id": 265849275, "operator": "九州旅客鉄道", "railway": "station", "wikidata": "Q5357483", "wikipedia_tag": "ja:三股駅", "lines": ["JR日豊本線"], "pref": "宮崎県", "nearby_bus_stops": [{"name": "東原", "lat": 31.7304154, "lon": 131.1193431, "distance_m": 391, "operator": "宮崎交通"}], "wikipedia_text": "三股駅（みまたえき）は、宮崎県北諸県郡三股町大字樺山にある、九州旅客鉄道（JR九州）日豊本線の駅である。事務管コードは▲940510。\n『みまたんえき』（方言で「三股の駅」を意味する）の愛称を持つ。", "wikipedia_image": "https://upload.wikimedia.org/wikipedia/commons/a/a3/JR_Mimata_Station_2009.JPG", "nearest_convenience": {"name": "ローソン", "lat": 31.7323039, "lon": 131.1128531, "address": "", "distance_m": 694, "brand": "LAWSON"}, "nearest_restaurant": {"name": "北諸", "lat": 31.7304798, "lon": 131.1199936, "address": "", "distance_m": 379, "cuisine": "japanese"}, "nearby_pois": {"コンビニ": [{"name": "セブンイレブン 三股新馬場", "address": "宮崎県北諸県郡三股町樺山4318-5", "lat": 31.7373344, "lon": 131.1148672, "category": "コンビニ", "category_id": "0200487", "time": ["00:00-24:00"], "star": 4.5, "review": 8}, {"name": "ローソン 三股町稗田東", "address": "宮崎県北諸県郡三股町樺山4672-58", "lat": 31.7323404, "lon": 131.1128925, "category": "コンビニ", "category_id": "0200487", "time": ["00:00-24:00"], "star": 3.96, "review": 6}, {"name": "セブンイレブン 三股樺山", "address": "宮崎県北諸県郡三股町樺山2029-1", "lat": 31.7283602, "lon": 131.1140037, "category": "コンビニ", "category_id": "0200487", "time": ["00:00-24:00"], "star": 4.43, "review": 7}, {"name": "ファミリーマート 三股樺山店", "address": "宮崎県北諸県郡三股町樺山4031", "lat": 31.7342321, "lon": 131.1298584, "category": "コンビニ", "category_id": "0200487", "time": ["00:00-24:00"], "star": 4.33, "review": 2}], "ラーメン": [{"name": "えのきだや", "address": "宮崎県北諸県郡三股町樺山4492", "lat": 31.732589538472, "lon": 131.12536416056, "category": "ラーメン店", "category_id": "0100097", "time": ["11:00-15:00", "18:00-21:00"], "star": 2.91, "review": 11}, {"name": "紅華飯店", "address": "宮崎県北諸県郡三股町樺山4573", "lat": 31.7321933, "lon": 131.12034881, "category": "中華料理店", "category_id": "0100990", "time": [], "star": 3.65, "review": 12}, {"name": "ラーメンえのきだや", "address": "宮崎県北諸県郡三股町大字樺山4492", "lat": 31.73260056, "lon": 131.12541112, "category": "飲食店", "category_id": "0102732", "time": ["11:00-15:00", "18:00-21:00"], "star": 0.0, "review": 0}, {"name": "福栄餃子店", "address": "宮崎県北諸県郡三股町樺山4071", "lat": 31.73340857, "lon": 131.1284649, "category": "餃子店", "category_id": "0102733", "time": [], "star": 3.9, "review": 8}], "飲食店": [{"name": "メゾン フェナジェ", "address": "宮崎県北諸県郡三股町稗田25-1", "lat": 31.732175968468, "lon": 131.11070895056, "category": "カフェ・喫茶", "category_id": "0100344", "time": ["13:00-17:00"], "star": 3.6, "review": 1}, {"name": "小松屋", "address": "宮崎県北諸県郡三股町大字樺山4421-2", "lat": 31.73370012, "lon": 131.12045651, "category": "居酒屋", "category_id": "0101495", "time": ["18:00-23:00"], "star": 3.8, "review": 4}, {"name": "お箸処 北諸 三股店", "address": "宮崎県北諸県郡三股町五本松14-1", "lat": 31.73055204, "lon": 131.11994252, "category": "和食店", "category_id": "0100126", "time": ["11:00-15:00", "18:00-22:00"], "star": 4.23, "review": 14}, {"name": "中園鶏肉加工店", "address": "宮崎県北諸県郡三股町大字樺山4369", "lat": 31.73484801, "lon": 131.11693107, "category": "鶏料理店", "category_id": "0101961", "time": [], "star": 4.73, "review": 7}, {"name": "エム ズキッチン 森の雫", "address": "宮崎県北諸県郡三股町稗田8-1", "lat": 31.72948949, "lon": 131.11228096, "category": "カフェ・喫茶", "category_id": "0100344", "time": ["11:30-15:00", "18:00-21:00"], "star": 4.14, "review": 27}, {"name": "もちかえりの店 大福", "address": "宮崎県北諸県郡三股町樺山3472-51", "lat": 31.73182283, "lon": 131.12367814, "category": "からあげ店", "category_id": "0100067", "time": [], "star": 4.28, "review": 11}, {"name": "我楽", "address": "宮崎県北諸県郡三股町樺山4081-7", "lat": 31.73402656, "lon": 131.12622353, "category": "居酒屋", "category_id": "0101495", "time": [], "star": 3.6, "review": 9}, {"name": "紅華飯店", "address": "宮崎県北諸県郡三股町樺山4573", "lat": 31.7321933, "lon": 131.12034881, "category": "中華料理店", "category_id": "0100990", "time": [], "star": 3.65, "review": 12}, {"name": "お食事処 UP-TEN", "address": "宮崎県北諸県郡三股町樺山4573-69", "lat": 31.731355368471, "lon": 131.11971753055, "category": "定食屋", "category_id": "0101441", "time": ["10:00-15:00", "18:00-21:00"], "star": 3.08, "review": 4}, {"name": "松葉寿司", "address": "宮崎県北諸県郡三股町五本松24-2-3", "lat": 31.73043404, "lon": 131.12226909, "category": "寿司店", "category_id": "0100101", "time": [], "star": 3.94, "review": 8}, {"name": "ジョイフル 宮崎三股店", "address": "宮崎県北諸県郡三股町稗田10-1", "lat": 31.732482, "lon": 131.112323, "category": "ファミリーレストラン", "category_id": "0100788", "time": ["08:00-26:00"], "star": 4.19, "review": 29}, {"name": "満月", "address": "宮崎県北諸県郡三股町五本松3-1", "lat": 31.73148952, "lon": 131.12291401, "category": "会席・懐石料理店", "category_id": "0101064", "time": [], "star": 3.3, "review": 2}, {"name": "炭乃家", "address": "宮崎県北諸県郡三股町樺山3323-1", "lat": 31.72880218, "lon": 131.11943707, "category": "焼き鳥店", "category_id": "0101960", "time": ["11:30-14:00", "18:00-21:30"], "star": 4.25, "review": 18}, {"name": "もぐもぐ。", "address": "宮崎県北諸県郡三股町大字樺山4508", "lat": 31.733013268471, "lon": 131.12170875056, "category": "お好み焼き店", "category_id": "0100046", "time": ["11:00-20:30"], "star": 0.0, "review": 0}, {"name": "ラーメンえのきだや", "address": "宮崎県北諸県郡三股町大字樺山4492", "lat": 31.73260056, "lon": 131.12541112, "category": "飲食店", "category_id": "0102732", "time": ["11:00-15:00", "18:00-21:00"], "star": 0.0, "review": 0}, {"name": "炭火焼肉 牛輝", "address": "宮崎県北諸県郡三股町稗田11-1", "lat": 31.73254255, "lon": 131.11186613, "category": "焼肉店", "category_id": "0101963", "time": ["18:00-23:00"], "star": 4.5, "review": 2}, {"name": "味のかばやま", "address": "宮崎県北諸県郡三股町大字樺山3476-20", "lat": 31.73076518, "lon": 131.12710143, "category": "定食屋", "category_id": "0101441", "time": [], "star": 3.75, "review": 2}, {"name": "えのきだや", "address": "宮崎県北諸県郡三股町樺山4492", "lat": 31.732589538472, "lon": 131.12536416056, "category": "ラーメン店", "category_id": "0100097", "time": ["11:00-15:00", "18:00-21:00"], "star": 2.91, "review": 11}, {"name": "桜ざか", "address": "宮崎県北諸県郡三股町樺山4716-7", "lat": 31.73306553, "lon": 131.11053395, "category": "創作料理店", "category_id": "0101193", "time": ["18:00-22:00"], "star": 4.23, "review": 10}, {"name": "轍", "address": "宮崎県北諸県郡三股町大字樺山3413-4", "lat": 31.728634078474, "lon": 131.12485701052, "category": "焼肉店", "category_id": "0101963", "time": ["11:00-14:00", "17:00-22:00"], "star": 3.82, "review": 10}], "カフェ": [{"name": "メゾン フェナジェ", "address": "宮崎県北諸県郡三股町稗田25-1", "lat": 31.732175968468, "lon": 131.11070895056, "category": "カフェ・喫茶", "category_id": "0100344", "time": ["13:00-17:00"], "star": 3.6, "review": 1}, {"name": "エム ズキッチン 森の雫", "address": "宮崎県北諸県郡三股町稗田8-1", "lat": 31.72948949, "lon": 131.11228096, "category": "カフェ・喫茶", "category_id": "0100344", "time": ["11:30-15:00", "18:00-21:00"], "star": 4.14, "review": 27}, {"name": "カフェ ミヤビ", "address": "宮崎県北諸県郡三股町樺山3142-2", "lat": 31.7281965, "lon": 131.1280922, "category": "飲食店", "category_id": "0102732", "time": [], "star": 0.0, "review": 2}, {"name": "桑畑製茶舗", "address": "宮崎県北諸県郡三股町大字樺山4715-3", "lat": 31.73319056, "lon": 131.11240885, "category": "日本茶店", "category_id": "0101681", "time": [], "star": 0.0, "review": 0}, {"name": "ジョイフル 宮崎三股店", "address": "宮崎県北諸県郡三股町稗田10-1", "lat": 31.732482, "lon": 131.112323, "category": "ファミリーレストラン", "category_id": "0100788", "time": ["08:00-26:00"], "star": 4.19, "review": 29}], "ドラッグストア": [{"name": "ドラッグストアコスモス 樺山店", "address": "宮崎県北諸県郡三股町樺山４６７２－６７ ", "lat": 31.73289867, "lon": 131.11405351, "category": "ドラッグストア", "category_id": "0200699", "time": ["10:00-21:00"], "star": 4.6, "review": 23}, {"name": "サンライト薬局 三股店", "address": "宮崎県北諸県郡 三股町大字樺山4672-350", "lat": 31.73207676, "lon": 131.1151011, "category": "調剤薬局", "category_id": "0202315", "time": [], "star": 0.0, "review": 0}, {"name": "みまたファミリー薬局", "address": "宮崎県北諸県郡三股町大字樺山4540-8", "lat": 31.73000815, "lon": 131.11723544, "category": "調剤薬局", "category_id": "0202315", "time": [], "star": 0.0, "review": 0}, {"name": "そうごう薬局 三股仲町店", "address": "宮崎県北諸県郡三股町大字樺山3491-2", "lat": 31.73114624, "lon": 131.12583922, "category": "調剤薬局", "category_id": "0202315", "time": ["09:00-18:00"], "star": 0.0, "review": 0}, {"name": "ありた薬局", "address": "宮崎県北諸県郡三股町大字樺山4080-10", "lat": 31.7327836, "lon": 131.12589971, "category": "調剤薬局", "category_id": "0202315", "time": [], "star": 0.0, "review": 0}, {"name": "ひばり薬局", "address": "宮崎県北諸県郡三股町新馬場24-10", "lat": 31.7386509, "lon": 131.1116245, "category": "調剤薬局", "category_id": "0202315", "time": [], "star": 0.0, "review": 0}], "ATM": [{"name": "宮崎銀行 三股支店", "address": "宮崎県北諸県郡三股町大字樺山字射場前4573-72", "lat": 31.7320377, "lon": 131.1198338, "category": "銀行", "category_id": "0402596", "time": ["09:00-15:00"], "star": 3.75, "review": 1}, {"name": "ゆうちょ銀行 ATM 三股郵便局", "address": "宮崎県北諸県郡三股町樺山4573-15", "lat": 31.7320152, "lon": 131.119473, "category": "ATM", "category_id": "0402785", "time": ["08:00-21:00"], "star": 0.0, "review": 0}, {"name": "宮崎銀行 ATM 三股支店", "address": "宮崎県北諸県郡三股町大字樺山字射場前4573-72", "lat": 31.7320343, "lon": 131.119793, "category": "ATM", "category_id": "0402785", "time": [], "star": 0.0, "review": 0}, {"name": "JAバンク ATM 宮崎県農業協同組合(JAみやざき)三股支店", "address": "宮崎県北諸県郡三股町樺山4457-1", "lat": 31.7331671, "lon": 131.122699, "category": "ATM", "category_id": "0402785", "time": [], "star": 0.0, "review": 0}, {"name": "JAバンク 宮崎県農業協同組合(JAみやざき)三股支店", "address": "宮崎県北諸県郡三股町樺山4457-1", "lat": 31.7331659, "lon": 131.122683, "category": "銀行", "category_id": "0402596", "time": [], "star": 0.0, "review": 1}, {"name": "ゆうちょ銀行 三股郵便局", "address": "宮崎県北諸県郡三股町樺山4573-15", "lat": 31.7320152, "lon": 131.119473, "category": "銀行", "category_id": "0402596", "time": [], "star": 0.0, "review": 0}, {"name": "セブン銀行 三股樺山店", "address": "宮崎県北諸県郡三股町樺山2029-1", "lat": 31.7283813, "lon": 131.114021, "category": "ATM", "category_id": "0402785", "time": ["00:00-24:00"], "star": 4.0, "review": 1}, {"name": "セブン銀行 三股新馬場店", "address": "宮崎県北諸県郡三股町樺山4318-5", "lat": 31.7373307, "lon": 131.114882, "category": "ATM", "category_id": "0402785", "time": ["00:00-24:00"], "star": 0.0, "review": 0}, {"name": "銀行ATM イーネット ファミリーマート三股樺山 共同出張所", "address": "宮崎県北諸県郡三股町大字樺山4031 ", "lat": 31.734121, "lon": 131.129926, "category": "ATM", "category_id": "0402785", "time": ["00:00-24:00"], "star": 0.0, "review": 0}, {"name": "宮崎第一信用金庫 三股支店", "address": "宮崎県北諸県郡三股町五本松2-7", "lat": 31.7311323, "lon": 131.1253337, "category": "信用金庫", "category_id": "0401098", "time": ["09:00-15:00"], "star": 0.0, "review": 0}, {"name": "ローソン銀行 三股町稗田東共同出張所", "address": "宮崎県北諸県郡三股町樺山4672-58", "lat": 31.7323391, "lon": 131.112821, "category": "ATM", "category_id": "0402785", "time": ["00:00-24:00"], "star": 0.0, "review": 0}, {"name": "JAみやざき三股支店", "address": "宮崎県北諸県郡三股町大字樺山4457-1", "lat": 31.7331349, "lon": 131.1226337, "category": "農業協同組合", "category_id": "0502468", "time": [], "star": 0.0, "review": 0}, {"name": "ベリーマッチ 三股店", "address": "宮崎県北諸県郡三股町樺山4472-3", "lat": 31.7322312, "lon": 131.124136, "category": "酒店", "category_id": "0202522", "time": [], "star": 3.65, "review": 6}], "スーパーマーケット": [{"name": "ながやま 三股駅前店", "address": "宮崎県北諸県郡三股町大字樺山射場前4517-1", "lat": 31.7313656, "lon": 131.120956, "category": "スーパー", "category_id": "0200612", "time": ["09:00-20:00"], "star": 4.0, "review": 27}, {"name": "ベリーマッチ 三股店", "address": "宮崎県北諸県郡三股町樺山4472-3", "lat": 31.7322312, "lon": 131.124136, "category": "酒店", "category_id": "0202522", "time": [], "star": 3.65, "review": 6}]}, "top_restaurant": {"name": "中園鶏肉加工店", "category": "鶏料理店", "star": 4.73, "review": 7}}, {"name": "中福良", "name_en": "Nakafukura", "lat": 31.8139072, "lon": 130.7329336, "osm_id": 265921370, "operator": "九州旅客鉄道", "railway": "station", "wikidata": "Q5375706", "wikipedia_tag": "ja:中福良駅", "lines": ["JR肥薩線"], "pref": "宮崎県", "wikipedia_text": "中福良駅（なかふくらえき）は、鹿児島県霧島市隼人町嘉例川にある、九州旅客鉄道（JR九州）肥薩線の駅である。", "wikipedia_image": "https://upload.wikimedia.org/wikipedia/commons/f/f8/Nakafukura_Station.JPG", "nearest_convenience": {"name": "ファミリーマート", "lat": 31.8018514, "lon": 130.7155906, "address": "霧島市", "distance_m": 2117, "brand": "FamilyMart"}, "nearest_restaurant": {"name": "Sky Shop", "lat": 31.8020893, "lon": 130.7155792, "address": "", "distance_m": 2101, "cuisine": ""}, "nearby_pois": {}}, {"name": "串間", "name_en": "Kushima", "lat": 31.4628354, "lon": 131.2305132, "osm_id": 265841049, "operator": "九州旅客鉄道", "railway": "station", "wikidata": "Q6447950", "wikipedia_tag": "ja:串間駅", "lines": ["JR日南線"], "pref": "宮崎県", "nearby_bus_stops": [{"name": "道の駅くしま", "lat": 31.4626747, "lon": 131.228981, "distance_m": 146, "operator": ""}], "wikipedia_text": "串間駅（くしまえき）は、宮崎県串間市大字西方にある、九州旅客鉄道（JR九州）日南線の駅である。", "wikipedia_image": "https://upload.wikimedia.org/wikipedia/commons/c/c3/JR_Kushima_Station_2023.jpg", "nearest_convenience": {"name": "ローソン", "lat": 31.4631002, "lon": 131.2306095, "address": "", "distance_m": 31, "brand": "LAWSON"}, "nearest_restaurant": {"name": "寿司虎 串間本店", "lat": 31.4627044, "lon": 131.2279984, "address": "宮崎県串間市大字西方55031", "distance_m": 239, "cuisine": "sushi"}, "nearby_pois": {"コンビニ": [{"name": "ローソン 串間駅前", "address": "宮崎県串間市西方5731-4", "lat": 31.4631416, "lon": 131.2305469, "category": "コンビニ", "category_id": "0200487", "time": ["00:00-24:00"], "star": 4.53, "review": 3}, {"name": "セブンイレブン 串間本町", "address": "宮崎県串間市西方6590-1", "lat": 31.4609058, "lon": 131.2267583, "category": "コンビニ", "category_id": "0200487", "time": ["00:00-24:00"], "star": 4.3, "review": 5}, {"name": "ファミリーマート 串間ふれあい坂店", "address": "宮崎県串間市西方5638-1", "lat": 31.4636583, "lon": 131.2257444, "category": "コンビニ", "category_id": "0200487", "time": ["00:00-24:00"], "star": 4.5, "review": 5}], "ラーメン": [{"name": "マルチョンラーメン", "address": "宮崎県串間市大字西方6573", "lat": 31.4623684, "lon": 131.22908677, "category": "ラーメン店", "category_id": "0100097", "time": ["11:00-24:00"], "star": 3.97, "review": 34}, {"name": "中華食堂 たんたん", "address": "宮崎県串間市西方5500-1", "lat": 31.463231358676, "lon": 131.22932754776, "category": "ラーメン店", "category_id": "0100097", "time": ["11:30-13:30", "18:00-21:00"], "star": 3.4, "review": 2}, {"name": "栄来軒", "address": "宮崎県串間市西方5713", "lat": 31.462392338676, "lon": 131.22843747776, "category": "ラーメン店", "category_id": "0100097", "time": [], "star": 2.3, "review": 3}], "飲食店": [{"name": "ラウンジ ケイナ", "address": "宮崎県串間市大字西方6578-3", "lat": 31.461838770854, "lon": 131.2285032042, "category": "バー", "category_id": "0100536", "time": [], "star": 3.3, "review": 1}, {"name": "食欲解禁", "address": "宮崎県串間市西方6593-4", "lat": 31.461453238677, "lon": 131.22833984775, "category": "とんかつ店", "category_id": "0100159", "time": ["11:00-15:00", "18:00-22:00"], "star": 4.06, "review": 5}, {"name": "わたなべ", "address": "宮崎県串間市西方6575", "lat": 31.462162288677, "lon": 131.22895172775, "category": "居酒屋", "category_id": "0101495", "time": ["18:00-24:00"], "star": 4.08, "review": 6}, {"name": "大乃屋", "address": "宮崎県串間市西方6524-108", "lat": 31.46437979, "lon": 131.23233073, "category": "寿司店", "category_id": "0100101", "time": ["11:00-14:30", "17:00-22:00"], "star": 4.34, "review": 51}, {"name": "味彩", "address": "宮崎県串間市大字西方3857-1", "lat": 31.471204398672, "lon": 131.23241166784, "category": "和食店", "category_id": "0100126", "time": ["11:30-14:00", "17:30-21:00"], "star": 0.0, "review": 0}, {"name": "Ceefoodダイニング ひふみん", "address": "宮崎県串間市西方5500-1", "lat": 31.463291878676, "lon": 131.22930613776, "category": "定食屋", "category_id": "0101441", "time": [], "star": 4.05, "review": 1}, {"name": "磯料理 伊予屋", "address": "宮崎県串間市大字西方 6559-5", "lat": 31.462163357423, "lon": 131.22922727051, "category": "飲食店", "category_id": "0102732", "time": [], "star": 0.0, "review": 0}, {"name": "宮崎焼肉音音NEON", "address": "宮崎県串間市東町5-4", "lat": 31.461923599243164, "lon": 131.22982788085938, "category": "飲食店", "category_id": "0102732", "time": [], "star": 0.0, "review": 0}, {"name": "道の駅 くしま", "address": "宮崎県串間市大字西方5503-1", "lat": 31.4627889, "lon": 131.2281193, "category": "道の駅", "category_id": "0302504", "time": [], "star": 4.3, "review": 94}, {"name": "あわじ", "address": "宮崎県串間市西方5786-4", "lat": 31.46434286, "lon": 131.23157799, "category": "和食店", "category_id": "0100126", "time": [], "star": 4.13, "review": 3}, {"name": "IZUMIMACHICREPE", "address": "宮崎県串間市東町 6-1", "lat": 31.462072372437, "lon": 131.23101806641, "category": "飲食店", "category_id": "0102732", "time": [], "star": 0.0, "review": 0}, {"name": "いよや磯料理", "address": "宮崎県串間市西方6562-1", "lat": 31.46200289, "lon": 131.22903566, "category": "居酒屋", "category_id": "0101495", "time": [], "star": 2.05, "review": 2}, {"name": "一休", "address": "宮崎県串間市西方6564-1", "lat": 31.46170432, "lon": 131.22868041, "category": "居酒屋", "category_id": "0101495", "time": [], "star": 3.97, "review": 3}, {"name": "まるカフェ", "address": "宮崎県串間市大字西方5614-3", "lat": 31.46385214, "lon": 131.22775738, "category": "カフェ・喫茶", "category_id": "0100344", "time": ["06:30-08:00", "11:30-14:00"], "star": 0.0, "review": 1}, {"name": "キャストル", "address": "宮崎県串間市西方5749-7", "lat": 31.46401181, "lon": 131.23012363, "category": "洋食店", "category_id": "0100129", "time": ["11:30-14:00", "17:30-20:00"], "star": 3.53, "review": 9}, {"name": "くいもの屋しんちゃん", "address": "宮崎県串間市西方5684-1", "lat": 31.46187099, "lon": 131.22733965, "category": "居酒屋", "category_id": "0101495", "time": ["17:30-22:30"], "star": 3.94, "review": 8}, {"name": "うどん七福", "address": "宮崎県串間市西方6536", "lat": 31.462490128677, "lon": 131.22924597776, "category": "うどん店", "category_id": "0100033", "time": ["11:00-14:00", "21:00-26:00"], "star": 3.54, "review": 7}, {"name": "寿司虎 串間本店", "address": "宮崎県串間市大字西方5503-1", "lat": 31.462764538657787, "lon": 131.22800592273154, "category": "寿司店", "category_id": "0100101", "time": ["11:00-15:00", "17:00-21:00"], "star": 4.51, "review": 46}, {"name": "ウミヤマ ショクドウ", "address": "宮崎県串間市大字西方5503-1 道の駅くしま", "lat": 31.462748058676, "lon": 131.22842653776, "category": "海鮮丼店", "category_id": "0101882", "time": [], "star": 3.96, "review": 11}, {"name": "串間酒場 わっしょい", "address": "宮崎県串間市大字西方6555-5", "lat": 31.462114378677, "lon": 131.22848043775, "category": "居酒屋", "category_id": "0101495", "time": [], "star": 3.3, "review": 3}], "カフェ": [{"name": "ウミヤマカフェ", "address": "宮崎県串間市西方5503-1 道の駅くしま内", "lat": 31.462643245024, "lon": 131.22817512321, "category": "ソフトクリーム店", "category_id": "0100624", "time": [], "star": 0.0, "review": 0}, {"name": "まるカフェ", "address": "宮崎県串間市大字西方5614-3", "lat": 31.46385214, "lon": 131.22775738, "category": "カフェ・喫茶", "category_id": "0100344", "time": ["06:30-08:00", "11:30-14:00"], "star": 0.0, "review": 1}, {"name": "カフェナサ", "address": "宮崎県串間市西方5721-1", "lat": 31.4621762, "lon": 131.228652, "category": "カフェ・喫茶", "category_id": "0100344", "time": [], "star": 0.0, "review": 0}, {"name": "ローズ", "address": "宮崎県串間市西方5771", "lat": 31.4640316, "lon": 131.2314545, "category": "カフェ・喫茶", "category_id": "0100344", "time": [], "star": 0.0, "review": 0}], "ドラッグストア": [{"name": "ドラッグストアモリ 串間店", "address": "宮崎県串間市西方6760-1", "lat": 31.4583757, "lon": 131.2222475, "category": "ドラッグストア", "category_id": "0200699", "time": ["09:00-23:00"], "star": 4.22, "review": 22}, {"name": "岩本調剤薬局天神橋店", "address": "宮崎県串間市大字西方5335-4", "lat": 31.46837247, "lon": 131.22731679, "category": "調剤薬局", "category_id": "0202315", "time": [], "star": 0.0, "review": 0}, {"name": "ファミリー薬局", "address": "宮崎県串間市大字西方6590-4", "lat": 31.46084557, "lon": 131.22661803, "category": "調剤薬局", "category_id": "0202315", "time": [], "star": 0.0, "review": 0}, {"name": "クラモト薬品", "address": "宮崎県串間市大字西方5518", "lat": 31.464852, "lon": 131.22929978, "category": "調剤薬局", "category_id": "0202315", "time": [], "star": 0.0, "review": 0}, {"name": "池畑薬局", "address": "宮崎県串間市大字西方5382", "lat": 31.46515579, "lon": 131.22999742, "category": "漢方", "category_id": "0201946", "time": [], "star": 0.0, "review": 0}], "ATM": [{"name": "宮崎銀行 ATM 串間支店", "address": "宮崎県串間市大字西方字栗下5774-6", "lat": 31.4640895, "lon": 131.230838, "category": "ATM", "category_id": "0402785", "time": [], "star": 0.0, "review": 0}, {"name": "JAバンク 宮崎県農業協同組合(JAみやざき)串間支店", "address": "宮崎県串間市東町7-7", "lat": 31.4627328, "lon": 131.230695, "category": "銀行", "category_id": "0402596", "time": [], "star": 0.0, "review": 0}, {"name": "JAバンク ATM 宮崎県農業協同組合(JAみやざき)串間支店", "address": "宮崎県串間市東町7-7", "lat": 31.4627227, "lon": 131.230655, "category": "ATM", "category_id": "0402785", "time": [], "star": 0.0, "review": 0}, {"name": "宮崎銀行 串間支店", "address": "宮崎県串間市大字西方字栗下5774-6", "lat": 31.4640498, "lon": 131.2307608, "category": "銀行", "category_id": "0402596", "time": ["09:00-15:00"], "star": 0.0, "review": 0}, {"name": "ゆうちょ銀行 ATM 串間郵便局", "address": "宮崎県串間市西方5616", "lat": 31.4637532, "lon": 131.227528, "category": "ATM", "category_id": "0402785", "time": [], "star": 0.0, "review": 0}, {"name": "宮崎太陽銀行 ATM 串間支店", "address": "宮崎県串間市大字西方字一本松6585-1", "lat": 31.4613862, "lon": 131.227575, "category": "ATM", "category_id": "0402785", "time": [], "star": 0.0, "review": 0}, {"name": "ローソン銀行 串間駅前共同出張所", "address": "宮崎県串間市西方5731-4", "lat": 31.4631064, "lon": 131.230632, "category": "ATM", "category_id": "0402785", "time": ["00:00-24:00"], "star": 0.0, "review": 0}, {"name": "ろうきん ATM 九州労働金庫 串間市役所", "address": "宮崎県串間市西方5550", "lat": 31.4645597, "lon": 131.228335, "category": "ATM", "category_id": "0402785", "time": [], "star": 0.0, "review": 0}, {"name": "宮崎銀行 ATM エヌ・シティニシムタ串間店", "address": "宮崎県串間市西方5590", "lat": 31.4648365, "lon": 131.226676, "category": "ATM", "category_id": "0402785", "time": [], "star": 0.0, "review": 0}, {"name": "宮崎太陽銀行 串間支店", "address": "宮崎県串間市大字西方字一本松6585-1", "lat": 31.461378, "lon": 131.2275944, "category": "銀行", "category_id": "0402596", "time": ["09:00-15:00"], "star": 0.0, "review": 0}, {"name": "銀行ATM イーネット ファミリーマート串間ふれあい坂 共同出張所", "address": "宮崎県串間市大字西方5638-1 ", "lat": 31.46364442, "lon": 131.22574444, "category": "ATM", "category_id": "0402785", "time": ["00:00-24:00"], "star": 0.0, "review": 0}, {"name": "セブン銀行 串間本町店", "address": "宮崎県串間市西方6590-1", "lat": 31.4608877, "lon": 131.226803, "category": "ATM", "category_id": "0402785", "time": ["00:00-24:00"], "star": 0.0, "review": 0}, {"name": "ゆうちょ銀行 串間郵便局", "address": "宮崎県串間市西方5616", "lat": 31.4637532, "lon": 131.227528, "category": "銀行", "category_id": "0402596", "time": [], "star": 0.0, "review": 0}, {"name": "宮崎第一信用金庫 串間支店", "address": "宮崎県串間市西方6556", "lat": 31.4617557, "lon": 131.2283026, "category": "信用金庫", "category_id": "0401098", "time": ["09:00-15:00"], "star": 0.0, "review": 0}], "スーパーマーケット": [{"name": "四季彩館ほりぐち", "address": "宮崎県串間市大字西方3933-1", "lat": 31.47142286, "lon": 131.23331642, "category": "スーパー", "category_id": "0200612", "time": ["09:00-20:00"], "star": 4.22, "review": 8}, {"name": "ニシムタ N’sCITY串間店", "address": "宮崎県串間市西方5590", "lat": 31.46472206, "lon": 131.22682493, "category": "ホームセンター", "category_id": "0200862", "time": ["08:00-23:00"], "star": 3.77, "review": 44}, {"name": "有限会社スーパーほりぐち", "address": "宮崎県串間市大字西方3933-1", "lat": 31.47140762, "lon": 131.23330841, "category": "スーパー", "category_id": "0200612", "time": [], "star": 0.0, "review": 0}]}, "top_restaurant": {"name": "寿司虎 串間本店", "category": "寿司店", "star": 4.51, "review": 46}}, {"name": "五十市", "name_en": "Isoichi", "lat": 31.7185779, "lon": 131.0335635, "osm_id": 265848359, "operator": "九州旅客鉄道", "railway": "station", "wikidata": "Q5357584", "wikipedia_tag": "ja:五十市駅", "lines": ["JR日豊本線"], "pref": "宮崎県", "wikipedia_text": "五十市駅（いそいちえき）は、宮崎県都城市久保原町にある、九州旅客鉄道（JR九州）日豊本線の駅である。日豊本線の起点（小倉駅）側からみて、宮崎県最後の駅であり、宮崎支社の管轄としても最後の駅となる。\n第二次世界大戦以前は、日本陸軍歩兵第23連隊の所在地に隣接していたため軍事上からも重要視されていた。", "wikipedia_image": "https://upload.wikimedia.org/wikipedia/commons/8/8b/JR_Kyushu_Isoichi_station.jpg", "nearest_convenience": {"name": "ローソン", "lat": 31.7154018, "lon": 131.0391602, "address": "", "distance_m": 636, "brand": "LAWSON"}, "nearest_restaurant": {"name": "神田川グルメ館", "lat": 31.7130168, "lon": 131.05959, "address": "", "distance_m": 2538, "cuisine": ""}, "nearby_pois": {"コンビニ": [{"name": "ファミリーマート 蓑原店", "address": "宮崎県都城市久保原町9街区11号", "lat": 31.7261493, "lon": 131.03473, "category": "コンビニ", "category_id": "0200487", "time": ["00:00-24:00"], "star": 4.21, "review": 10}, {"name": "ローソン 都城五十市", "address": "宮崎県都城市五十町2227-1", "lat": 31.7154398, "lon": 131.0391906, "category": "コンビニ", "category_id": "0200487", "time": ["00:00-24:00"], "star": 4.09, "review": 9}, {"name": "ファミリーマート 本城いそいち店", "address": "宮崎県都城市五十町1688-2", "lat": 31.7132512, "lon": 131.0384518, "category": "コンビニ", "category_id": "0200487", "time": ["06:00-23:00"], "star": 3.75, "review": 9}, {"name": "スーパーセンターニシムタ 五十市店", "address": "宮崎県都城市五十町2375-5", "lat": 31.71780595, "lon": 131.03295523, "category": "スーパー", "category_id": "0200612", "time": ["00:00-24:00"], "star": 3.96, "review": 289}, {"name": "パシオ たかお", "address": "宮崎県都城市鷹尾3丁目4街区6号", "lat": 31.722325, "lon": 131.0410874, "category": "スーパー", "category_id": "0200612", "time": ["09:30-22:00"], "star": 3.86, "review": 17}], "ラーメン": [{"name": "ラーメン福味", "address": "宮崎県都城市久保原町7-22", "lat": 31.72183735, "lon": 131.0338873, "category": "ラーメン店", "category_id": "0100097", "time": [], "star": 4.31, "review": 45}, {"name": "ガーデン・キッチン ニシムタ都城五十市店", "address": "宮崎県都城市五十町2375-5", "lat": 31.718116503038, "lon": 131.0323687446, "category": "レストラン", "category_id": "0100111", "time": ["11:00-19:30"], "star": 3.38, "review": 15}, {"name": "一骨入魂", "address": "宮崎県都城市鷹尾5-4342-7", "lat": 31.72701024, "lon": 131.03398393, "category": "ラーメン店", "category_id": "0100097", "time": ["11:00-15:00", "17:00-21:00"], "star": 4.21, "review": 60}, {"name": "桝元 五十市店", "address": "宮崎県都城市五十町2370-2", "lat": 31.7162189, "lon": 131.033022, "category": "ラーメン店", "category_id": "0100097", "time": ["11:00-22:00"], "star": 4.28, "review": 42}, {"name": "個室大衆居酒屋 かがわ", "address": "宮崎県都城市鷹尾3-4-3", "lat": 31.7218537, "lon": 131.041003, "category": "居酒屋", "category_id": "0101495", "time": ["16:00-22:00"], "star": 3.71, "review": 10}], "飲食店": [{"name": "ガーデン・キッチン ニシムタ都城五十市店", "address": "宮崎県都城市五十町2375-5", "lat": 31.718116503038, "lon": 131.0323687446, "category": "レストラン", "category_id": "0100111", "time": ["11:00-19:30"], "star": 3.38, "review": 15}, {"name": "カラーズM", "address": "宮崎県都城市鷹尾3=4-10", "lat": 31.722758688451, "lon": 131.04025836052, "category": "カフェ・喫茶", "category_id": "0100344", "time": ["11:30-15:00", "18:00-23:00"], "star": 3.3, "review": 1}, {"name": "茶房 珈花子 都城鷹尾店", "address": "宮崎県都城市南鷹尾町47-13 菓匠 蒸気屋 都城鷹尾店 2F", "lat": 31.722742088451, "lon": 131.03933005052, "category": "カフェ・喫茶", "category_id": "0100344", "time": [], "star": 3.15, "review": 2}, {"name": "焼鳥 こけこっこ", "address": "宮崎県都城市久保原町2882-94", "lat": 31.724251838448, "lon": 131.03394393054, "category": "焼き鳥店", "category_id": "0101960", "time": ["17:00-22:00"], "star": 3.0, "review": 1}, {"name": "とり八 平塚店", "address": "宮崎県都城市平塚町3020-2", "lat": 31.719298138449, "lon": 131.02714345049, "category": "焼き鳥店", "category_id": "0101960", "time": ["15:00-19:30"], "star": 0.0, "review": 0}, {"name": "七福", "address": "宮崎県都城市平塚町2632-1", "lat": 31.71856219, "lon": 131.02993613, "category": "うどん店", "category_id": "0100033", "time": [], "star": 4.5, "review": 1}, {"name": "黒船 南鷹尾店", "address": "宮崎県都城市南鷹尾町15-28", "lat": 31.71806463, "lon": 131.03722802, "category": "居酒屋", "category_id": "0101495", "time": ["18:00-23:00"], "star": 4.04, "review": 5}, {"name": "大衆居酒屋 大漁", "address": "宮崎県都城市南鷹尾町20-24", "lat": 31.71803664, "lon": 131.03914054, "category": "居酒屋", "category_id": "0101495", "time": ["17:00-23:00"], "star": 0.0, "review": 0}, {"name": "炭火焼ばんてい", "address": "宮崎県都城市久保原町9-3-22", "lat": 31.724831523232826, "lon": 131.03437646268645, "category": "居酒屋", "category_id": "0101495", "time": ["17:00-24:00"], "star": 4.38, "review": 3}, {"name": "ラーメン福味", "address": "宮崎県都城市久保原町7-22", "lat": 31.72183735, "lon": 131.0338873, "category": "ラーメン店", "category_id": "0100097", "time": [], "star": 4.31, "review": 45}, {"name": "純喫茶悠悠", "address": "宮崎県都城市久保原町3-18", "lat": 31.7184871, "lon": 131.0350786, "category": "カフェ・喫茶", "category_id": "0100344", "time": [], "star": 0.0, "review": 0}, {"name": "GABU", "address": "宮崎県都城市平塚町2632-1", "lat": 31.718602408451, "lon": 131.03000868048, "category": "ハンバーガー店", "category_id": "0100722", "time": ["11:00-19:00"], "star": 3.89, "review": 6}, {"name": "クッナム・コーヒーショップ", "address": "宮崎県都城市鷹尾2丁目3-6", "lat": 31.720685057579615, "lon": 131.0436132550522, "category": "カフェ・喫茶", "category_id": "0100344", "time": ["10:00-18:00"], "star": 4.22, "review": 3}, {"name": "楽食家 まぶ亭", "address": "宮崎県都城市南鷹尾町38-14", "lat": 31.72224945, "lon": 131.04009951, "category": "居酒屋", "category_id": "0101495", "time": [], "star": 4.6, "review": 4}, {"name": "ひなたの食卓", "address": "宮崎県都城市鷹尾5丁目1-40-2", "lat": 31.72546894, "lon": 131.03827029, "category": "レストラン", "category_id": "0100111", "time": [], "star": 4.0, "review": 1}, {"name": "個室大衆居酒屋 かがわ", "address": "宮崎県都城市鷹尾3-4-3", "lat": 31.7218537, "lon": 131.041003, "category": "居酒屋", "category_id": "0101495", "time": ["16:00-22:00"], "star": 3.71, "review": 10}, {"name": "まーる茶房", "address": "宮崎県都城市南鷹尾町12ー17", "lat": 31.71789482840173, "lon": 131.04146503328454, "category": "カフェ・喫茶", "category_id": "0100344", "time": [], "star": 3.73, "review": 4}, {"name": "Cha Cha", "address": "宮崎県都城市南鷹尾町 29-10", "lat": 31.71840476989746, "lon": 131.0377655029297, "category": "飲食店", "category_id": "0102732", "time": [], "star": 0.0, "review": 0}, {"name": "ゴーゴーカレー 都城スタジアム", "address": "宮崎県都城市平塚町2633番地4 ", "lat": 31.7182725, "lon": 131.0293362, "category": "カレー店", "category_id": "0100359", "time": ["10:55-20:55"], "star": 3.93, "review": 13}, {"name": "お好み焼大阪屋", "address": "宮崎県都城市南鷹尾町15-20", "lat": 31.71780553, "lon": 131.03800625, "category": "お好み焼き店", "category_id": "0100046", "time": [], "star": 4.25, "review": 11}], "カフェ": [{"name": "ガーデン・キッチン ニシムタ都城五十市店", "address": "宮崎県都城市五十町2375-5", "lat": 31.718116503038, "lon": 131.0323687446, "category": "レストラン", "category_id": "0100111", "time": ["11:00-19:30"], "star": 3.38, "review": 15}, {"name": "茶房 珈花子 都城鷹尾店", "address": "宮崎県都城市南鷹尾町47-13 菓匠 蒸気屋 都城鷹尾店 2F", "lat": 31.722742088451, "lon": 131.03933005052, "category": "カフェ・喫茶", "category_id": "0100344", "time": [], "star": 3.15, "review": 2}, {"name": "カラーズM", "address": "宮崎県都城市鷹尾3=4-10", "lat": 31.722758688451, "lon": 131.04025836052, "category": "カフェ・喫茶", "category_id": "0100344", "time": ["11:30-15:00", "18:00-23:00"], "star": 3.3, "review": 1}, {"name": "純喫茶悠悠", "address": "宮崎県都城市久保原町3-18", "lat": 31.7184871, "lon": 131.0350786, "category": "カフェ・喫茶", "category_id": "0100344", "time": [], "star": 0.0, "review": 0}, {"name": "クッナム・コーヒーショップ", "address": "宮崎県都城市鷹尾2丁目3-6", "lat": 31.720685057579615, "lon": 131.0436132550522, "category": "カフェ・喫茶", "category_id": "0100344", "time": ["10:00-18:00"], "star": 4.22, "review": 3}, {"name": "まーる茶房", "address": "宮崎県都城市南鷹尾町12ー17", "lat": 31.71789482840173, "lon": 131.04146503328454, "category": "カフェ・喫茶", "category_id": "0100344", "time": [], "star": 3.73, "review": 4}, {"name": "music cafe crescendO", "address": "宮崎県都城市鷹尾4-11-8-1", "lat": 31.72590865, "lon": 131.0392132, "category": "カフェ・喫茶", "category_id": "0100344", "time": ["11:00-14:00"], "star": 3.6, "review": 1}, {"name": "ぐりぐり 本店", "address": "宮崎県都城市鷹尾5丁目1-16", "lat": 31.7256852, "lon": 131.0363656, "category": "カフェ・喫茶", "category_id": "0100344", "time": [], "star": 4.0, "review": 1}, {"name": "珈琲茶話", "address": "宮崎県都城市南鷹尾町38-13", "lat": 31.72235582, "lon": 131.03987232, "category": "カフェ・喫茶", "category_id": "0100344", "time": [], "star": 0.0, "review": 0}, {"name": "パティスリー&カフェ ピエール", "address": "宮崎県都城市五十町1637-5", "lat": 31.712866298457, "lon": 131.03808546042, "category": "ケーキ店", "category_id": "0100460", "time": ["11:00-18:00"], "star": 3.62, "review": 6}, {"name": "個室大衆居酒屋 かがわ", "address": "宮崎県都城市鷹尾3-4-3", "lat": 31.7218537, "lon": 131.041003, "category": "居酒屋", "category_id": "0101495", "time": ["16:00-22:00"], "star": 3.71, "review": 10}], "ドラッグストア": [{"name": "ドラッグストアコスモス 五十市店", "address": "宮崎県都城市五十町２２７８－１ ", "lat": 31.7164368, "lon": 131.03735191, "category": "ドラッグストア", "category_id": "0200699", "time": ["10:00-21:00"], "star": 3.72, "review": 31}, {"name": "マツモトキヨシ ドラッグストア 鷹尾店", "address": "宮崎県都城市南鷹尾町47街区9号", "lat": 31.7227082, "lon": 131.0391432, "category": "ドラッグストア", "category_id": "0200699", "time": ["09:00-24:00"], "star": 3.76, "review": 17}, {"name": "コスモス 都城鷹尾店", "address": "宮崎県都城市鷹尾5丁目1街区12", "lat": 31.7253977, "lon": 131.036674, "category": "ドラッグストア", "category_id": "0200699", "time": ["10:00-21:00"], "star": 0.0, "review": 0}, {"name": "そうごう薬局 たかお店", "address": "宮崎県都城市鷹尾3丁目10-10", "lat": 31.72349709, "lon": 131.04070691, "category": "調剤薬局", "category_id": "0202315", "time": ["09:00-18:00"], "star": 4.0, "review": 1}, {"name": "ひなた薬局五十市店", "address": "宮崎県都城市五十町2267-4", "lat": 31.71533361, "lon": 131.03718527, "category": "調剤薬局", "category_id": "0202315", "time": [], "star": 0.0, "review": 0}, {"name": "ハートハンズ薬局", "address": "宮崎県都城市久保原町9-42", "lat": 31.72354767, "lon": 131.03385896, "category": "調剤薬局", "category_id": "0202315", "time": [], "star": 0.0, "review": 0}, {"name": "とまと薬局都城店", "address": "宮崎県都城市南鷹尾町24-3", "lat": 31.7206711, "lon": 131.04161655, "category": "調剤薬局", "category_id": "0202315", "time": ["07:00-19:00"], "star": 0.0, "review": 0}, {"name": "わたなべ薬局", "address": "宮崎県都城市久保原町9-43", "lat": 31.72337186, "lon": 131.0338023, "category": "調剤薬局", "category_id": "0202315", "time": [], "star": 0.0, "review": 0}, {"name": "たかお薬局", "address": "宮崎県都城市南鷹尾町11-30", "lat": 31.71912715, "lon": 131.04216178, "category": "調剤薬局", "category_id": "0202315", "time": [], "star": 0.0, "review": 0}, {"name": "サン薬局久保原店", "address": "宮崎県都城市久保原町9-3-2", "lat": 31.72578125, "lon": 131.03493551, "category": "調剤薬局", "category_id": "0202315", "time": [], "star": 0.0, "review": 0}, {"name": "友愛薬局", "address": "宮崎県都城市鷹尾4丁目4-19", "lat": 31.72403172, "lon": 131.04011393, "category": "調剤薬局", "category_id": "0202315", "time": [], "star": 0.0, "review": 0}], "ATM": [{"name": "鹿児島銀行 ATM スーパーセンターニシムタ五十市店", "address": "宮崎県都城市五十町2375-5", "lat": 31.718037, "lon": 131.033516, "category": "ATM", "category_id": "0402785", "time": [], "star": 4.5, "review": 0}, {"name": "宮崎銀行 ATM スーパーセンターニシムタ五十市店", "address": "宮崎県都城市五十町2375-5", "lat": 31.7177961, "lon": 131.033751, "category": "ATM", "category_id": "0402785", "time": [], "star": 4.0, "review": 1}, {"name": "宮崎銀行 鷹尾支店", "address": "宮崎県都城市鷹尾4-1-1", "lat": 31.723261, "lon": 131.0396876, "category": "銀行", "category_id": "0402596", "time": ["09:00-15:00"], "star": 3.67, "review": 2}, {"name": "宮崎銀行 ATM 鷹尾支店", "address": "宮崎県都城市鷹尾4-1-1", "lat": 31.7231658, "lon": 131.039713, "category": "ATM", "category_id": "0402785", "time": [], "star": 0.0, "review": 0}, {"name": "宮崎銀行 ATM パシオたかお店", "address": "宮崎県都城市鷹尾3-4-6", "lat": 31.72233504, "lon": 131.04111659, "category": "ATM", "category_id": "0402785", "time": [], "star": 0.0, "review": 0}, {"name": "宮崎第一信用金庫 鷹尾支店", "address": "宮崎県都城市鷹尾3丁目1街区18", "lat": 31.7207475, "lon": 131.0427706, "category": "信用金庫", "category_id": "0401098", "time": ["09:00-15:00"], "star": 4.0, "review": 1}, {"name": "銀行ATM イーネット ファミリーマート蓑原 共同出張所", "address": "宮崎県都城市久保原町9-11 ", "lat": 31.72611592, "lon": 131.03468553, "category": "ATM", "category_id": "0402785", "time": ["00:00-24:00"], "star": 0.0, "review": 0}, {"name": "銀行ATM イーネット ファミリーマート本城いそいち 共同出張所", "address": "宮崎県都城市五十町1688-2 ", "lat": 31.71328448, "lon": 131.03847401, "category": "ATM", "category_id": "0402785", "time": ["06:00-23:00"], "star": 0.0, "review": 0}, {"name": "JAバンク ATM 宮崎県農業協同組合(JAみやざき)五十市支店", "address": "宮崎県都城市鷹尾町3-3-3", "lat": 31.7212646, "lon": 131.041727, "category": "ATM", "category_id": "0402785", "time": [], "star": 0.0, "review": 0}, {"name": "宮崎銀行 庄内出張所", "address": "宮崎県都城市鷹尾4-1-1", "lat": 31.723261, "lon": 131.0396709, "category": "銀行", "category_id": "0402596", "time": ["09:00-15:00"], "star": 0.0, "review": 0}, {"name": "ゆうちょ銀行 ATM 都城鷹尾郵便局", "address": "宮崎県都城市鷹尾3-1-20", "lat": 31.7205974, "lon": 131.042746, "category": "ATM", "category_id": "0402785", "time": [], "star": 0.0, "review": 0}, {"name": "ローソン銀行 都城五十市共同出張所", "address": "宮崎県都城市五十町2227-1", "lat": 31.7154012, "lon": 131.039291, "category": "ATM", "category_id": "0402785", "time": ["00:00-24:00"], "star": 0.0, "review": 0}, {"name": "ゆうちょ銀行 都城鷹尾郵便局", "address": "宮崎県都城市鷹尾3-1-20", "lat": 31.7205974, "lon": 131.042746, "category": "銀行", "category_id": "0402596", "time": [], "star": 0.0, "review": 0}, {"name": "JAバンク 宮崎県農業協同組合(JAみやざき)五十市支店", "address": "宮崎県都城市鷹尾町3-3-3", "lat": 31.7212231, "lon": 131.041733, "category": "銀行", "category_id": "0402596", "time": [], "star": 0.0, "review": 0}, {"name": "パシオ たかお", "address": "宮崎県都城市鷹尾3丁目4街区6号", "lat": 31.722325, "lon": 131.0410874, "category": "スーパー", "category_id": "0200612", "time": ["09:30-22:00"], "star": 3.86, "review": 17}, {"name": "宮崎第一信用金庫ハーティながやま鷹尾店ATMコーナー", "address": "宮崎県都城市鷹尾5丁目4342番7", "lat": 31.72702415, "lon": 131.03548376, "category": "信用金庫", "category_id": "0401098", "time": [], "star": 0.0, "review": 0}], "銭湯 温泉": [{"name": "合歓木温泉 五十市店", "address": "宮崎県都城市五十町1613", "lat": 31.71009122, "lon": 131.0370468, "category": "日帰り入浴", "category_id": "0401679", "time": ["05:15-23:30"], "star": 3.59, "review": 9}], "スーパーマーケット": [{"name": "スーパーセンターニシムタ 五十市店", "address": "宮崎県都城市五十町2375-5", "lat": 31.71780595, "lon": 131.03295523, "category": "スーパー", "category_id": "0200612", "time": ["00:00-24:00"], "star": 3.96, "review": 289}, {"name": "パシオ たかお", "address": "宮崎県都城市鷹尾3丁目4街区6号", "lat": 31.722325, "lon": 131.0410874, "category": "スーパー", "category_id": "0200612", "time": ["09:30-22:00"], "star": 3.86, "review": 17}, {"name": "株式会社スーパー大浦 サポートセンター・管理本部", "address": "宮崎県都城市鷹尾3丁目4-6", "lat": 31.722664, "lon": 131.04059105, "category": "スーパー", "category_id": "0200612", "time": [], "star": 0.0, "review": 0}, {"name": "キャン・ドゥ スーパーセンターニシムタ五十市店", "address": "宮崎県都城市五十町2375-5 スーパーセンターニシムタ五十市店", "lat": 31.7186197, "lon": 131.0325608, "category": "100円ショップ", "category_id": "0200001", "time": [], "star": 3.76, "review": 23}, {"name": "中井上商店", "address": "宮崎県都城市南鷹尾町41-1", "lat": 31.7217195, "lon": 131.03943767, "category": "かき氷店", "category_id": "0100049", "time": ["11:00-17:00"], "star": 4.12, "review": 11}]}, "top_restaurant": {"name": "楽食家 まぶ亭", "category": "居酒屋", "star": 4.6, "review": 4}}, {"name": "京町温泉", "name_en": "Kyomachi-Onsen", "lat": 32.0453249, "lon": 130.7676343, "osm_id": 265852835, "operator": "九州旅客鉄道", "railway": "station", "wikidata": "Q6453068", "wikipedia_tag": "ja:京町温泉駅", "lines": ["JR吉都線"], "pref": "宮崎県", "wikipedia_text": "京町温泉駅（きょうまちおんせんえき）は、宮崎県えびの市大字向江にある、九州旅客鉄道（JR九州）吉都線の駅である。", "wikipedia_image": "https://upload.wikimedia.org/wikipedia/commons/9/9c/Kyomatchi-onsen_station_202505-1.jpg", "nearest_convenience": {"name": "ローソン", "lat": 32.0119377, "lon": 130.7444911, "address": "鹿児島県湧水町中津川下川路206", "distance_m": 4306, "brand": "LAWSON"}, "nearest_restaurant": {"name": "ともちゃん", "lat": 32.012229, "lon": 130.7416043, "address": "", "distance_m": 4423, "cuisine": ""}, "nearby_pois": {"コンビニ": [{"name": "セブンイレブン えびの京町温泉", "address": "宮崎県えびの市向江601", "lat": 32.0468008, "lon": 130.7663192, "category": "コンビニ", "category_id": "0200487", "time": ["00:00-24:00"], "star": 3.92, "review": 7}, {"name": "ローソン えびの京町", "address": "宮崎県えびの市向江285-1", "lat": 32.0493424, "lon": 130.7730686, "category": "コンビニ", "category_id": "0200487", "time": ["00:00-24:00"], "star": 3.5, "review": 2}], "ラーメン": [{"name": "慶珉 えびの本店", "address": "宮崎県えびの市大字向江943", "lat": 32.04613087, "lon": 130.766535, "category": "ラーメン店", "category_id": "0100097", "time": ["11:30-15:00", "17:30-22:00"], "star": 4.03, "review": 23}, {"name": "京町辛麺 幸辛亭", "address": "宮崎県えびの市浦1578-1", "lat": 32.043904138159, "lon": 130.76261365396, "category": "ラーメン店", "category_id": "0100097", "time": ["11:30-15:00"], "star": 3.4, "review": 1}, {"name": "大蛇ラーメン", "address": "宮崎県えびの市浦1054", "lat": 32.0429596, "lon": 130.7748468, "category": "ラーメン店", "category_id": "0100097", "time": [], "star": 0.0, "review": 1}], "飲食店": [{"name": "村いちばん", "address": "宮崎県えびの市向江980", "lat": 32.045488928159, "lon": 130.76634848397, "category": "居酒屋", "category_id": "0101495", "time": [], "star": 0.0, "review": 0}, {"name": "和み処 みなみ", "address": "宮崎県えびの市大字向江641", "lat": 32.047277937353, "lon": 130.76717595282, "category": "居酒屋", "category_id": "0101495", "time": [], "star": 3.5, "review": 1}, {"name": "ママの味本舗", "address": "宮崎県えびの市向江640", "lat": 32.047715899498, "lon": 130.76758305788, "category": "居酒屋", "category_id": "0101495", "time": [], "star": 0.0, "review": 4}, {"name": "ベトナム料理 フォー ハノイ", "address": "宮崎県えびの市大字向江641-3", "lat": 32.04747750268, "lon": 130.76636434313, "category": "ベトナム料理店", "category_id": "0100834", "time": ["11:00-20:00"], "star": 3.75, "review": 8}, {"name": "賢豊 えびの店", "address": "宮崎県えびの市向江564-1", "lat": 32.048380518158, "lon": 130.768990954, "category": "居酒屋", "category_id": "0101495", "time": ["18:00-22:00"], "star": 0.0, "review": 0}, {"name": "台湾料理 金城", "address": "宮崎県えびの市向江554-1", "lat": 32.0473232, "lon": 130.7685971, "category": "台湾料理店", "category_id": "0101283", "time": [], "star": 0.0, "review": 1}, {"name": "かふぇ 木蓮", "address": "宮崎県えびの市大字向江647-5", "lat": 32.0482799658, "lon": 130.76755228614, "category": "カフェ・喫茶", "category_id": "0100344", "time": [], "star": 4.68, "review": 21}, {"name": "いその家ハマダイニング", "address": "宮崎県えびの市大字向江602-7", "lat": 32.046520550153, "lon": 130.76642620054, "category": "居酒屋", "category_id": "0101495", "time": ["17:00-23:30"], "star": 3.82, "review": 4}, {"name": "慶珉 えびの本店", "address": "宮崎県えびの市大字向江943", "lat": 32.04613087, "lon": 130.766535, "category": "ラーメン店", "category_id": "0100097", "time": ["11:30-15:00", "17:30-22:00"], "star": 4.03, "review": 23}, {"name": "スナックJunJun", "address": "宮崎県えびの市向江606-5", "lat": 32.045847, "lon": 130.766726, "category": "居酒屋", "category_id": "0101495", "time": [], "star": 4.5, "review": 1}, {"name": "エルボン", "address": "宮崎県えびの市向江642", "lat": 32.0470709, "lon": 130.7670215, "category": "カフェ・喫茶", "category_id": "0100344", "time": [], "star": 0.0, "review": 0}, {"name": "つかさ", "address": "宮崎県えびの市向江920", "lat": 32.04709596, "lon": 130.76456651, "category": "居酒屋", "category_id": "0101495", "time": [], "star": 4.1, "review": 3}, {"name": "京小町", "address": "宮崎県えびの市向江1005", "lat": 32.045820018158, "lon": 130.76458926397, "category": "居酒屋", "category_id": "0101495", "time": ["18:00-23:00"], "star": 0.0, "review": 0}, {"name": "十兵衛うどん えびの京町本店", "address": "宮崎県えびの市大字向江212-1", "lat": 32.04963763, "lon": 130.77236976, "category": "うどん店", "category_id": "0100033", "time": ["11:00-22:00"], "star": 3.94, "review": 68}, {"name": "EARTH", "address": "宮崎県えびの市向江936-9", "lat": 32.046955, "lon": 130.766131, "category": "レストラン", "category_id": "0100111", "time": [], "star": 0.0, "review": 0}, {"name": "B・B KING", "address": "宮崎県えびの市大字向江980", "lat": 32.04566192626953, "lon": 130.7654571533203, "category": "バー", "category_id": "0100536", "time": ["21:00-24:00"], "star": 0.0, "review": 0}, {"name": "フイリッピンパブ馬酔木", "address": "宮崎県えびの市向江961-1", "lat": 32.046269, "lon": 130.765107, "category": "バー", "category_id": "0100536", "time": [], "star": 0.0, "review": 0}, {"name": "たくちゃん", "address": "宮崎県えびの市向江564-1", "lat": 32.048275, "lon": 130.7689716, "category": "居酒屋", "category_id": "0101495", "time": [], "star": 0.0, "review": 0}, {"name": "湯の里みっこちゃん", "address": "宮崎県えびの市向江604", "lat": 32.0455502, "lon": 130.7666024, "category": "居酒屋", "category_id": "0101495", "time": [], "star": 0.0, "review": 0}, {"name": "京町辛麺 幸辛亭", "address": "宮崎県えびの市浦1578-1", "lat": 32.043904138159, "lon": 130.76261365396, "category": "ラーメン店", "category_id": "0100097", "time": ["11:30-15:00"], "star": 3.4, "review": 1}], "カフェ": [{"name": "かふぇ 木蓮", "address": "宮崎県えびの市大字向江647-5", "lat": 32.0482799658, "lon": 130.76755228614, "category": "カフェ・喫茶", "category_id": "0100344", "time": [], "star": 4.68, "review": 21}, {"name": "エルボン", "address": "宮崎県えびの市向江642", "lat": 32.0470709, "lon": 130.7670215, "category": "カフェ・喫茶", "category_id": "0100344", "time": [], "star": 0.0, "review": 0}], "ドラッグストア": [{"name": "ドラッグストアコスモス えびの店", "address": "宮崎県えびの市向江567 ", "lat": 32.0484922, "lon": 130.768707, "category": "ドラッグストア", "category_id": "0200699", "time": ["10:00-21:00"], "star": 4.5, "review": 6}, {"name": "マツモトキヨシ ドラッグストア えびの店", "address": "宮崎県えびの市向江208-1", "lat": 32.0498312, "lon": 130.7728047, "category": "ドラッグストア", "category_id": "0200699", "time": ["08:30-22:00"], "star": 4.5, "review": 2}, {"name": "二葉薬局", "address": "宮崎県えびの市大字向江499", "lat": 32.04767473, "lon": 130.77075354, "category": "調剤薬局", "category_id": "0202315", "time": [], "star": 0.0, "review": 0}], "ATM": [{"name": "ゆうちょ銀行 ATM 真幸郵便局", "address": "宮崎県えびの市向江976", "lat": 32.0462287, "lon": 130.764516, "category": "ATM", "category_id": "0402785", "time": [], "star": 0.0, "review": 0}, {"name": "宮崎銀行 ATM プラッセだいわえびの店", "address": "宮崎県えびの市大字向江字龍田538", "lat": 32.0476024, "lon": 130.768826, "category": "ATM", "category_id": "0402785", "time": [], "star": 0.0, "review": 0}, {"name": "セブン銀行 えびの京町温泉店", "address": "宮崎県えびの市向江601", "lat": 32.0469925, "lon": 130.766161, "category": "ATM", "category_id": "0402785", "time": ["00:00-24:00"], "star": 0.0, "review": 0}, {"name": "JAバンク ATM 宮崎県農業協同組合(JAみやざき)真幸支店", "address": "宮崎県えびの市向江788", "lat": 32.0482199, "lon": 130.763665, "category": "ATM", "category_id": "0402785", "time": [], "star": 0.0, "review": 0}, {"name": "ゆうちょ銀行 真幸郵便局", "address": "宮崎県えびの市向江976", "lat": 32.0462287, "lon": 130.764516, "category": "銀行", "category_id": "0402596", "time": [], "star": 0.0, "review": 0}, {"name": "JAバンク 宮崎県農業協同組合(JAみやざき)真幸支店", "address": "宮崎県えびの市向江788", "lat": 32.0482234, "lon": 130.763637, "category": "銀行", "category_id": "0402596", "time": [], "star": 0.0, "review": 0}, {"name": "ローソン銀行 えびの京町共同出張所", "address": "宮崎県えびの市向江285-1", "lat": 32.049354, "lon": 130.773085, "category": "ATM", "category_id": "0402785", "time": ["00:00-24:00"], "star": 0.0, "review": 0}, {"name": "真幸郵便局", "address": "宮崎県えびの市向江976", "lat": 32.0462286, "lon": 130.7645166, "category": "郵便局", "category_id": "0400993", "time": ["09:00-17:00"], "star": 3.0, "review": 1}], "銭湯 温泉": [{"name": "京町観光ホテル", "address": "宮崎県えびの市大字向江669", "lat": 32.0490728, "lon": 130.7666885, "category": "ホテル", "category_id": "0300124", "time": ["00:00-24:00"], "star": 3.96, "review": 19}, {"name": "十兵衛の湯", "address": "宮崎県えびの市向江212-1", "lat": 32.04968621, "lon": 130.77184702, "category": "日帰り入浴", "category_id": "0401679", "time": ["09:00-23:00"], "star": 0.0, "review": 0}, {"name": "湯之谷温泉", "address": "宮崎県えびの市大字岡松198", "lat": 32.04580419, "lon": 130.75795621, "category": "銭湯", "category_id": "0400578", "time": [], "star": 0.0, "review": 0}, {"name": "日帰り入浴 松尾旅館", "address": "宮崎県えびの市大字向江626", "lat": 32.0468344, "lon": 130.76661747, "category": "日帰り入浴", "category_id": "0401679", "time": [], "star": 0.0, "review": 0}, {"name": "日帰り入浴 京町観光ホテル", "address": "宮崎県えびの市向江669", "lat": 32.0490728, "lon": 130.7666885, "category": "日帰り入浴", "category_id": "0401679", "time": ["07:00-21:00"], "star": 0.0, "review": 0}, {"name": "日帰り入浴 旅館 あけぼの荘", "address": "宮崎県えびの市大字向江825", "lat": 32.0485866, "lon": 130.7624555, "category": "日帰り入浴", "category_id": "0401679", "time": ["11:00-20:00"], "star": 0.0, "review": 0}], "スーパーマーケット": [{"name": "プラッセだいわえびの店", "address": "宮崎県えびの市大字向江554-1", "lat": 32.0472869, "lon": 130.768594, "category": "スーパー", "category_id": "0200612", "time": [], "star": 4.5, "review": 1}, {"name": "プラッセだいわ えびの店", "address": "宮崎県 えびの市 向江 554-1", "lat": 32.0473495, "lon": 130.7685101, "category": "スーパー", "category_id": "0200612", "time": [], "star": 4.0, "review": 4}]}, "top_restaurant": {"name": "かふぇ 木蓮", "category": "カフェ・喫茶", "star": 4.68, "review": 21}}, {"name": "人吉", "name_en": "Hitoyoshi", "lat": 32.2159006, "lon": 130.7532196, "osm_id": 7811215243, "operator": "九州旅客鉄道", "railway": "station", "wikidata": "Q8190132", "wikipedia_tag": "ja:人吉駅", "lines": [], "pref": "宮崎県", "wikipedia_text": "人吉駅（ひとよしえき）は、熊本県人吉市中青井町にある、九州旅客鉄道（JR九州）の駅である。楽チャリ設置駅。\nくま川鉄道との共同使用駅であるが、同社の駅は人吉温泉駅（ひとよしおんせんえき）と称する。命名権による副名称が付され、神城文化の森人吉温泉駅（しんじょうぶんかのもりひとよしおんせんえき）と称している。人吉温泉駅の駅番号は1。", "wikipedia_image": "https://upload.wikimedia.org/wikipedia/commons/8/87/Hitoyoshi_Station%2C_ekisha.jpg", "nearest_convenience": {"name": "ファミリーマート", "lat": 32.2144808, "lon": 130.7551945, "address": "", "distance_m": 244, "brand": "FamilyMart"}, "nearest_restaurant": {"name": "幸楽", "lat": 32.21502, "lon": 130.753863, "address": "", "distance_m": 115, "cuisine": ""}, "nearby_pois": {"コンビニ": [{"name": "ファミリーマート サンロード中青井店", "address": "熊本県人吉市中青井町296", "lat": 32.2144756, "lon": 130.7551851, "category": "コンビニ", "category_id": "0200487", "time": ["00:00-24:00"], "star": 4.5, "review": 2}, {"name": "ローソン 人吉駒井田町", "address": "熊本県人吉市駒井田町字駒井田226-54", "lat": 32.2169448, "lon": 130.7586263, "category": "コンビニ", "category_id": "0200487", "time": ["00:00-24:00"], "star": 4.55, "review": 5}, {"name": "セブンイレブン 人吉下青井町", "address": "熊本県人吉市下青井町90-6", "lat": 32.2123924, "lon": 130.7503662, "category": "コンビニ", "category_id": "0200487", "time": ["00:00-24:00"], "star": 4.71, "review": 2}, {"name": "セブンイレブン 人吉瓦屋町", "address": "熊本県人吉市瓦屋町1164-1", "lat": 32.2219804, "lon": 130.7570402, "category": "コンビニ", "category_id": "0200487", "time": ["00:00-24:00"], "star": 4.13, "review": 6}, {"name": "セブンイレブン 人吉五日町", "address": "熊本県人吉市五日町53-1", "lat": 32.2146119, "lon": 130.7630704, "category": "コンビニ", "category_id": "0200487", "time": ["00:00-24:00"], "star": 4.29, "review": 4}, {"name": "ローソン 人吉上青井", "address": "熊本県人吉市上青井町128-6", "lat": 32.2134785, "lon": 130.7549352, "category": "コンビニ", "category_id": "0200487", "time": ["00:00-24:00"], "star": 0.0, "review": 0}, {"name": "ステーションビジネスホテル 天守閣", "address": "熊本県人吉市中青井町321", "lat": 32.2152644, "lon": 130.7536964, "category": "ビジネスホテル", "category_id": "0300758", "time": [], "star": 4.4, "review": 5}, {"name": "塚本酒店", "address": "熊本県人吉市紺屋町100", "lat": 32.21464119, "lon": 130.75774151, "category": "酒店", "category_id": "0202522", "time": ["10:00-23:00"], "star": 4.0, "review": 1}, {"name": "丸恵本館", "address": "熊本県人吉市鍛冶屋町18", "lat": 32.2165088, "lon": 130.761215, "category": "旅館", "category_id": "0301676", "time": [], "star": 4.28, "review": 5}, {"name": "Green Leaves Mall 人吉医療センター売店", "address": "熊本県人吉市老神町35", "lat": 32.20928459, "lon": 130.75912377, "category": "小売店", "category_id": "0202931", "time": ["07:00-20:00"], "star": 0.0, "review": 0}], "ラーメン": [{"name": "田舎らーめん", "address": "熊本県人吉市中青井町300 1F", "lat": 32.215919797326, "lon": 130.75393886134, "category": "ラーメン店", "category_id": "0100097", "time": [], "star": 0.0, "review": 0}, {"name": "らーめん松", "address": "熊本県人吉市紺屋町84-1", "lat": 32.21393404, "lon": 130.75763488, "category": "ラーメン店", "category_id": "0100097", "time": [], "star": 3.0, "review": 1}, {"name": "ホルモン王", "address": "熊本県人吉市紺屋町58-2 紺屋小町 A棟", "lat": 32.214508348049, "lon": 130.75832913568, "category": "焼肉店", "category_id": "0101963", "time": ["18:00-26:00"], "star": 3.4, "review": 4}, {"name": "好来ラーメン", "address": "熊本県人吉市下青井町76", "lat": 32.21108836, "lon": 130.7497283, "category": "ラーメン店", "category_id": "0100097", "time": ["11:00-19:30"], "star": 3.74, "review": 77}, {"name": "大勝軒", "address": "熊本県人吉市紺屋町118", "lat": 32.215031401437, "lon": 130.75926444052, "category": "ラーメン店", "category_id": "0100097", "time": ["11:00-15:00", "17:00-24:00"], "star": 3.8, "review": 17}, {"name": "らいじん", "address": "熊本県人吉市紺屋町1", "lat": 32.2165763, "lon": 130.75971014, "category": "ラーメン店", "category_id": "0100097", "time": ["11:30-14:00", "19:00-26:00"], "star": 4.0, "review": 1}, {"name": "らあめん狸", "address": "熊本県人吉市土手町41-28", "lat": 32.20886878, "lon": 130.75830414, "category": "ラーメン店", "category_id": "0100097", "time": ["11:00-17:00"], "star": 3.96, "review": 15}, {"name": "FOOD BACE 井上商店", "address": "熊本県人吉市鍛冶屋町64", "lat": 32.21750777447018, "lon": 130.7601907503707, "category": "飲食店", "category_id": "0102732", "time": ["07:00-20:00"], "star": 4.1, "review": 13}, {"name": "ぎょうざ 松龍軒", "address": "熊本県人吉市宝来町12-15", "lat": 32.20981764, "lon": 130.74789633, "category": "餃子店", "category_id": "0102733", "time": [], "star": 3.43, "review": 32}, {"name": "大平樂", "address": "熊本県人吉市紺屋町123", "lat": 32.21497453, "lon": 130.75963631, "category": "定食屋", "category_id": "0101441", "time": [], "star": 3.68, "review": 13}, {"name": "人吉駅弁 やまぐち", "address": "熊本県人吉市中青井町300", "lat": 32.21588875, "lon": 130.75402047, "category": "弁当屋", "category_id": "0101059", "time": ["07:00-15:00"], "star": 4.26, "review": 21}, {"name": "活魚旬菜 ほうらい茶屋 人吉店", "address": "熊本県人吉市相良町1027-1", "lat": 32.21146762, "lon": 130.74419182, "category": "居酒屋", "category_id": "0101495", "time": ["11:00-15:00", "17:00-22:30"], "star": 4.19, "review": 34}], "飲食店": [{"name": "こびょうたん", "address": "熊本県人吉市中青井町326-3", "lat": 32.215831738047, "lon": 130.7533721557, "category": "居酒屋", "category_id": "0101495", "time": ["18:00-22:30"], "star": 0.0, "review": 0}, {"name": "球磨焼酎ト球磨ノ食 開", "address": "熊本県人吉市上青井町120-5", "lat": 32.2158321, "lon": 130.7533723, "category": "レストラン", "category_id": "0100111", "time": [], "star": 4.5, "review": 2}, {"name": "三日月食堂 昭和", "address": "熊本県人吉市中青井町326-3 モゾカタウンひとよし駅前6番", "lat": 32.215075160234, "lon": 130.75246750128, "category": "定食屋", "category_id": "0101441", "time": [], "star": 0.0, "review": 0}, {"name": "バルエイト", "address": "熊本県人吉市駒井田町201-1", "lat": 32.215476518048, "lon": 130.75750106569, "category": "バル", "category_id": "0100582", "time": ["18:00-24:30"], "star": 3.4, "review": 3}, {"name": "田舎らーめん", "address": "熊本県人吉市中青井町300 1F", "lat": 32.215919797326, "lon": 130.75393886134, "category": "ラーメン店", "category_id": "0100097", "time": [], "star": 0.0, "review": 0}, {"name": "ホルモン王", "address": "熊本県人吉市紺屋町58-2 紺屋小町 A棟", "lat": 32.214508348049, "lon": 130.75832913568, "category": "焼肉店", "category_id": "0101963", "time": ["18:00-26:00"], "star": 3.4, "review": 4}, {"name": "楽天", "address": "熊本県人吉市上青井町180-22", "lat": 32.214491608048, "lon": 130.75616231568, "category": "天ぷら店", "category_id": "0100155", "time": ["18:00-22:00"], "star": 4.2, "review": 3}, {"name": "カフェ 亜麻色", "address": "熊本県人吉市上青井町160 人吉旅館様テナント", "lat": 32.212153208049, "lon": 130.75415173566, "category": "カフェ・喫茶", "category_id": "0100344", "time": ["09:00-18:00"], "star": 3.2, "review": 3}, {"name": "やきとり 大将", "address": "熊本県人吉市紺屋町110", "lat": 32.214837468049, "lon": 130.75845902568, "category": "焼き鳥店", "category_id": "0101960", "time": ["17:00-24:00"], "star": 3.9, "review": 9}, {"name": "BAR 木綿葉川", "address": "熊本県人吉市九日町30 清流山水花 あゆの里", "lat": 32.21357173805, "lon": 130.76027865567, "category": "バー", "category_id": "0100536", "time": ["20:00-24:00"], "star": 4.4, "review": 1}, {"name": "田中食堂", "address": "熊本県人吉市瓦屋町1124-3", "lat": 32.220869888045, "lon": 130.75769235575, "category": "うどん店", "category_id": "0100033", "time": ["11:00-16:00"], "star": 4.5, "review": 1}, {"name": "みなも", "address": "熊本県人吉市上青井町166 ホテルサン人吉 1F", "lat": 32.213061968049, "lon": 130.75632664567, "category": "和食店", "category_id": "0100126", "time": [], "star": 3.4, "review": 1}, {"name": "TAKO8", "address": "熊本県人吉市紺屋町100-3", "lat": 32.214726148049, "lon": 130.75750677568, "category": "たこ焼き店", "category_id": "0100134", "time": ["11:00-18:00"], "star": 0.0, "review": 0}, {"name": "やき家 ひで", "address": "熊本県人吉市紺屋町84-3", "lat": 32.214448698049, "lon": 130.75751010568, "category": "居酒屋", "category_id": "0101495", "time": ["18:00-23:00"], "star": 0.0, "review": 0}, {"name": "鳥火鳥火", "address": "熊本県人吉市紺屋町54", "lat": 32.214736838049, "lon": 130.75874105568, "category": "居酒屋", "category_id": "0101495", "time": ["18:00-24:00"], "star": 3.5, "review": 2}, {"name": "焼酎専科 華穂", "address": "熊本県人吉市紺屋町113 ビルズi 1F", "lat": 32.214962938587, "lon": 130.75876716994, "category": "バー", "category_id": "0100536", "time": [], "star": 0.0, "review": 0}, {"name": "心躍るダイニング COCORU", "address": "熊本県人吉市紺屋町55", "lat": 32.214576898049, "lon": 130.75872365568, "category": "カフェ・喫茶", "category_id": "0100344", "time": ["11:30-14:00", "16:00-20:00"], "star": 0.0, "review": 0}, {"name": "アヴァンティ", "address": "熊本県人吉市紺屋町78", "lat": 32.213805012645, "lon": 130.75731438884, "category": "バー", "category_id": "0100536", "time": [], "star": 0.0, "review": 0}, {"name": "kajiyaまちカフェ", "address": "熊本県人吉市鍛冶屋町62-2", "lat": 32.2163893, "lon": 130.7602986, "category": "カフェ・喫茶", "category_id": "0100344", "time": [], "star": 0.0, "review": 0}, {"name": "ぶけぐら", "address": "熊本県人吉市土手町35-1", "lat": 32.208844321283, "lon": 130.75897924815, "category": "カフェ・喫茶", "category_id": "0100344", "time": [], "star": 3.0, "review": 2}], "カフェ": [{"name": "カフェ 亜麻色", "address": "熊本県人吉市上青井町160 人吉旅館様テナント", "lat": 32.212153208049, "lon": 130.75415173566, "category": "カフェ・喫茶", "category_id": "0100344", "time": ["09:00-18:00"], "star": 3.2, "review": 3}, {"name": "Ao.HOSTEL&CAFE LOUNGE", "address": "熊本県人吉市紺屋町67-4", "lat": 32.214085488049, "lon": 130.75819001568, "category": "カフェ・喫茶", "category_id": "0100344", "time": ["09:00-18:00"], "star": 4.18, "review": 15}, {"name": "kajiyaまちカフェ", "address": "熊本県人吉市鍛冶屋町62-2", "lat": 32.2163893, "lon": 130.7602986, "category": "カフェ・喫茶", "category_id": "0100344", "time": [], "star": 0.0, "review": 0}, {"name": "ラッキーブランチ 青井の杜店", "address": "熊本県人吉市中青井町354-6", "lat": 32.214345318047, "lon": 130.75291186568, "category": "カフェ・喫茶", "category_id": "0100344", "time": ["09:30-19:00"], "star": 4.38, "review": 42}, {"name": "町家ギャラリー立山", "address": "熊本県人吉市中青井町311", "lat": 32.21408339, "lon": 130.75407719, "category": "カフェ・喫茶", "category_id": "0100344", "time": ["10:00-17:00"], "star": 4.09, "review": 14}, {"name": "心躍るダイニング COCORU", "address": "熊本県人吉市紺屋町55", "lat": 32.214576898049, "lon": 130.75872365568, "category": "カフェ・喫茶", "category_id": "0100344", "time": ["11:30-14:00", "16:00-20:00"], "star": 0.0, "review": 0}, {"name": "麻葉珈琲", "address": "熊本県人吉市紺屋町24", "lat": 32.21497009, "lon": 130.75993183, "category": "カフェ・喫茶", "category_id": "0100344", "time": ["10:00-18:00"], "star": 4.3, "review": 10}, {"name": "ぶけぐら", "address": "熊本県人吉市土手町35-1", "lat": 32.208844321283, "lon": 130.75897924815, "category": "カフェ・喫茶", "category_id": "0100344", "time": [], "star": 3.0, "review": 2}, {"name": "カフェ すいとぴぃ", "address": "熊本県人吉市上青井町120-5", "lat": 32.213549298048, "lon": 130.75378601568, "category": "カフェ・喫茶", "category_id": "0100344", "time": ["09:00-17:00"], "star": 3.61, "review": 6}, {"name": "Cafe 亜麻色", "address": "熊本県人吉市中青井町326-3", "lat": 32.2152227, "lon": 130.7523604, "category": "カフェ・喫茶", "category_id": "0100344", "time": [], "star": 0.0, "review": 0}, {"name": "球磨珈琲PULS", "address": "熊本県人吉市上青井町180-24", "lat": 32.214232738049, "lon": 130.75613470568, "category": "カフェ・喫茶", "category_id": "0100344", "time": ["11:00-15:00", "16:00-18:00"], "star": 4.0, "review": 1}, {"name": "La Priere du Cafe", "address": "熊本県人吉市紺屋町36-6", "lat": 32.214867, "lon": 130.7599852, "category": "カフェ・喫茶", "category_id": "0100344", "time": [], "star": 0.0, "review": 0}, {"name": "茶坊山吹", "address": "熊本県人吉市上青井町120-5", "lat": 32.21347012, "lon": 130.75380168, "category": "カフェ・喫茶", "category_id": "0100344", "time": [], "star": 4.5, "review": 1}, {"name": "りんどう", "address": "熊本県人吉市九日町22-2 1F", "lat": 32.213848217796, "lon": 130.7605891072, "category": "定食屋", "category_id": "0101441", "time": ["11:00-14:00"], "star": 0.0, "review": 0}, {"name": "Awesome Cafe", "address": "熊本県人吉市下城本町1426-1", "lat": 32.213704578045, "lon": 130.74314929568, "category": "カフェ・喫茶", "category_id": "0100344", "time": ["11:00-18:00"], "star": 4.02, "review": 4}, {"name": "プリンス", "address": "熊本県人吉市上青井町140-20", "lat": 32.213194, "lon": 130.755012, "category": "カフェ・喫茶", "category_id": "0100344", "time": [], "star": 4.33, "review": 3}, {"name": "文尚堂 人吉店", "address": "熊本県人吉市九日町43-1", "lat": 32.213603083298, "lon": 130.75883084602, "category": "飲食店", "category_id": "0102732", "time": ["11:00-17:00"], "star": 4.5, "review": 1}, {"name": "filling", "address": "熊本県人吉市九日町34-2", "lat": 32.21373488805, "lon": 130.75954617567, "category": "カフェ・喫茶", "category_id": "0100344", "time": ["10:00-18:00"], "star": 3.78, "review": 9}, {"name": "BON 人吉店", "address": "熊本県人吉市中青井町343", "lat": 32.2147366, "lon": 130.7514299, "category": "カフェ・喫茶", "category_id": "0100344", "time": [], "star": 3.78, "review": 5}, {"name": "bunshodo cafe", "address": "熊本県人吉市九日町43-1 文尚堂 1F", "lat": 32.21360821805, "lon": 130.75881399567, "category": "カフェ・喫茶", "category_id": "0100344", "time": ["11:00-18:00"], "star": 3.65, "review": 2}], "ドラッグストア": [{"name": "ドラッグストアモリ 宝来店", "address": "熊本県人吉市宝来町1285-3", "lat": 32.2116841, "lon": 130.7469888, "category": "ドラッグストア", "category_id": "0200699", "time": ["09:00-24:00"], "star": 4.48, "review": 11}, {"name": "コスモス 人吉店", "address": "熊本県人吉市下青井町388-12", "lat": 32.2125173, "lon": 130.7487664, "category": "ドラッグストア", "category_id": "0200699", "time": ["10:00-21:00"], "star": 4.04, "review": 22}, {"name": "ファルマウニオン 高階誠心堂薬局 青井本店", "address": "熊本県人吉市上青井町180-3", "lat": 32.2147234, "lon": 130.756152, "category": "調剤薬局", "category_id": "0202315", "time": ["09:00-18:00"], "star": 0.0, "review": 0}, {"name": "高階誠心堂薬局", "address": "熊本県人吉市上青井町185", "lat": 32.214500299709, "lon": 130.75589129667, "category": "調剤薬局", "category_id": "0202315", "time": [], "star": 0.0, "review": 0}, {"name": "うさぎ薬局 人吉店", "address": "熊本県人吉市鍛冶屋町65", "lat": 32.2176448, "lon": 130.7602986, "category": "調剤薬局", "category_id": "0202315", "time": ["09:00-18:00"], "star": 4.5, "review": 0}, {"name": "あおい調剤薬局", "address": "熊本県人吉市上青井町180-23", "lat": 32.21414566040039, "lon": 130.7561492919922, "category": "調剤薬局", "category_id": "0202315", "time": [], "star": 0.0, "review": 0}, {"name": "さくら薬局 さくら調剤薬局 九日町店", "address": "熊本県人吉市九日町102-1", "lat": 32.2142969, "lon": 130.761551, "category": "調剤薬局", "category_id": "0202315", "time": ["09:00-17:30"], "star": 4.0, "review": 1}, {"name": "清風はなみずき薬局", "address": "熊本県人吉市九日町92", "lat": 32.21416215, "lon": 130.76102257, "category": "調剤薬局", "category_id": "0202315", "time": ["09:00-18:00"], "star": 0.0, "review": 0}, {"name": "五日町薬局", "address": "熊本県人吉市五日町45 五日町薬局", "lat": 32.21440078, "lon": 130.76279542, "category": "調剤薬局", "category_id": "0202315", "time": ["08:30-18:00"], "star": 0.0, "review": 0}, {"name": "ぎんなん薬局", "address": "熊本県人吉市宝来町10-6", "lat": 32.21057201, "lon": 130.7484729, "category": "調剤薬局", "category_id": "0202315", "time": ["08:30-18:00"], "star": 0.0, "review": 0}, {"name": "清風薬局人吉店", "address": "熊本県人吉市土手町41-3", "lat": 32.2090771, "lon": 130.75879575, "category": "調剤薬局", "category_id": "0202315", "time": [], "star": 0.0, "review": 0}, {"name": "人吉けんこう堂薬局", "address": "熊本県人吉市瓦屋町1121-4", "lat": 32.2207169, "lon": 130.75738358, "category": "調剤薬局", "category_id": "0202315", "time": ["09:00-18:00"], "star": 0.0, "review": 0}, {"name": "さくら薬局 さくら調剤薬局 医療センター前店", "address": "熊本県人吉市老神町27-1", "lat": 32.21024364, "lon": 130.7586735, "category": "調剤薬局", "category_id": "0202315", "time": ["09:00-18:00"], "star": 0.0, "review": 0}, {"name": "まえだ薬局", "address": "熊本県人吉市鍛冶屋町63-66", "lat": 32.21746038, "lon": 130.7602781, "category": "調剤薬局", "category_id": "0202315", "time": [], "star": 0.0, "review": 0}, {"name": "有限会社駒井田調剤薬局", "address": "熊本県人吉市駒井田町1079-3", "lat": 32.21776839, "lon": 130.75970732, "category": "調剤薬局", "category_id": "0202315", "time": [], "star": 2.0, "review": 2}, {"name": "くすりのエスエス堂 人吉城本店", "address": "熊本県人吉市下城本町1435-2", "lat": 32.21625900268555, "lon": 130.7433319091797, "category": "調剤薬局", "category_id": "0202315", "time": ["09:00-18:00"], "star": 0.0, "review": 0}, {"name": "にのまち薬局", "address": "熊本県人吉市二日町50", "lat": 32.21545373, "lon": 130.76343142, "category": "調剤薬局", "category_id": "0202315", "time": [], "star": 0.0, "review": 0}, {"name": "ひまわり薬局", "address": "熊本県人吉市宝来町1284-3", "lat": 32.21120855, "lon": 130.74631389, "category": "調剤薬局", "category_id": "0202315", "time": [], "star": 0.0, "review": 0}, {"name": "さくら薬局 さくら調剤薬局 人吉店", "address": "熊本県人吉市土手町37", "lat": 32.20894047, "lon": 130.75988925, "category": "調剤薬局", "category_id": "0202315", "time": ["09:00-18:00"], "star": 0.0, "review": 1}, {"name": "みずき薬局", "address": "熊本県人吉市鶴田町11-2", "lat": 32.21958516, "lon": 130.76067577, "category": "調剤薬局", "category_id": "0202315", "time": [], "star": 0.0, "review": 0}], "ATM": [{"name": "熊本銀行 人吉支店", "address": "熊本県人吉市上青井町144", "lat": 32.2130091, "lon": 130.755113, "category": "銀行", "category_id": "0402596", "time": ["09:00-15:00"], "star": 3.0, "review": 1}, {"name": "熊本銀行 ATM 人吉支店", "address": "熊本県人吉市上青井町144", "lat": 32.2130348, "lon": 130.755143, "category": "ATM", "category_id": "0402785", "time": [], "star": 0.0, "review": 0}, {"name": "肥後銀行 人吉駅前支店", "address": "熊本県人吉市中青井町306-1", "lat": 32.2142173, "lon": 130.7546185, "category": "銀行", "category_id": "0402596", "time": ["09:00-15:00"], "star": 0.0, "review": 0}, {"name": "ろうきん ATM 九州労働金庫 人吉支店", "address": "熊本県人吉市中青井町316-6", "lat": 32.214404, "lon": 130.753668, "category": "ATM", "category_id": "0402785", "time": [], "star": 0.0, "review": 0}, {"name": "ゆうちょ銀行 ATM 人吉郵便局", "address": "熊本県人吉市上青井町134-4", "lat": 32.2137592, "lon": 130.755872, "category": "ATM", "category_id": "0402785", "time": [], "star": 0.0, "review": 0}, {"name": "南日本銀行 ATM 人吉支店", "address": "熊本県人吉市紺屋町73-1", "lat": 32.213829, "lon": 130.757835, "category": "ATM", "category_id": "0402785", "time": [], "star": 0.0, "review": 0}, {"name": "銀行ATM イーネット ファミリーマートサンロード中青井 共同出張所", "address": "熊本県人吉市中青井町296 ", "lat": 32.214486, "lon": 130.755126, "category": "ATM", "category_id": "0402785", "time": ["00:00-24:00"], "star": 0.0, "review": 0}, {"name": "肥後銀行 ATM 人吉駅前支店", "address": "熊本県人吉市中青井町306-1", "lat": 32.214189, "lon": 130.754594, "category": "ATM", "category_id": "0402785", "time": [], "star": 0.0, "review": 0}, {"name": "肥後銀行 ATM 人吉支店", "address": "熊本県人吉市九日町82", "lat": 32.214053, "lon": 130.759756, "category": "ATM", "category_id": "0402785", "time": [], "star": 0.0, "review": 0}, {"name": "ゆうちょ銀行 人吉城本簡易郵便局", "address": "熊本県人吉市瓦屋町1098-5", "lat": 32.2197352, "lon": 130.75812, "category": "銀行", "category_id": "0402596", "time": [], "star": 4.0, "review": 1}, {"name": "肥後銀行 人吉支店", "address": "熊本県人吉市九日町82", "lat": 32.2140452, "lon": 130.7598346, "category": "銀行", "category_id": "0402596", "time": ["09:00-15:00"], "star": 0.0, "review": 0}, {"name": "ゆうちょ銀行 人吉郵便局", "address": "熊本県人吉市上青井町134-4", "lat": 32.2137592, "lon": 130.755872, "category": "銀行", "category_id": "0402596", "time": [], "star": 0.0, "review": 0}, {"name": "ゆうちょ銀行 人吉新町郵便局", "address": "熊本県人吉市土手町20-1", "lat": 32.208357, "lon": 130.757816, "category": "銀行", "category_id": "0402596", "time": [], "star": 4.0, "review": 1}, {"name": "南日本銀行 人吉支店", "address": "熊本県人吉市紺屋町73-1", "lat": 32.2138257, "lon": 130.7578349, "category": "銀行", "category_id": "0402596", "time": ["09:00-15:00"], "star": 0.0, "review": 0}, {"name": "ろうきん 九州労働金庫 人吉支店", "address": "熊本県人吉市中青井町316-6", "lat": 32.21430086, "lon": 130.75365973, "category": "労働金庫", "category_id": "0401099", "time": [], "star": 0.0, "review": 0}, {"name": "宝くじ ATM 熊本銀行人吉", "address": "熊本県人吉市上青井町144", "lat": 32.2131563, "lon": 130.755098, "category": "宝くじ売り場", "category_id": "0401442", "time": ["08:00-21:00"], "star": 0.0, "review": 0}, {"name": "セブン銀行 人吉下青井町店", "address": "熊本県人吉市下青井町90-6", "lat": 32.212389, "lon": 130.750362, "category": "ATM", "category_id": "0402785", "time": ["00:00-24:00"], "star": 0.0, "review": 0}, {"name": "ローソン銀行 人吉上青井共同出張所", "address": "熊本県人吉市上青井町128-6", "lat": 32.2134667, "lon": 130.754957, "category": "ATM", "category_id": "0402785", "time": ["00:00-24:00"], "star": 0.0, "review": 0}, {"name": "信用組合 熊本県信用組合 人吉支店", "address": "熊本県人吉市中青井町287-5", "lat": 32.21559715, "lon": 130.75551727, "category": "信用組合", "category_id": "0401097", "time": [], "star": 0.0, "review": 0}, {"name": "宝くじ ATM 肥後銀行人吉駅前支店", "address": "熊本県人吉市中青井町306-1", "lat": 32.2142194, "lon": 130.754638, "category": "宝くじ売り場", "category_id": "0401442", "time": ["09:00-19:00"], "star": 0.0, "review": 0}], "銭湯 温泉": [{"name": "新温泉", "address": "熊本県人吉市紺屋町80-2", "lat": 32.21418956, "lon": 130.75724047, "category": "温泉", "category_id": "0401677", "time": ["13:00-22:00"], "star": 4.33, "review": 3}, {"name": "人吉温泉 堤温泉", "address": "熊本県人吉市土手町40", "lat": 32.20934792, "lon": 130.75970759, "category": "日帰り入浴", "category_id": "0401679", "time": ["05:00-08:00", "10:00-23:00"], "star": 4.38, "review": 2}, {"name": "相良路の湯 おおが", "address": "熊本県人吉市灰久保町22-3", "lat": 32.208834, "lon": 130.755727, "category": "日帰り入浴", "category_id": "0401679", "time": ["00:00-24:00"], "star": 4.25, "review": 10}, {"name": "人吉温泉 鶴亀温泉", "address": "熊本県人吉市瓦屋町1120-5", "lat": 32.22045554, "lon": 130.75756524, "category": "日帰り入浴", "category_id": "0401679", "time": [], "star": 4.67, "review": 2}, {"name": "人吉旅館", "address": "熊本県人吉市上青井町160", "lat": 32.2120425, "lon": 130.7542214, "category": "温泉旅館", "category_id": "0301918", "time": ["00:00-24:00"], "star": 4.37, "review": 34}, {"name": "日帰り入浴 人吉温泉 ホテル朝陽館", "address": "熊本県人吉市上青井町126", "lat": 32.2138312, "lon": 130.754713, "category": "日帰り入浴", "category_id": "0401679", "time": ["15:00-20:00"], "star": 0.0, "review": 0}, {"name": "日帰り入浴 松屋温泉ビジネスホテル あさひ温泉", "address": "熊本県人吉市下青井町62-4", "lat": 32.2114725, "lon": 130.75060903, "category": "日帰り入浴", "category_id": "0401679", "time": [], "star": 0.0, "review": 0}, {"name": "日帰り入浴 お宿と温泉 人吉いわくらの杜 石庭", "address": "熊本県人吉市矢黒町1970-5", "lat": 32.2075263, "lon": 130.7504081, "category": "日帰り入浴", "category_id": "0401679", "time": ["11:00-20:00"], "star": 0.0, "review": 0}, {"name": "日帰り入浴 人吉旅館", "address": "熊本県人吉市上青井町160", "lat": 32.2120425, "lon": 130.7542214, "category": "日帰り入浴", "category_id": "0401679", "time": ["08:00-20:00"], "star": 0.0, "review": 0}, {"name": "日帰り入浴 人吉温泉 あゆの里", "address": "熊本県人吉市九日町30", "lat": 32.2135341, "lon": 130.7602791, "category": "日帰り入浴", "category_id": "0401679", "time": ["15:00-24:00"], "star": 0.0, "review": 0}], "スーパーマーケット": [{"name": "イスミ 本店", "address": "熊本県人吉市九日町87", "lat": 32.2143618, "lon": 130.7604874, "category": "スーパー", "category_id": "0200612", "time": ["09:00-19:00"], "star": 4.29, "review": 10}, {"name": "生協くまもと ミニコープ人吉", "address": "熊本県人吉市灰久保町3-1", "lat": 32.2097262, "lon": 130.7567629, "category": "スーパー", "category_id": "0200612", "time": ["10:00-19:00"], "star": 0.0, "review": 0}, {"name": "ロッキー 人吉店", "address": "熊本県人吉市瓦屋町字典子1713-1", "lat": 32.2237246, "lon": 130.7571596, "category": "スーパー", "category_id": "0200612", "time": ["09:00-21:00"], "star": 3.61, "review": 19}, {"name": "スーパーかど", "address": "熊本県人吉市駒井田町1172", "lat": 32.21764338, "lon": 130.75883242, "category": "スーパー", "category_id": "0200612", "time": [], "star": 0.0, "review": 0}, {"name": "マイマート", "address": "熊本県人吉市瓦屋町1733", "lat": 32.22323052, "lon": 130.75754821, "category": "スーパー", "category_id": "0200612", "time": [], "star": 0.0, "review": 0}]}, "top_restaurant": {"name": "球磨焼酎ト球磨ノ食 開", "category": "レストラン", "star": 4.5, "review": 2}}, {"name": "人吉温泉", "name_en": "Hitoyoshionsen", "lat": 32.216332, "lon": 130.7538443, "osm_id": 7811215242, "operator": "くま川鉄道", "railway": "station", "wikidata": "Q8190132", "wikipedia_tag": "ja:人吉駅", "lines": [], "pref": "宮崎県", "nearest_convenience": {"name": "ファミリーマート", "lat": 32.2144808, "lon": 130.7551945, "address": "", "distance_m": 242, "brand": "FamilyMart"}, "nearest_restaurant": {"name": "きらく屋", "lat": 32.216283, "lon": 130.754635, "address": "", "distance_m": 75, "cuisine": ""}, "nearby_pois": {"コンビニ": [{"name": "ファミリーマート サンロード中青井店", "address": "熊本県人吉市中青井町296", "lat": 32.2144756, "lon": 130.7551851, "category": "コンビニ", "category_id": "0200487", "time": ["00:00-24:00"], "star": 4.5, "review": 2}, {"name": "ローソン 人吉駒井田町", "address": "熊本県人吉市駒井田町字駒井田226-54", "lat": 32.2169448, "lon": 130.7586263, "category": "コンビニ", "category_id": "0200487", "time": ["00:00-24:00"], "star": 4.55, "review": 5}, {"name": "セブンイレブン 人吉下青井町", "address": "熊本県人吉市下青井町90-6", "lat": 32.2123924, "lon": 130.7503662, "category": "コンビニ", "category_id": "0200487", "time": ["00:00-24:00"], "star": 4.71, "review": 2}, {"name": "セブンイレブン 人吉瓦屋町", "address": "熊本県人吉市瓦屋町1164-1", "lat": 32.2219804, "lon": 130.7570402, "category": "コンビニ", "category_id": "0200487", "time": ["00:00-24:00"], "star": 4.13, "review": 6}, {"name": "セブンイレブン 人吉五日町", "address": "熊本県人吉市五日町53-1", "lat": 32.2146119, "lon": 130.7630704, "category": "コンビニ", "category_id": "0200487", "time": ["00:00-24:00"], "star": 4.29, "review": 4}, {"name": "ローソン 人吉上青井", "address": "熊本県人吉市上青井町128-6", "lat": 32.2134785, "lon": 130.7549352, "category": "コンビニ", "category_id": "0200487", "time": ["00:00-24:00"], "star": 0.0, "review": 0}, {"name": "ステーションビジネスホテル 天守閣", "address": "熊本県人吉市中青井町321", "lat": 32.2152644, "lon": 130.7536964, "category": "ビジネスホテル", "category_id": "0300758", "time": [], "star": 4.4, "review": 5}, {"name": "塚本酒店", "address": "熊本県人吉市紺屋町100", "lat": 32.21464119, "lon": 130.75774151, "category": "酒店", "category_id": "0202522", "time": ["10:00-23:00"], "star": 4.0, "review": 1}, {"name": "丸恵本館", "address": "熊本県人吉市鍛冶屋町18", "lat": 32.2165088, "lon": 130.761215, "category": "旅館", "category_id": "0301676", "time": [], "star": 4.28, "review": 5},