[{"name": "あおば通", "name_en": "Aoba-dōri", "lat": 38.2606881, "lon": 140.8786913, "osm_id": 3791321430, "operator": "", "railway": "station", "wikidata": "Q4778563", "wikipedia_tag": "ja:あおば通駅", "lines": [], "pref": "宮城県", "nearby_bus_stops": [{"name": "仙台駅前", "lat": 38.2606276, "lon": 140.878782, "distance_m": 10, "operator": ""}, {"name": "仙台駅前", "lat": 38.2608442, "lon": 140.8782841, "distance_m": 40, "operator": "仙台市交通局／宮城交通"}, {"name": "仙台駅前", "lat": 38.2601668, "lon": 140.879597, "distance_m": 98, "operator": "仙台市交通局"}, {"name": "仙台駅前", "lat": 38.2616317, "lon": 140.8790397, "distance_m": 109, "operator": ""}, {"name": "あおば通駅", "lat": 38.2606839, "lon": 140.8773664, "distance_m": 116, "operator": ""}], "wikipedia_text": "あおば通駅（あおばどおりえき）は、宮城県仙台市青葉区中央3丁目にある、東日本旅客鉄道（JR東日本）仙石線の駅である。\n仙台トンネルの西端に位置する、同線の起点駅である。", "wikipedia_image": "https://upload.wikimedia.org/wikipedia/commons/9/95/Aobad%C5%8Dri_Station_2022.jpg", "nearest_convenience": {"name": "セブン-イレブン", "lat": 38.2604392, "lon": 140.8785678, "address": "", "distance_m": 30, "brand": "7-ELEVEN"}, "nearest_restaurant": {"name": "にぎりの徳兵衛", "lat": 38.2604834, "lon": 140.878919, "address": "", "distance_m": 30, "cuisine": "sushi"}, "nearby_pois": {"コンビニ": [{"name": "ファミリーマート 仙台駅店", "address": "宮城県仙台市青葉区中央1-10-10先", "lat": 38.261104390338, "lon": 140.87926005395, "category": "コンビニ", "category_id": "0200487", "time": ["06:00-23:00"], "star": 3.87, "review": 22}, {"name": "ファミリーマート 仙台中央三丁目店", "address": "宮城県仙台市青葉区中央3-6-22", "lat": 38.2599906, "lon": 140.8784436, "category": "コンビニ", "category_id": "0200487", "time": ["00:00-24:00"], "star": 4.08, "review": 19}, {"name": "セブンイレブン DR仙台ロイネット", "address": "宮城県仙台市青葉区中央3-7-25", "lat": 38.2591907, "lon": 140.8789852, "category": "コンビニ", "category_id": "0200487", "time": ["00:00-24:00"], "star": 3.99, "review": 27}, {"name": "ファミリーマート 仙台中央二丁目店", "address": "宮城県仙台市青葉区中央2-1-30", "lat": 38.2615154, "lon": 140.8786406, "category": "コンビニ", "category_id": "0200487", "time": ["00:00-24:00"], "star": 3.86, "review": 42}, {"name": "キオスク 仙台28号売店", "address": "宮城県仙台市青葉区中央1-1-1 JR仙台駅", "lat": 38.260283563158, "lon": 140.88224289377, "category": "コンビニ", "category_id": "0200487", "time": ["07:00-20:00"], "star": 4.06, "review": 74}, {"name": "ファミリーマート 仙台南町通店", "address": "宮城県仙台市青葉区中央3-4-7", "lat": 38.2592544, "lon": 140.8770743, "category": "コンビニ", "category_id": "0200487", "time": ["00:00-24:00"], "star": 4.15, "review": 18}, {"name": "セブンイレブン 仙台あおば通", "address": "宮城県仙台市青葉区中央2-2-10", "lat": 38.2606876, "lon": 140.8765354, "category": "コンビニ", "category_id": "0200487", "time": ["00:00-24:00"], "star": 3.97, "review": 47}, {"name": "さくらショップ", "address": "宮城県仙台市青葉区一番町1-14-15 片平北門会館 1F", "lat": 38.255225397434, "lon": 140.87328017961, "category": "コンビニ", "category_id": "0200487", "time": ["08:30-21:30"], "star": 3.64, "review": 7}, {"name": "ミニストップ 仙台中央3丁目店", "address": "宮城県仙台市青葉区中央3-3-3", "lat": 38.2600294, "lon": 140.8766715, "category": "コンビニ", "category_id": "0200487", "time": [], "star": 4.05, "review": 38}, {"name": "ローソン 仙台高速バスセンター", "address": "宮城県仙台市青葉区中央1-6-35", "lat": 38.262782, "lon": 140.8798238, "category": "コンビニ", "category_id": "0200487", "time": ["00:00-24:00"], "star": 4.14, "review": 49}, {"name": "ファミリーマート 仙台駅前店", "address": "宮城県仙台市青葉区中央3-7-1 エンタツパーキングビル 1F", "lat": 38.2593962, "lon": 140.8796462, "category": "コンビニ", "category_id": "0200487", "time": ["00:00-24:00"], "star": 4.16, "review": 63}, {"name": "ファミリーマート 仙台中央店", "address": "宮城県仙台市青葉区中央2-11-1 オルタス仙台ビル", "lat": 38.2625181, "lon": 140.877874, "category": "コンビニ", "category_id": "0200487", "time": ["00:00-24:00"], "star": 4.13, "review": 20}, {"name": "ファミリーマート 広瀬通店", "address": "宮城県仙台市青葉区中央2-11-18", "lat": 38.2626736, "lon": 140.8768324, "category": "コンビニ", "category_id": "0200487", "time": ["00:00-24:00"], "star": 4.5, "review": 1}, {"name": "セブンイレブン 仙台本町1丁目", "address": "宮城県仙台市青葉区本町1-2-20", "lat": 38.2639152, "lon": 140.8778822, "category": "コンビニ", "category_id": "0200487", "time": ["00:00-24:00"], "star": 4.35, "review": 14}, {"name": "ファミリーマート 本町一丁目店", "address": "宮城県仙台市青葉区本町1-1-7", "lat": 38.2632876, "lon": 140.8795765, "category": "コンビニ", "category_id": "0200487", "time": ["00:00-24:00"], "star": 4.19, "review": 20}, {"name": "セブンイレブン 仙台電力センター", "address": "宮城県仙台市青葉区中央4-1-6", "lat": 38.2583824, "lon": 140.8803601, "category": "コンビニ", "category_id": "0200487", "time": ["00:00-24:00"], "star": 4.25, "review": 1}, {"name": "ファミリーマート 仙台中央一丁目店", "address": "宮城県仙台市青葉区中央1-8-38 AKビル 1F", "lat": 38.2619405, "lon": 140.8804821, "category": "コンビニ", "category_id": "0200487", "time": ["00:00-24:00"], "star": 4.09, "review": 23}, {"name": "ファミリーマート 仙台アエル店", "address": "宮城県仙台市青葉区中央1-3-1", "lat": 38.2626099, "lon": 140.8814041, "category": "コンビニ", "category_id": "0200487", "time": ["00:00-24:00"], "star": 3.99, "review": 33}, {"name": "セブンイレブン 仙台元寺小路", "address": "宮城県仙台市宮城野区元寺小路305-6", "lat": 38.2636739, "lon": 140.885287, "category": "コンビニ", "category_id": "0200487", "time": ["00:00-24:00"], "star": 4.5, "review": 1}, {"name": "ローソン 仙台柳町通", "address": "宮城県仙台市青葉区一番町1-8-3", "lat": 38.2571796, "lon": 140.876294, "category": "コンビニ", "category_id": "0200487", "time": ["00:00-24:00"], "star": 3.58, "review": 44}], "ラーメン": [{"name": "麺家", "address": "宮城県仙台市青葉区中央仙台ロフト1-10-10", "lat": 38.260134244556, "lon": 140.88042470019, "category": "ラーメン店", "category_id": "0100097", "time": [], "star": 3.75, "review": 1}, {"name": "天下一品 中央通り別館", "address": "宮城県仙台市青葉区中央2-6-6 タベイビル 1F", "lat": 38.261948427431, "lon": 140.87788293967, "category": "ラーメン店", "category_id": "0100097", "time": ["11:00-24:00"], "star": 3.43, "review": 7}, {"name": "末廣ラーメン本舗 仙台駅前分店", "address": "宮城県仙台市青葉区中央1-7-18 日吉第一ビル 1F", "lat": 38.2619054, "lon": 140.879043, "category": "ラーメン店", "category_id": "0100097", "time": ["07:00-27:00"], "star": 4.08, "review": 182}, {"name": "ラーメン☆ビリー PLUS 仙台駅前店", "address": "宮城県仙台市青葉区中央2-6-34", "lat": 38.262129347431, "lon": 140.87831115967, "category": "ラーメン店", "category_id": "0100097", "time": ["11:00-22:00"], "star": 3.9, "review": 64}, {"name": "ラーメン末広本店", "address": "宮城県仙台市青葉区中央2-2-36", "lat": 38.2612393, "lon": 140.87746608, "category": "ラーメン店", "category_id": "0100097", "time": ["11:00-19:00"], "star": 3.78, "review": 55}, {"name": "らーめん屋本舗 麺龍", "address": "宮城県仙台市青葉区中央4-1-3 プレイビルB1", "lat": 38.258596447434, "lon": 140.88013413964, "category": "ラーメン店", "category_id": "0100097", "time": ["11:30-13:40", "17:00-21:30"], "star": 4.2, "review": 34}, {"name": "仙臺ラーメン みそ壱 ロフト1F店", "address": "宮城県仙台市青葉区中央1-10-10 仙台ロフト 1F", "lat": 38.260001736628, "lon": 140.88041350849, "category": "味噌ラーメン店", "category_id": "0102949", "time": ["11:00-22:00"], "star": 4.1, "review": 42}, {"name": "山形飛魚 中華そば 亞呉屋", "address": "宮城県仙台市青葉区本町2-9-2 本町エンドウビル 1F あごと金市朗", "lat": 38.263801327429, "lon": 140.87668151969, "category": "ラーメン店", "category_id": "0100097", "time": [], "star": 3.65, "review": 6}, {"name": "RAMEN MIKADO", "address": "宮城県仙台市青葉区本町2-5-10", "lat": 38.26380886752, "lon": 140.87393690583, "category": "ラーメン店", "category_id": "0100097", "time": [], "star": 0.0, "review": 1}, {"name": "豚山 仙台駅前店", "address": "宮城県仙台市青葉区中央1-7-18 日吉第一ビル", "lat": 38.26202652, "lon": 140.87894057, "category": "ラーメン店", "category_id": "0100097", "time": ["11:00-23:00"], "star": 3.87, "review": 60}, {"name": "らーめん堂 仙台っ子 仙台駅前店", "address": "宮城県仙台市青葉区中央1-8-38", "lat": 38.2619346, "lon": 140.880588, "category": "ラーメン店", "category_id": "0100097", "time": ["11:00-26:00"], "star": 3.84, "review": 241}, {"name": "久留米らーめん 初代よかろうもん", "address": "宮城県仙台市青葉区中央1-10-10 仙台ロフト B1F", "lat": 38.260141007433, "lon": 140.88059673965, "category": "ラーメン店", "category_id": "0100097", "time": ["11:00-23:00"], "star": 3.91, "review": 36}, {"name": "だし廊 仙台南町通り本店", "address": "宮城県仙台市青葉区一番町2-2-11 TKビル 1F", "lat": 38.258586037432, "lon": 140.87493030964, "category": "ラーメン店", "category_id": "0100097", "time": ["11:00-21:00"], "star": 4.08, "review": 204}, {"name": "一蘭 仙台駅前店", "address": "宮城県仙台市青葉区中央2-1-16 カガヤハピナ名掛丁ビル 1-3F", "lat": 38.26157098, "lon": 140.87843511, "category": "とんこつラーメン店", "category_id": "0102948", "time": ["00:00-24:00"], "star": 4.23, "review": 259}, {"name": "やまがた辛味噌らーめん 貫", "address": "宮城県仙台市宮城野区名掛丁119-3 M-SALAビル1F", "lat": 38.262372248821, "lon": 140.8833982572, "category": "ラーメン店", "category_id": "0100097", "time": ["11:30-15:00", "18:00-22:00"], "star": 3.97, "review": 54}, {"name": "喜多方ラーメン 大安食堂 トラストシティ店", "address": "宮城県仙台市青葉区一番町1-9-1 トラストシティプラザ 2F", "lat": 38.256473527434, "lon": 140.87612838962, "category": "ラーメン店", "category_id": "0100097", "time": ["11:00-22:00"], "star": 3.92, "review": 69}, {"name": "番丁ラーメン 名掛丁店", "address": "宮城県仙台市青葉区中央1-7-2 アールアイ名掛丁2号館 B1F", "lat": 38.262391217431, "lon": 140.88033387968, "category": "ラーメン店", "category_id": "0100097", "time": ["11:00-15:00", "18:30-23:30"], "star": 3.69, "review": 32}, {"name": "伊藤商店 仙台朝市店", "address": "宮城県仙台市青葉区中央4-3-25 前原ビル 1F", "lat": 38.2584965, "lon": 140.878348, "category": "ラーメン店", "category_id": "0100097", "time": ["07:00-15:00"], "star": 4.09, "review": 31}, {"name": "仙臺 くろく", "address": "宮城県仙台市宮城野区榴岡2-2-12 アーバンライフ橋本 1F", "lat": 38.261505307433, "lon": 140.88441975966, "category": "ラーメン店", "category_id": "0100097", "time": ["11:30-15:00", "17:30-23:00"], "star": 4.13, "review": 149}, {"name": "熟成半生麺の店 麺家", "address": "宮城県仙台市青葉区中央1丁目10-10仙台ロフト8F", "lat": 38.26015452, "lon": 140.88046832, "category": "ラーメン店", "category_id": "0100097", "time": ["11:00-22:00"], "star": 4.0, "review": 2}], "飲食店": [{"name": "名掛丁センター街 おでん こうぞう", "address": "宮城県仙台市青葉区中央1-8-31 名掛丁センター街 1F", "lat": 38.261849807432, "lon": 140.88016767967, "category": "おでん店", "category_id": "0100040", "time": ["17:00-24:00"], "star": 4.03, "review": 10}, {"name": "うめ小路", "address": "宮城県仙台市青葉区中央1-8-8", "lat": 38.261622, "lon": 140.879749, "category": "和食店", "category_id": "0100126", "time": [], "star": 3.33, "review": 18}, {"name": "大盛や もり達 イービーンズ店", "address": "宮城県仙台市青葉区中央4-1-1 イービーンズ 1F", "lat": 38.258801736628, "lon": 140.88028240848, "category": "定食屋", "category_id": "0101441", "time": ["10:00-20:00"], "star": 4.26, "review": 37}, {"name": "俺たちの寿司ダイニング 仙八 朝市本店", "address": "宮城県仙台市青葉区中央3-8-5 新仙台駅前ビル地下1階", "lat": 38.258838159213, "lon": 140.87857650833, "category": "シーフード・海鮮料理店", "category_id": "0100542", "time": [], "star": 4.67, "review": 1}, {"name": "すし花一寿美", "address": "宮城県仙台市青葉区本町1-9-23 BFEビル 2F", "lat": 38.265522487429, "lon": 140.87780770971, "category": "寿司店", "category_id": "0100101", "time": [], "star": 4.44, "review": 17}, {"name": "陣中 おみやげ処せんだい1号", "address": "宮城県仙台市青葉区中央1 仙台駅 2F", "lat": 38.259753897434, "lon": 140.88203053965, "category": "牛タン店", "category_id": "0101973", "time": ["07:00-21:30"], "star": 4.05, "review": 28}, {"name": "仙台居酒屋 肉男爵", "address": "宮城県仙台市青葉区中央1-10-25", "lat": 38.260413581571, "lon": 140.88027925582, "category": "居酒屋", "category_id": "0101495", "time": [], "star": 4.0, "review": 10}, {"name": "主役はスパイス", "address": "宮城県仙台市青葉区中央4-4-2丸寿ビルディング5F", "lat": 38.2583096, "lon": 140.8777101, "category": "カレー店", "category_id": "0100359", "time": [], "star": 4.42, "review": 15}, {"name": "鮨 結委", "address": "宮城県仙台市青葉区中央3-9-18 蕉風ビル 1F", "lat": 38.258713237433, "lon": 140.87699287964, "category": "寿司店", "category_id": "0100101", "time": [], "star": 3.62, "review": 11}, {"name": "タージ2", "address": "宮城県仙台市青葉区中央2-5-10 桜井薬局ビル B1F", "lat": 38.261345307431, "lon": 140.87610106967, "category": "インド料理店", "category_id": "0100282", "time": ["11:00-23:00"], "star": 4.12, "review": 22}, {"name": "やっぺえキッチン", "address": "宮城県仙台市青葉区本町2-20-1 NHK仙台放送局 定禅寺メディアステーション 2F", "lat": 38.266443575054, "lon": 140.87427149969, "category": "レストラン", "category_id": "0100111", "time": [], "star": 4.13, "review": 3}, {"name": "エンハーブ エスパル仙台店", "address": "宮城県仙台市青葉区中央1-1-1 エスパル仙台店 1F", "lat": 38.259520027434, "lon": 140.88198900965, "category": "カフェ・喫茶", "category_id": "0100344", "time": ["10:00-21:00"], "star": 4.32, "review": 12}, {"name": "cheers チアーズ 仙台駅前店", "address": "宮城県仙台市青葉区中央3-1-14中央古久根ビル3F", "lat": 38.260218696083, "lon": 140.8783447, "category": "ダイニングバー", "category_id": "0100645", "time": [], "star": 0.0, "review": 0}, {"name": "魚沼釡蔵 名掛丁本店", "address": "宮城県仙台市青葉区中央1-8-25 マジェスティックビル 2F", "lat": 38.261811257432, "lon": 140.87966707967, "category": "和食店", "category_id": "0100126", "time": ["17:00-23:00"], "star": 4.3, "review": 1}, {"name": "NOTE", "address": "宮城県仙台市青葉区本町2-17-2 1F", "lat": 38.265092827427, "lon": 140.87334846971, "category": "ワインバー", "category_id": "0100954", "time": ["11:30-15:00", "18:00-24:00"], "star": 4.25, "review": 14}, {"name": "献立屋 万策", "address": "宮城県仙台市青葉区中央4-7-25 ライオンズマンション 中央1F", "lat": 38.256996737434, "lon": 140.87897060962, "category": "和食店", "category_id": "0100126", "time": [], "star": 4.2, "review": 4}, {"name": "季節料理みながわ", "address": "宮城県仙台市青葉区中央3-9-18", "lat": 38.258712367433, "lon": 140.87697082964, "category": "和食店", "category_id": "0100126", "time": ["11:30-12:50", "17:00-22:30"], "star": 3.61, "review": 8}, {"name": "料理と酒 晴太", "address": "宮城県仙台市青葉区中央1-7-2 アールアイ名掛丁ビル2 B1F", "lat": 38.262343807431, "lon": 140.88034312968, "category": "居酒屋", "category_id": "0101495", "time": ["18:00-24:00"], "star": 3.96, "review": 8}, {"name": "炉端とおでん 呼炉凪来 仙台駅前店", "address": "宮城県仙台市青葉区中央3-1-14中央古久根ビル 2F", "lat": 38.260228, "lon": 140.878345, "category": "おでん店", "category_id": "0100040", "time": ["16:00-24:00"], "star": 3.7, "review": 9}, {"name": "Scena", "address": "宮城県仙台市青葉区一番町2-4-11 文化横丁BNYK 2F", "lat": 38.259138897431, "lon": 140.87314779965, "category": "イタリア料理店", "category_id": "0100263", "time": ["18:00-23:30"], "star": 4.25, "review": 8}], "カフェ": [{"name": "カフェハヴントウィーメットオーパス", "address": "宮城県仙台市青葉区中央2-2-29", "lat": 38.2610357, "lon": 140.87733555, "category": "カフェ・喫茶", "category_id": "0100344", "time": ["11:00-18:00"], "star": 4.34, "review": 58}, {"name": "青山文庫", "address": "宮城県仙台市青葉区中央2-1-27 ever-i中央ビル 5F", "lat": 38.261302547432, "lon": 140.87879333967, "category": "カフェ・喫茶", "category_id": "0100344", "time": ["07:30-23:00"], "star": 4.31, "review": 168}, {"name": "エンハーブ エスパル仙台店", "address": "宮城県仙台市青葉区中央1-1-1 エスパル仙台店 1F", "lat": 38.259520027434, "lon": 140.88198900965, "category": "カフェ・喫茶", "category_id": "0100344", "time": ["10:00-21:00"], "star": 4.32, "review": 12}, {"name": "やっぺえキッチン", "address": "宮城県仙台市青葉区本町2-20-1 NHK仙台放送局 定禅寺メディアステーション 2F", "lat": 38.266443575054, "lon": 140.87427149969, "category": "レストラン", "category_id": "0100111", "time": [], "star": 4.13, "review": 3}, {"name": "CAFE T", "address": "宮城県仙台市青葉区中央3-1-18", "lat": 38.260389827432, "lon": 140.87835450966, "category": "カフェ・喫茶", "category_id": "0100344", "time": ["11:00-22:00"], "star": 4.02, "review": 30}, {"name": "ケヤキカフェ", "address": "宮城県仙台市青葉区一番町3-2-17 藤崎本館 3F", "lat": 38.26022537743, "lon": 140.87266986966, "category": "カフェ・喫茶", "category_id": "0100344", "time": ["10:00-19:00"], "star": 4.11, "review": 73}, {"name": "富久栄珈琲 エスパル仙台店", "address": "宮城県仙台市青葉区中央1-1-1 エスパル仙台 東館 2F", "lat": 38.259390936629, "lon": 140.88296830848, "category": "コーヒー店", "category_id": "0100496", "time": [], "star": 4.02, "review": 33}, {"name": "DaTe Cafe O rder（ダテ カフェ オーダー）", "address": "宮城県仙台市青葉区中央（大規模ビルを除く）1-1-1 JR仙台駅 2F", "lat": 38.26028515, "lon": 140.88224312, "category": "カフェ・喫茶", "category_id": "0100344", "time": ["07:15-20:15"], "star": 4.11, "review": 77}, {"name": "ステーキ&カフェ燈夜", "address": "宮城県仙台市青葉区中央1-10-10 仙台開発ビルロフトB1F", "lat": 38.26014897, "lon": 140.88045166, "category": "カフェ・喫茶", "category_id": "0100344", "time": [], "star": 0.0, "review": 0}, {"name": "THE MOST COFFEE", "address": "宮城県仙台市青葉区中央3-7-5仙台PARCO2 3Ｆ", "lat": 38.259097, "lon": 140.880091, "category": "カフェ・喫茶", "category_id": "0100344", "time": ["10:00-20:00"], "star": 4.16, "review": 99}, {"name": "パンプルムゥス 仙台店", "address": "宮城県仙台市青葉区中央1-7-18 日吉第一ビル3F", "lat": 38.26204874, "lon": 140.87893224, "category": "カフェ・喫茶", "category_id": "0100344", "time": ["11:00-20:00"], "star": 4.33, "review": 108}, {"name": "ビスタカフェ", "address": "宮城県仙台市宮城野区榴岡1-7-3 ホテルビスタ 仙台", "lat": 38.258221987436, "lon": 140.88544321963, "category": "ビュッフェレストラン", "category_id": "0100764", "time": ["07:00-10:00"], "star": 3.67, "review": 6}, {"name": "モーニング仙台藤崎店", "address": "宮城県仙台市青葉区一番町3-2-17", "lat": 38.260699007706, "lon": 140.87431715093, "category": "スイーツ店", "category_id": "0100534", "time": [], "star": 4.0, "review": 2}, {"name": "三本珈琲店", "address": "宮城県仙台市青葉区中央3-6-12 仙台南町通ビル 1F", "lat": 38.25966, "lon": 140.87908, "category": "カフェ・喫茶", "category_id": "0100344", "time": ["07:30-20:00"], "star": 4.27, "review": 104}, {"name": "カフェ ラウンジ エヌビーエス", "address": "宮城県仙台市青葉区中央4-2-9 Neo Breakthrough Sendai 1F", "lat": 38.257589346828, "lon": 140.87880441449, "category": "カフェ・喫茶", "category_id": "0100344", "time": ["09:00-18:00"], "star": 3.6, "review": 5}, {"name": "Eeezy LEGAL CANNABINOIDS DISPENSARY", "address": "宮城県仙台市青葉区中央3-8-5 新仙台駅前ビル 2F", "lat": 38.25885421633, "lon": 140.87854086872, "category": "カフェ・喫茶", "category_id": "0100344", "time": [], "star": 0.0, "review": 0}, {"name": "Le Cafe de Cochon", "address": "宮城県仙台市青葉区中央2-10-24 ガスサロン内一階 まちくる仙台", "lat": 38.262723931211, "lon": 140.87607936485, "category": "カフェ・喫茶", "category_id": "0100344", "time": [], "star": 0.0, "review": 0}, {"name": "小さな街の食堂 cafe MISTY", "address": "宮城県仙台市青葉区中央2-6-10荒岩本店ビル 2F", "lat": 38.261698, "lon": 140.877608, "category": "カフェ・喫茶", "category_id": "0100344", "time": ["11:00-21:30"], "star": 3.96, "review": 74}, {"name": "紅茶と洋酒の店 LINKS", "address": "宮城県仙台市青葉区中央3丁目2-16 第2MKビル B1F", "lat": 38.259890597432, "lon": 140.87699873965, "category": "カフェ・喫茶", "category_id": "0100344", "time": ["10:00-22:00"], "star": 4.31, "review": 52}, {"name": "カフェコムサ 仙台パルコ店", "address": "宮城県仙台市青葉区中央3-7-5 仙台PARCO2 4F", "lat": 38.2589083, "lon": 140.879379, "category": "ケーキ店", "category_id": "0100460", "time": ["11:00-20:00"], "star": 4.0, "review": 56}], "ドラッグストア": [{"name": "マツモトキヨシ 薬 仙台駅前店", "address": "宮城県仙台市青葉区中央3-6-6", "lat": 38.25982979, "lon": 140.87958539, "category": "ドラッグストア", "category_id": "0200699", "time": ["08:00-22:00"], "star": 4.11, "review": 28}, {"name": "ツルハドラッグ 仙台中央通店", "address": "宮城県仙台市青葉区中央二丁目6番6号", "lat": 38.26186537, "lon": 140.87788792, "category": "ドラッグストア", "category_id": "0200699", "time": ["09:00-21:00"], "star": 4.17, "review": 12}, {"name": "サンドラッグ仙台中央通り店", "address": "宮城県仙台市青葉区中央2-2-21 ", "lat": 38.26114315, "lon": 140.8764798, "category": "ドラッグストア", "category_id": "0200699", "time": ["09:00-22:00"], "star": 4.05, "review": 135}, {"name": "マツモトキヨシ 薬 matsukiyoLAB 仙台クリスロード店", "address": "宮城県仙台市青葉区中央2-2-24", "lat": 38.2611821, "lon": 140.876777, "category": "ドラッグストア", "category_id": "0200699", "time": ["08:00-22:00"], "star": 3.92, "review": 22}, {"name": "マツモトキヨシ 薬 tekuteせんだい店", "address": "宮城県仙台市青葉区中央1-1-1", "lat": 38.260410130165, "lon": 140.88200424508, "category": "ドラッグストア", "category_id": "0200699", "time": ["08:00-21:00"], "star": 3.92, "review": 47}, {"name": "ココカラファイン 仙台イービーンズ店", "address": "宮城県仙台市青葉区中央4-1-1 イービーンズ1F", "lat": 38.25862962, "lon": 140.8797324, "category": "ドラッグストア", "category_id": "0200699", "time": ["10:00-20:00"], "star": 4.03, "review": 28}, {"name": "アインズ&トルペ 仙台PARCO2店", "address": "宮城県仙台市青葉区中央3-7-5 仙台PARCO2 3F", "lat": 38.2590018, "lon": 140.8795768, "category": "ドラッグストア", "category_id": "0200699", "time": ["10:00-20:00"], "star": 4.05, "review": 24}, {"name": "ダイコクドラッグ 仙台クリスロード店", "address": "宮城県仙台市青葉区中央2-2-30 日興商事ビル", "lat": 38.2612932, "lon": 140.8773019, "category": "ドラッグストア", "category_id": "0200699", "time": ["08:05-21:00"], "star": 3.89, "review": 186}, {"name": "マツモトキヨシ 薬 仙台中央通り店", "address": "宮城県仙台市青葉区一番町3-6-4", "lat": 38.2610458, "lon": 140.8737746, "category": "ドラッグストア", "category_id": "0200699", "time": ["09:00-21:00"], "star": 4.14, "review": 15}, {"name": "トモズ 仙台中央店", "address": "宮城県仙台市青葉区中央4-2-16", "lat": 38.2576435, "lon": 140.8784326, "category": "ドラッグストア", "category_id": "0200699", "time": ["08:00-21:00"], "star": 3.6, "review": 8}, {"name": "トモズ エスパル仙台店", "address": "宮城県仙台市青葉区中央1-1-1 エスパル仙台 東館 2F", "lat": 38.2595963, "lon": 140.8825265, "category": "ドラッグストア", "category_id": "0200699", "time": ["10:00-21:00"], "star": 4.18, "review": 31}, {"name": "トモズ 仙台サンモール店", "address": "宮城県仙台市青葉区一番町2-6-1", "lat": 38.2587237, "lon": 140.8722165, "category": "ドラッグストア", "category_id": "0200699", "time": ["08:00-21:00"], "star": 3.86, "review": 13}, {"name": "ドラッグセイムス 仙台榴岡店", "address": "宮城県仙台市宮城野区榴岡4丁目1-8", "lat": 38.25922438, "lon": 140.88719546, "category": "ドラッグストア", "category_id": "0200699", "time": ["08:00-23:00"], "star": 4.14, "review": 62}, {"name": "マツモトキヨシ 薬 仙台一番町店", "address": "宮城県仙台市青葉区一番町4-3-26", "lat": 38.2631122, "lon": 140.8708497, "category": "ドラッグストア", "category_id": "0200699", "time": ["09:00-22:00"], "star": 3.84, "review": 14}, {"name": "サンドラッグ 仙台一番町店", "address": "宮城県仙台市青葉区一番町３丁目１０－２３ ベルモーズビル１階", "lat": 38.2618234, "lon": 140.8711859, "category": "ドラッグストア", "category_id": "0200699", "time": ["09:00-22:00"], "star": 4.21, "review": 43}, {"name": "マツモトキヨシ 薬 仙台東口駅前店", "address": "宮城県仙台市宮城野区榴岡1-2-8 松栄東口第一ビル", "lat": 38.2594743, "lon": 140.8854373, "category": "ドラッグストア", "category_id": "0200699", "time": ["08:00-21:00"], "star": 3.87, "review": 26}, {"name": "ツルハドラッグ 仙台榴岡店", "address": "宮城県仙台市宮城野区榴岡3丁目4-12", "lat": 38.26153529, "lon": 140.88723417, "category": "ドラッグストア", "category_id": "0200699", "time": ["09:00-22:00"], "star": 4.3, "review": 72}, {"name": "マツモトキヨシ 薬 ヨドバシ仙台店", "address": "宮城県仙台市宮城野区榴岡1-2-13", "lat": 38.2590854, "lon": 140.8851123, "category": "ドラッグストア", "category_id": "0200699", "time": ["10:00-21:00"], "star": 4.0, "review": 0}, {"name": "ドラッグセイムス 仙台宮町店", "address": "宮城県仙台市青葉区宮町1-1-59", "lat": 38.26704296, "lon": 140.88321467, "category": "ドラッグストア", "category_id": "0200699", "time": ["00:00-24:00"], "star": 3.64, "review": 68}, {"name": "ツルハドラッグ TIC一番町店", "address": "宮城県仙台市青葉区一番町4丁目9番18号", "lat": 38.26497309, "lon": 140.87016636, "category": "ドラッグストア", "category_id": "0200699", "time": ["10:00-22:00"], "star": 4.26, "review": 33}], "ATM": [{"name": "三菱UFJ銀行 仙台支店", "address": "宮城県仙台市青葉区中央2-2-1", "lat": 38.2609015, "lon": 140.8775214, "category": "銀行", "category_id": "0402596", "time": ["09:00-15:00"], "star": 4.15, "review": 6}, {"name": "七十七銀行 本店営業部", "address": "宮城県仙台市青葉区中央3-3-20", "lat": 38.259871, "lon": 140.8759383, "category": "銀行", "category_id": "0402596", "time": ["09:00-15:00"], "star": 3.92, "review": 22}, {"name": "三井住友銀行 仙台支店", "address": "宮城県仙台市青葉区中央2-2-6", "lat": 38.26086, "lon": 140.877, "category": "銀行", "category_id": "0402596", "time": ["09:00-15:00"], "star": 3.4, "review": 8}, {"name": "仙台銀行 中央通支店", "address": "宮城県仙台市青葉区中央2-6-3", "lat": 38.2619404, "lon": 140.8782045, "category": "銀行", "category_id": "0402596", "time": ["09:00-15:00"], "star": 4.8, "review": 2}, {"name": "七十七銀行 仙台駅前支店", "address": "宮城県仙台市青葉区中央1-7-5", "lat": 38.2622599, "lon": 140.8800043, "category": "銀行", "category_id": "0402596", "time": ["09:00-15:00"], "star": 4.22, "review": 1}, {"name": "三井住友信託銀行仙台支店", "address": "宮城県仙台市青葉区中央2丁目1-7", "lat": 38.2610238, "lon": 140.8780657, "category": "銀行", "category_id": "0402596", "time": ["09:00-19:00"], "star": 3.75, "review": 2}, {"name": "荘内銀行 仙台支店", "address": "宮城県仙台市青葉区中央3-1-24", "lat": 38.260535, "lon": 140.8789518, "category": "銀行", "category_id": "0402596", "time": ["09:00-15:00"], "star": 2.13, "review": 2}, {"name": "七十七銀行 新伝馬町支店", "address": "宮城県仙台市青葉区中央2-4-1", "lat": 38.2614792, "lon": 140.8757632, "category": "銀行", "category_id": "0402596", "time": ["09:00-15:00"], "star": 4.4, "review": 10}, {"name": "あおぞら銀行 仙台支店", "address": "宮城県仙台市青葉区中央3丁目2-1", "lat": 38.2601572, "lon": 140.8776409, "category": "銀行", "category_id": "0402596", "time": ["09:00-15:00"], "star": 3.89, "review": 3}, {"name": "青森みちのく銀行仙台支店", "address": "宮城県仙台市青葉区中央3丁目2-23", "lat": 38.2602155, "lon": 140.8771326, "category": "銀行", "category_id": "0402596", "time": ["09:00-15:00"], "star": 3.75, "review": 0}, {"name": "ゆうちょ銀行 ATM 仙台名掛丁出張所", "address": "宮城県仙台市青葉区中央2-6-1 山口ビル 1F", "lat": 38.261846, "lon": 140.8784295, "category": "ATM", "category_id": "0402785", "time": [], "star": 0.0, "review": 2}, {"name": "岩手銀行 泉中央支店", "address": "宮城県仙台市青葉区中央2-2-10", "lat": 38.2608154, "lon": 140.8765993, "category": "銀行", "category_id": "0402596", "time": ["09:00-15:00"], "star": 4.4, "review": 2}, {"name": "七十七銀行 本店ローンセンター", "address": "宮城県仙台市 青葉区中央3丁目3-20", "lat": 38.25973526, "lon": 140.87604197, "category": "銀行", "category_id": "0402596", "time": ["09:00-16:30"], "star": 4.5, "review": 2}, {"name": "三菱UFJ銀行 仙台中央支店", "address": "宮城県仙台市青葉区中央2-2-1", "lat": 38.2609099, "lon": 140.8774714, "category": "銀行", "category_id": "0402596", "time": ["09:00-15:00"], "star": 3.13, "review": 2}, {"name": "七十七銀行 ATM JR仙台駅1F", "address": "宮城県仙台市青葉区中央1-1-1 JR仙台駅 1F", "lat": 38.2606713, "lon": 140.882082, "category": "ATM", "category_id": "0402785", "time": [], "star": 0.0, "review": 0}, {"name": "荘内銀行イオン石巻支店", "address": "宮城県仙台市青葉区中央3丁目1-24", "lat": 38.2603461, "lon": 140.8790185, "category": "銀行", "category_id": "0402596", "time": [], "star": 0.0, "review": 0}, {"name": "秋田銀行 仙台支店", "address": "宮城県仙台市青葉区中央3-2-1", "lat": 38.2602349, "lon": 140.8776409, "category": "銀行", "category_id": "0402596", "time": ["09:00-15:00"], "star": 3.88, "review": 3}, {"name": "三菱UFJ信託銀行仙台支店", "address": "宮城県仙台市青葉区一番町3丁目1-5", "lat": 38.2602125, "lon": 140.8738801, "category": "銀行", "category_id": "0402596", "time": [], "star": 4.38, "review": 3}, {"name": "みずほ銀行 仙台支店", "address": "宮城県仙台市青葉区一番町3-1-1 ", "lat": 38.2604931, "lon": 140.87425231, "category": "銀行", "category_id": "0402596", "time": ["09:00-15:00"], "star": 3.44, "review": 2}, {"name": "青森みちのく銀行 仙台支店", "address": "宮城県仙台市青葉区中央3-2-23", "lat": 38.2601785, "lon": 140.877181, "category": "銀行", "category_id": "0402596", "time": [], "star": 4.0, "review": 0}], "銭湯 温泉": [{"name": "日帰り入浴 駅前人工温泉 とぽす 仙台駅西口", "address": "宮城県仙台市青葉区中央2丁目1番25号", "lat": 38.26155154, "lon": 140.87836845, "category": "日帰り入浴", "category_id": "0401679", "time": ["11:00-33:30"], "star": 0.0, "review": 0}, {"name": "ホテルモントレ仙台", "address": "宮城県仙台市青葉区中央4丁目1番8号 ", "lat": 38.25808803, "lon": 140.88041015, "category": "ホテル", "category_id": "0300124", "time": ["00:00-24:00"], "star": 4.34, "review": 408}, {"name": "駅前人工温泉とぽす仙台駅西口", "address": "宮城県仙台市青葉区中央2-1-25", "lat": 38.26155154, "lon": 140.87836845, "category": "宿泊施設", "category_id": "0300120", "time": [], "star": 4.0, "review": 59}, {"name": "日帰り入浴 仙台市シルバーセンター", "address": "宮城県仙台市青葉区花京院1丁目3番2号", "lat": 38.26425312, "lon": 140.88156204, "category": "日帰り入浴", "category_id": "0401679", "time": ["10:00-20:00"], "star": 0.0, "review": 0}, {"name": "日帰り入浴 サウナ&カプセル キュア国分町", "address": "宮城県仙台市青葉区国分町2丁目8-33", "lat": 38.2634315, "lon": 140.8679306, "category": "日帰り入浴", "category_id": "0401679", "time": ["00:00-24:00"], "star": 0.0, "review": 0}, {"name": "アパホテル 仙台駅五橋 玄要の湯", "address": "宮城県仙台市若林区五橋3丁目1-1", "lat": 38.25509881934398, "lon": 140.88232095423788, "category": "日帰り入浴", "category_id": "0401679", "time": ["06:00-10:00", "15:00-25:00"], "star": 0.0, "review": 0}], "スーパーマーケット": [{"name": "ロピア 仙台ヨドバシ店", "address": "宮城県仙台市宮城野区榴岡1-2-13 ヨドバシ仙台第2ビル 3階", "lat": 38.25921593, "lon": 140.885154, "category": "スーパー", "category_id": "0200612", "time": ["10:00-21:00"], "star": 4.08, "review": 283}, {"name": "成城石井 エスパル仙台店", "address": "宮城県仙台市青葉区中央1-1-1 エスパル仙台 東館2F", "lat": 38.260277, "lon": 140.882227, "category": "スーパー", "category_id": "0200612", "time": ["10:00-22:00"], "star": 4.13, "review": 219}, {"name": "みやぎ・みちのくカイタク市場", "address": "宮城県仙台市青葉区中央2-1-18 クリスロード商店街沿い", "lat": 38.261467137431, "lon": 140.87766213967, "category": "スーパー", "category_id": "0200612", "time": ["10:00-18:30"], "star": 4.13, "review": 50}, {"name": "北野エース エスパル仙台店", "address": "宮城県仙台市青葉区中央1-1-1 エスパル仙台 本館 B1F", "lat": 38.2589519, "lon": 140.8819238, "category": "スーパー", "category_id": "0200612", "time": ["10:00-21:00"], "star": 4.36, "review": 73}, {"name": "tekute せんだい", "address": "宮城県仙台市青葉区中央1丁目1-1", "lat": 38.259649, "lon": 140.88342, "category": "スーパー", "category_id": "0200612", "time": [], "star": 4.13, "review": 3}, {"name": "イオン 仙台一番町店", "address": "宮城県仙台市青葉区一番町1-2-25 NSビル 1F", "lat": 38.2578349, "lon": 140.8733887, "category": "スーパー", "category_id": "0200612", "time": ["08:00-22:00"], "star": 3.96, "review": 159}, {"name": "サトー商会 仙台朝市店", "address": "宮城県仙台市青葉区中央3-8-5", "lat": 38.2588129, "lon": 140.8786103, "category": "スーパー", "category_id": "0200612", "time": ["08:30-18:00"], "star": 3.94, "review": 9}, {"name": "明治屋 仙台一番町ストアー", "address": "宮城県仙台市青葉区一番町1-2-25 仙台NSビル 1F", "lat": 38.2578211, "lon": 140.8733665, "category": "スーパー", "category_id": "0200612", "time": ["10:30-20:30"], "star": 3.85, "review": 67}, {"name": "業務スーパー 仙台一番町店", "address": "宮城県仙台市青葉区一番町4-9-18 TICビル B1F", "lat": 38.2649342, "lon": 140.8701858, "category": "スーパー", "category_id": "0200612", "time": ["10:00-21:00"], "star": 4.15, "review": 290}, {"name": "イオンリテール株式会社 東北カンパニー衣料商品部", "address": "宮城県仙台市 青葉区中央3丁目3-3", "lat": 38.26009915, "lon": 140.87665031, "category": "スーパー", "category_id": "0200612", "time": [], "star": 3.97, "review": 1}, {"name": "藤崎マイキッチン", "address": "宮城県仙台市青葉区一番町3丁目2-17 藤崎本館 B2F", "lat": 38.260679, "lon": 140.8742796, "category": "スーパー", "category_id": "0200612", "time": [], "star": 4.52, "review": 12}, {"name": "みやぎ生協 錦町店", "address": "宮城県仙台市青葉区錦町1-1-7", "lat": 38.2683232, "lon": 140.8782068, "category": "スーパー", "category_id": "0200612", "time": ["09:30-23:00"], "star": 3.98, "review": 79}, {"name": "みやぎ生協 新寺店", "address": "宮城県仙台市若林区新寺1-8-1", "lat": 38.2540719, "lon": 140.88426, "category": "スーパー", "category_id": "0200612", "time": ["09:30-23:00"], "star": 3.68, "review": 25}, {"name": "明治屋 仙台藤崎ストアー", "address": "宮城県仙台市青葉区一番町3-2-17 藤崎 本館 B1F", "lat": 38.2601764, "lon": 140.8727886, "category": "スーパー", "category_id": "0200612", "time": [], "star": 4.0, "review": 2}, {"name": "北野エース 仙台三越店", "address": "宮城県仙台市青葉区一番町4-8-15 仙台三越 定禅寺通り館 B1F", "lat": 38.2656536, "lon": 140.8709329, "category": "スーパー", "category_id": "0200612", "time": ["10:00-19:30"], "star": 4.28, "review": 17}, {"name": "イオン エクスプレス仙台花京院店", "address": "宮城県仙台市青葉区花京院2-1-14", "lat": 38.2674289, "lon": 140.8797345, "category": "スーパー", "category_id": "0200612", "time": ["08:00-23:00"], "star": 3.6, "review": 62}, {"name": "サンフラワー", "address": "宮城県仙台市青葉区国分町2丁目10-20", "lat": 38.2638727, "lon": 140.870005, "category": "スーパー", "category_id": "0200612", "time": [], "star": 4.89, "review": 2}, {"name": "イオン エクスプレス仙台五橋駅前店", "address": "宮城県仙台市若林区清水小路6-1", "lat": 38.2519886, "lon": 140.8814771, "category": "スーパー", "category_id": "0200612", "time": ["08:00-23:00"], "star": 4.48, "review": 71}, {"name": "紀ノ国屋 仙台三越店", "address": "宮城県仙台市青葉区一番町4-8-15 仙台三越 本館 B1F スイーツパーク", "lat": 38.2651509, "lon": 140.8711774, "category": "スーパー", "category_id": "0200612", "time": ["10:00-19:30"], "star": 4.5, "review": 6}, {"name": "イオン エクスプレス仙台北目町店", "address": "宮城県仙台市青葉区北目町4-3 北目町SKビル 1F", "lat": 38.2547103, "lon": 140.8757914, "category": "スーパー", "category_id": "0200612", "time": ["08:00-23:00"], "star": 3.69, "review": 131}]}, "top_restaurant": {"name": "俺たちの寿司ダイニング 仙八 朝市本店", "category": "シーフード・海鮮料理店", "star": 4.67, "review": 1}}, {"name": "あぶくま", "name_en": "Abukuma", "lat": 37.913718, "lon": 140.686133, "osm_id": 263242985, "operator": "阿武隈急行線", "railway": "station", "wikidata": "Q4670568", "wikipedia_tag": "ja:あぶくま駅", "lines": ["阿武隈急行", "阿武隈急行線"], "pref": "宮城県", "wikipedia_text": "あぶくま駅（あぶくまえき）は、宮城県伊具郡丸森町字廻倉にある阿武隈急行線の駅である。宮城県内の鉄道駅としては最南端にあたる。キャッチフレーズは、「川とのふれあいの郷」。", "wikipedia_image": "https://upload.wikimedia.org/wikipedia/commons/0/07/KIMG1664_20220814092219.jpg", "nearest_restaurant": {"name": "あがらいん伊達屋", "lat": 37.9143668, "lon": 140.6678976, "address": "", "distance_m": 1601, "cuisine": ""}, "nearby_pois": {}}, {"name": "くりこま高原", "name_en": "Kurikoma-Kogen", "lat": 38.7487399, "lon": 141.0716092, "osm_id": 265031015, "operator": "", "railway": "station", "wikidata": "Q1136550", "wikipedia_tag": "ja:くりこま高原駅", "lines": ["東北新幹線"], "pref": "宮城県", "wikipedia_text": "くりこま高原駅（くりこまこうげんえき）は、宮城県栗原市志波姫新熊谷（しわひめしんくまや）にある、東日本旅客鉄道（JR東日本）東北新幹線の駅。\n営業キロ数は、当駅から南東に約5.5キロメートル離れた東北本線新田駅を準用し、乗車券部分については、当駅との選択乗車が可能である。", "wikipedia_image": "https://upload.wikimedia.org/wikipedia/commons/9/96/JR_East_Kurikoma-K%C5%8Dgen_Station_West_Exit%2C_Miyagi_Pref_20240212.jpg", "nearest_convenience": {"name": "セブン-イレブン", "lat": 38.756152, "lon": 141.0719928, "address": "宮城県栗原市志波姫大門南191-2", "distance_m": 825, "brand": "セブン-イレブン"}, "nearest_restaurant": {"name": "エポカ21", "lat": 38.7482988, "lon": 141.0724329, "address": "", "distance_m": 87, "cuisine": ""}, "nearby_pois": {"コンビニ": [{"name": "セブンイレブン 宮城志波姫", "address": "宮城県栗原市志波姫大門南191-2", "lat": 38.7562311, "lon": 141.0720899, "category": "コンビニ", "category_id": "0200487", "time": ["00:00-24:00"], "star": 3.92, "review": 6}], "ラーメン": [{"name": "食事処 和の倶楽", "address": "宮城県栗原市志波姫新熊谷279-2 ホテルエポカ21 鈴蘭内", "lat": 38.74806252885917, "lon": 141.07240546318616, "category": "定食屋", "category_id": "0101441", "time": ["11:30-14:30", "17:30-21:00"], "star": 3.17, "review": 6}, {"name": "めん六や　イオンスーパーセンター栗原志波姫店", "address": "宮城県栗原市志波姫新熊谷11 イオンスーパーセンター栗原志波姫", "lat": 38.74900408, "lon": 141.06825455, "category": "うどん店", "category_id": "0100033", "time": ["11:00-19:00"], "star": 3.64, "review": 15}, {"name": "拾八番亭", "address": "宮城県栗原市志波姫沼崎南沖236", "lat": 38.75509581, "lon": 141.06553507, "category": "飲食店", "category_id": "0102732", "time": ["11:00-14:00", "17:30-20:00"], "star": 3.49, "review": 8}], "飲食店": [{"name": "米金工房 栗原志波姫店", "address": "宮城県栗原市志波姫新熊谷11 イオンスーパーセンター栗原志波姫店", "lat": 38.749259777182, "lon": 141.06841213446, "category": "たこ焼き店", "category_id": "0100134", "time": ["11:00-19:00"], "star": 4.05, "review": 2}, {"name": "鈴蘭", "address": "宮城県栗原市志波姫新熊谷279-2 エポカ21", "lat": 38.7484124, "lon": 141.0722463, "category": "定食屋", "category_id": "0101441", "time": [], "star": 3.75, "review": 1}, {"name": "食事処 和の倶楽", "address": "宮城県栗原市志波姫新熊谷279-2 ホテルエポカ21 鈴蘭内", "lat": 38.74806252885917, "lon": 141.07240546318616, "category": "定食屋", "category_id": "0101441", "time": ["11:30-14:30", "17:30-21:00"], "star": 3.17, "review": 6}, {"name": "B&Jキッチン", "address": "宮城県栗原市志波姫新熊谷279-2 エポカ21 5F", "lat": 38.748793467184, "lon": 141.07210386445, "category": "洋食店", "category_id": "0100129", "time": ["11:00-14:30", "17:00-21:00"], "star": 3.71, "review": 9}, {"name": "めん六や　イオンスーパーセンター栗原志波姫店", "address": "宮城県栗原市志波姫新熊谷11 イオンスーパーセンター栗原志波姫", "lat": 38.74900408, "lon": 141.06825455, "category": "うどん店", "category_id": "0100033", "time": ["11:00-19:00"], "star": 3.64, "review": 15}, {"name": "株式会社ゆめぐり", "address": "宮城県栗原市志波姫新熊谷279-2", "lat": 38.74843201, "lon": 141.07216248, "category": "レストラン", "category_id": "0100111", "time": [], "star": 0.0, "review": 0}, {"name": "EPOCA21", "address": "宮城県栗原市志波姫新熊谷279-2", "lat": 38.74839312, "lon": 141.07216276, "category": "ホテル", "category_id": "0300124", "time": ["09:20-21:00"], "star": 3.29, "review": 11}, {"name": "ホテル エポカ Tabist", "address": "宮城県栗原市志波姫新熊谷279-2", "lat": 38.7483931, "lon": 141.0722319, "category": "ホテル", "category_id": "0300124", "time": [], "star": 4.16, "review": 13}, {"name": "拾八番亭", "address": "宮城県栗原市志波姫沼崎南沖236", "lat": 38.75509581, "lon": 141.06553507, "category": "飲食店", "category_id": "0102732", "time": ["11:00-14:00", "17:30-20:00"], "star": 3.49, "review": 8}, {"name": "ル リアン", "address": "宮城県栗原市志波姫新沼崎187-1", "lat": 38.75195728, "lon": 141.06619433, "category": "カフェ・喫茶", "category_id": "0100344", "time": ["11:30-16:00"], "star": 3.5, "review": 3}, {"name": "ことぶき寿司食堂", "address": "宮城県栗原市志波姫沼崎新田97", "lat": 38.75408894, "lon": 141.06448996, "category": "寿司店", "category_id": "0100101", "time": [], "star": 0.0, "review": 0}], "カフェ": [{"name": "B&Jキッチン", "address": "宮城県栗原市志波姫新熊谷279-2 エポカ21 5F", "lat": 38.748793467184, "lon": 141.07210386445, "category": "洋食店", "category_id": "0100129", "time": ["11:00-14:30", "17:00-21:00"], "star": 3.71, "review": 9}, {"name": "ル リアン", "address": "宮城県栗原市志波姫新沼崎187-1", "lat": 38.75195728, "lon": 141.06619433, "category": "カフェ・喫茶", "category_id": "0100344", "time": ["11:30-16:00"], "star": 3.5, "review": 3}], "ドラッグストア": [{"name": "青葉の杜薬局 志波姫店", "address": "宮城県栗原市志波姫新原 142", "lat": 38.75342559814453, "lon": 141.06671142578125, "category": "薬店", "category_id": "0202316", "time": [], "star": 0.0, "review": 0}], "ATM": [{"name": "イオン銀行 ATM イオンスーパーセンター栗原志波姫店出張所(食品集中レジ並び)", "address": "宮城県栗原市志波姫新熊谷11", "lat": 38.748938, "lon": 141.068466, "category": "ATM", "category_id": "0402785", "time": ["08:00-22:00"], "star": 0.0, "review": 0}, {"name": "みずほ銀行 ATM イオンスーパーセンター栗原志波姫店出張所", "address": "宮城県栗原市志波姫新熊谷11", "lat": 38.7489335, "lon": 141.068488, "category": "ATM", "category_id": "0402785", "time": [], "star": 0.0, "review": 0}, {"name": "仙台銀行 ATM イオンスーパーセンター栗原志波姫店", "address": "宮城県栗原市志波姫新熊谷11", "lat": 38.7487287, "lon": 141.067892, "category": "ATM", "category_id": "0402785", "time": [], "star": 0.0, "review": 0}, {"name": "ゆうちょ銀行 ATM 志波姫郵便局", "address": "宮城県栗原市志波姫大門南195-2", "lat": 38.7556936, "lon": 141.070624, "category": "ATM", "category_id": "0402785", "time": [], "star": 0.0, "review": 0}, {"name": "JAバンク ATM 新みやぎ農業協同組合(JA新みやぎ)旧志和姫支店", "address": "宮城県栗原市志波姫沼崎南沖438", "lat": 38.7554644, "lon": 141.0667766, "category": "ATM", "category_id": "0402785", "time": [], "star": 0.0, "review": 0}, {"name": "ゆうちょ銀行 志波姫郵便局", "address": "宮城県栗原市志波姫大門南195-2", "lat": 38.7556936, "lon": 141.070624, "category": "銀行", "category_id": "0402596", "time": [], "star": 0.0, "review": 0}, {"name": "セブン銀行 宮城志波姫店", "address": "宮城県栗原市志波姫大門南191-2", "lat": 38.7561235, "lon": 141.072007, "category": "ATM", "category_id": "0402785", "time": ["00:00-24:00"], "star": 0.0, "review": 0}], "スーパーマーケット": [{"name": "イオン スーパーセンター栗原志波姫店", "address": "宮城県栗原市志波姫新熊谷11", "lat": 38.748968, "lon": 141.0683379, "category": "スーパー", "category_id": "0200612", "time": ["08:00-21:00"], "star": 3.72, "review": 104}]}, "top_restaurant": {"name": "ホテル エポカ Tabist", "category": "ホテル", "star": 4.16, "review": 13}}, {"name": "のの岳", "name_en": "Nonodake", "lat": 38.5531667, "lon": 141.2257896, "osm_id": 264271438, "operator": "", "railway": "station", "wikidata": "Q7049528", "wikipedia_tag": "ja:のの岳駅", "lines": ["JR気仙沼線"], "pref": "宮城県", "wikipedia_text": "のの岳駅（ののだけえき）は、宮城県遠田郡涌谷町猪岡短台字大谷地にある、東日本旅客鉄道（JR東日本）気仙沼線の駅である。\n気仙沼線に並行する気仙沼線BRTは当駅を経由しない。", "wikipedia_image": "https://upload.wikimedia.org/wikipedia/commons/d/d3/JR_East_Nonodake_Station_Appearance%2C_Miyagi_Pref.jpg", "nearest_convenience": {"name": "ファミリーマート", "lat": 38.5562908, "lon": 141.2403386, "address": "", "distance_m": 1312, "brand": "ファミリーマート"}, "nearest_restaurant": {"name": "お食事処 二輪草", "lat": 38.5566905, "lon": 141.2404968, "address": "", "distance_m": 1338, "cuisine": ""}, "nearby_pois": {}}, {"name": "やながわ希望の森公園前", "name_en": "Yanagawa Kibonomori Koen-mae", "lat": 37.8574948, "lon": 140.6155192, "osm_id": 263243929, "operator": "", "railway": "station", "wikidata": "Q11280402", "wikipedia_tag": "ja:やながわ希望の森公園前駅", "lines": ["阿武隈急行", "阿武隈急行線"], "pref": "宮城県", "wikipedia_text": "やながわ希望の森公園前駅（やながわきぼうのもりこうえんまええき）は、福島県伊達市梁川町字北町頭にある阿武隈急行線の駅である。キャッチフレーズは、「桜の園（さくらのその）」。", "wikipedia_image": "https://upload.wikimedia.org/wikipedia/commons/d/d2/%E3%82%84%E3%81%AA%E3%81%8C%E3%82%8F%E5%B8%8C%E6%9C%9B%E3%81%AE%E6%A3%AE%E5%85%AC%E5%9C%92%E5%89%8D%E9%A7%85%EF%BC%882006%E5%B9%B44%E6%9C%882%E6%97%A5%EF%BC%89.jpg", "nearby_pois": {"コンビニ": [{"name": "ヨークベニマル 梁川店", "address": "福島県伊達市梁川町右城町15", "lat": 37.8565996, "lon": 140.6066223, "category": "スーパー", "category_id": "0200612", "time": ["09:30-21:00"], "star": 3.42, "review": 58}], "ラーメン": [{"name": "食堂よしかわ", "address": "福島県伊達市梁川町希望ケ丘25", "lat": 37.86422427, "lon": 140.61151667, "category": "定食屋", "category_id": "0101441", "time": ["11:00-15:00", "17:00-20:00"], "star": 4.1, "review": 33}, {"name": "新よね食堂", "address": "福島県伊達市梁川町北本町3-5", "lat": 37.855686777602, "lon": 140.60469775576, "category": "飲食店", "category_id": "0102732", "time": [], "star": 3.32, "review": 4}, {"name": "天神社社務所", "address": "福島県伊達市梁川町字上町10", "lat": 37.8607897, "lon": 140.6107043, "category": "神社", "category_id": "0402090", "time": [], "star": 3.67, "review": 3}], "飲食店": [{"name": "まちの駅 やながわ お食事処", "address": "福島県伊達市梁川町字大町一丁目60", "lat": 37.8589975, "lon": 140.6077899, "category": "和食店", "category_id": "0100126", "time": [], "star": 4.75, "review": 1}, {"name": "産業伝承館", "address": "福島県伊達市梁川町筒下14 やながわ希望の森公園 産業伝承館内", "lat": 37.855335966404, "lon": 140.62323876913, "category": "蕎麦店", "category_id": "0100034", "time": [], "star": 2.29, "review": 4}, {"name": "マツバエン", "address": "福島県伊達市梁川町筒下14 やながわ希望の森公園 産業伝承館内", "lat": 37.855805977608, "lon": 140.62290983575, "category": "かき氷店", "category_id": "0100049", "time": ["10:00-16:00"], "star": 3.61, "review": 6}, {"name": "食堂よしかわ", "address": "福島県伊達市梁川町希望ケ丘25", "lat": 37.86422427, "lon": 140.61151667, "category": "定食屋", "category_id": "0101441", "time": ["11:00-15:00", "17:00-20:00"], "star": 4.1, "review": 33}, {"name": "MATSUBAEN", "address": "福島県伊達市梁川町筒下 14 やながわ希望の森公園産業伝承館内", "lat": 37.85578918457031, "lon": 140.62283325195312, "category": "飲食店", "category_id": "0102732", "time": [], "star": 4.5, "review": 0}, {"name": "新よね食堂", "address": "福島県伊達市梁川町北本町3-5", "lat": 37.855686777602, "lon": 140.60469775576, "category": "飲食店", "category_id": "0102732", "time": [], "star": 3.32, "review": 4}, {"name": "八幡", "address": "福島県伊達市梁川町北町頭118 やながわ希望の森公園前駅", "lat": 37.8582988, "lon": 140.6157905, "category": "うどん店", "category_id": "0100033", "time": [], "star": 0.0, "review": 0}, {"name": "ベーカリー ひだまり", "address": "福島県伊達市梁川町右城町56-1", "lat": 37.856664727602, "lon": 140.60783881577, "category": "飲食店", "category_id": "0102732", "time": ["11:00-15:00"], "star": 0.0, "review": 0}, {"name": "時代寿し", "address": "福島県伊達市梁川町中町7-1", "lat": 37.85459775, "lon": 140.6057363, "category": "寿司店", "category_id": "0100101", "time": [], "star": 3.88, "review": 10}, {"name": "いこい", "address": "福島県伊達市梁川町古町2-7", "lat": 37.8542813, "lon": 140.6070706, "category": "", "category_id": "", "time": [], "star": 0.0, "review": 0}, {"name": "こがね食堂", "address": "福島県伊達市梁川町右城町21", "lat": 37.8572227, "lon": 140.607476, "category": "", "category_id": "", "time": [], "star": 0.0, "review": 0}, {"name": "かねと", "address": "福島県伊達市梁川町字小梁川30-3", "lat": 37.85540319, "lon": 140.6049466, "category": "餃子店", "category_id": "0102733", "time": [], "star": 0.0, "review": 0}], "カフェ": [{"name": "マツバエン", "address": "福島県伊達市梁川町筒下14 やながわ希望の森公園 産業伝承館内", "lat": 37.855805977608, "lon": 140.62290983575, "category": "かき氷店", "category_id": "0100049", "time": ["10:00-16:00"], "star": 3.61, "review": 6}], "ドラッグストア": [{"name": "薬王堂 伊達梁川店", "address": "福島県伊達市梁川町大町1-40", "lat": 37.8593023, "lon": 140.6087581, "category": "ドラッグストア", "category_id": "0200699", "time": ["09:00-22:00"], "star": 4.2, "review": 39}, {"name": "ツルハドラッグ 梁川店", "address": "福島県伊達市梁川町字町裏３４-１", "lat": 37.85816049, "lon": 140.60542508, "category": "ドラッグストア", "category_id": "0200699", "time": ["09:00-22:00"], "star": 4.08, "review": 8}, {"name": "鶴ケ岡薬局", "address": "福島県伊達市梁川町字内町46", "lat": 37.85533173, "lon": 140.60855995, "category": "調剤薬局", "category_id": "0202315", "time": ["09:00-18:00"], "star": 0.0, "review": 0}, {"name": "保原薬局梁川店", "address": "福島県伊達市梁川町希望ケ丘26-2", "lat": 37.86423372, "lon": 140.61175832, "category": "調剤薬局", "category_id": "0202315", "time": ["08:30-18:00"], "star": 0.0, "review": 0}, {"name": "草野薬局", "address": "福島県伊達市梁川町字大町1丁目69", "lat": 37.8584587, "lon": 140.60838068, "category": "調剤薬局", "category_id": "0202315", "time": ["08:30-19:00"], "star": 0.0, "review": 0}], "ATM": [{"name": "ゆうちょ銀行 ATM 梁川郵便局", "address": "福島県伊達市梁川町右城町30", "lat": 37.8577096, "lon": 140.607525, "category": "ATM", "category_id": "0402785", "time": [], "star": 0.0, "review": 0}, {"name": "東邦銀行 ATM ヨークベニマル梁川店", "address": "福島県伊達市梁川町右城町15", "lat": 37.8569154, "lon": 140.606345, "category": "ATM", "category_id": "0402785", "time": [], "star": 0.0, "review": 0}, {"name": "JAバンク ATM JAふくしま未来 梁川支店(よりそい梁川店)", "address": "福島県伊達市梁川町東塩野川106-1", "lat": 37.8644181, "lon": 140.609239, "category": "ATM", "category_id": "0402785", "time": [], "star": 0.0, "review": 0}, {"name": "セブン銀行 ヨークベニマル 梁川店", "address": "福島県伊達市梁川町右城町15", "lat": 37.8566364, "lon": 140.606576, "category": "ATM", "category_id": "0402785", "time": ["09:30-21:30"], "star": 0.0, "review": 0}, {"name": "ゆうちょ銀行 梁川郵便局", "address": "福島県伊達市梁川町右城町30", "lat": 37.8577096, "lon": 140.607525, "category": "銀行", "category_id": "0402596", "time": [], "star": 0.0, "review": 0}, {"name": "福島信用金庫 梁川支店", "address": "福島県伊達市梁川町字中町38-1", "lat": 37.8540887, "lon": 140.6066751, "category": "信用金庫", "category_id": "0401098", "time": ["09:00-15:00"], "star": 4.5, "review": 0}, {"name": "JAバンク JAふくしま未来 梁川支店(よりそい梁川店)", "address": "福島県伊達市梁川町東塩野川106-1", "lat": 37.8644823, "lon": 140.6094746, "category": "銀行", "category_id": "0402596", "time": [], "star": 0.0, "review": 0}], "スーパーマーケット": [{"name": "ヨークベニマル 梁川店", "address": "福島県伊達市梁川町右城町15", "lat": 37.8565996, "lon": 140.6066223, "category": "スーパー", "category_id": "0200612", "time": ["09:30-21:00"], "star": 3.42, "review": 58}, {"name": "ツルハドラッグ 梁川店", "address": "福島県伊達市梁川町字町裏３４-１", "lat": 37.85816049, "lon": 140.60542508, "category": "ドラッグストア", "category_id": "0200699", "time": ["09:00-22:00"], "star": 4.08, "review": 8}]}, "top_restaurant": {"name": "まちの駅 やながわ お食事処", "category": "和食店", "star": 4.75, "review": 1}}, {"name": "一ノ関", "name_en": "Ichinoseki", "lat": 38.9268807, "lon": 141.1389019, "osm_id": 4636882514, "operator": "", "railway": "station", "wikidata": "Q800946", "wikipedia_tag": "ja:一ノ関駅", "lines": ["東北新幹線"], "pref": "宮城県", "nearby_bus_stops": [{"name": "仙台行", "lat": 38.9259974, "lon": 141.1373023, "distance_m": 170, "operator": ""}, {"name": "一ノ関駅口", "lat": 38.9264789, "lon": 141.1353302, "distance_m": 312, "operator": "岩手県交通"}, {"name": "大槻町", "lat": 38.9305197, "lon": 141.1422798, "distance_m": 499, "operator": ""}], "wikipedia_text": "一ノ関駅（いちのせきえき）は、岩手県一関市駅前にある、東日本旅客鉄道（JR東日本）・日本貨物鉄道（JR貨物）の駅。\n東北新幹線と、在来線の東北本線および大船渡線が乗り入れており、接続駅となっている。駅近傍には一ノ関統括センター（旧一ノ関運輸区）の車両基地が設置される。事務管コードは▲211005を使用している。\n市名は「一関」だが、駅名は「一ノ関」でカタカナの「ノ」が入っている（読みはともに「いちのせき」）。", "wikipedia_image": "https://upload.wikimedia.org/wikipedia/commons/1/15/JR_East_Ichinoseki_Station_West_Exit%2C_Iwate_Pref.jpg", "nearest_convenience": {"name": "NewDays", "lat": 38.9264474, "lon": 141.1391324, "address": "", "distance_m": 52, "brand": "NewDays"}, "nearest_restaurant": {"name": "いわぶちや食堂", "lat": 38.9268358, "lon": 141.1375168, "address": "", "distance_m": 120, "cuisine": ""}, "nearby_pois": {"コンビニ": [{"name": "NewDays 一ノ関6号", "address": "岩手県一関市駅前67", "lat": 38.9266247, "lon": 141.1390105, "category": "コンビニ", "category_id": "0200487", "time": ["06:15-20:30"], "star": 3.71, "review": 6}, {"name": "NewDays 一ノ関駅西口", "address": "岩手県一関市駅前67", "lat": 38.9262858, "lon": 141.1375634, "category": "コンビニ", "category_id": "0200487", "time": ["06:00-21:00"], "star": 4.13, "review": 15}, {"name": "ローソン 一関大町", "address": "岩手県一関市大町1-6", "lat": 38.9269385, "lon": 141.1357969, "category": "コンビニ", "category_id": "0200487", "time": ["00:00-24:00"], "star": 4.12, "review": 18}, {"name": "セブンイレブン 一関城内", "address": "岩手県一関市城内1-43", "lat": 38.9277854, "lon": 141.1314083, "category": "コンビニ", "category_id": "0200487", "time": ["00:00-24:00"], "star": 4.33, "review": 11}, {"name": "セブンイレブン 一関東口", "address": "岩手県一関市三関神田100", "lat": 38.9234836, "lon": 141.1444963, "category": "コンビニ", "category_id": "0200487", "time": ["00:00-24:00"], "star": 4.15, "review": 8}, {"name": "ローソン 一関地主町", "address": "岩手県一関市地主町3-3", "lat": 38.931699, "lon": 141.1346024, "category": "コンビニ", "category_id": "0200487", "time": ["00:00-24:00"], "star": 4.13, "review": 22}, {"name": "ファミリーマート 岩手一関相去店", "address": "岩手県一関市字相去63-1", "lat": 38.9230196, "lon": 141.1411049, "category": "コンビニ", "category_id": "0200487", "time": ["00:00-24:00"], "star": 3.75, "review": 17}, {"name": "セブンイレブン 一関樋渡", "address": "岩手県一関市樋渡26-1", "lat": 38.9302552, "lon": 141.1477235, "category": "コンビニ", "category_id": "0200487", "time": ["00:00-24:00"], "star": 4.1, "review": 17}, {"name": "グリーンホテル", "address": "岩手県一関市駅前52", "lat": 38.9267857, "lon": 141.1364774, "category": "ビジネスホテル", "category_id": "0300758", "time": ["00:00-24:00"], "star": 3.95, "review": 9}, {"name": "東横INN一ノ関駅前", "address": "岩手県一関市上大槻街2-33", "lat": 38.9275051, "lon": 141.1370634, "category": "ビジネスホテル", "category_id": "0300758", "time": ["00:00-24:00"], "star": 3.97, "review": 46}, {"name": "蔵ホテル一関", "address": "岩手県一関市大手町2-1", "lat": 38.9274633, "lon": 141.133997, "category": "ホテル", "category_id": "0300124", "time": ["00:00-24:00"], "star": 3.6, "review": 23}, {"name": "ヤマザキショップ Yショップ一関病院店", "address": "岩手県一関市大手町3-36", "lat": 38.92945920127, "lon": 141.134708, "category": "", "category_id": "", "time": [], "star": 0.0, "review": 0}, {"name": "@ビジネスホテル一関", "address": "岩手県一関市三関桜町73-1", "lat": 38.9296153, "lon": 141.14925649, "category": "ビジネスホテル", "category_id": "0300758", "time": [], "star": 3.86, "review": 12}], "ラーメン": [{"name": "丸長", "address": "岩手県一関市上大槻街2-34マルチョウビル 1F", "lat": 38.927267, "lon": 141.137303, "category": "ラーメン店", "category_id": "0100097", "time": ["11:30-14:45", "17:45-24:00"], "star": 3.94, "review": 60}, {"name": "マル寛そばや", "address": "岩手県一関市大町1-15", "lat": 38.92715307, "lon": 141.1362001, "category": "ラーメン店", "category_id": "0100097", "time": [], "star": 3.13, "review": 3}, {"name": "ラーメン ホルモン オールスター 一関大町店", "address": "岩手県一関市大町1-45壱番館ビル 1F", "lat": 38.927524, "lon": 141.136455, "category": "ラーメン店", "category_id": "0100097", "time": ["18:00-27:00"], "star": 3.6, "review": 15}, {"name": "ラーメンは好きですか", "address": "岩手県一関市三関字日照35-4", "lat": 38.92720358, "lon": 141.14831638, "category": "飲食店", "category_id": "0102732", "time": ["11:30-15:00"], "star": 4.31, "review": 15}, {"name": "稲村食堂", "address": "岩手県一関市東地主町63", "lat": 38.93094117, "lon": 141.13854706, "category": "ラーメン店", "category_id": "0100097", "time": ["17:00-25:00"], "star": 3.43, "review": 13}, {"name": "UMAMI SOUP Noodles 虹ソラ", "address": "岩手県一関市三関神田175-1", "lat": 38.9249223, "lon": 141.14481842, "category": "飲食店", "category_id": "0102732", "time": ["11:30-15:00", "17:30-21:00"], "star": 3.31, "review": 63}, {"name": "中村", "address": "岩手県一関市散田34-1", "lat": 38.92612943, "lon": 141.14561775, "category": "中華料理店", "category_id": "0100990", "time": ["11:30-14:00", "17:00-20:00"], "star": 4.08, "review": 22}, {"name": "中国料理 菜加", "address": "岩手県一関市大手町1-4", "lat": 38.92735113, "lon": 141.13442837, "category": "中華料理店", "category_id": "0100990", "time": ["11:30-14:30", "17:00-21:30"], "star": 4.03, "review": 27}, {"name": "珉珉亭 五十人町店", "address": "岩手県一関市五十人町42-3", "lat": 38.93058027, "lon": 141.14354388, "category": "中華料理店", "category_id": "0100990", "time": ["11:00-14:00", "17:00-22:00"], "star": 3.94, "review": 12}, {"name": "駅前食堂いわぶち屋", "address": "岩手県一関市上大槻街1-3", "lat": 38.92683046, "lon": 141.13743369, "category": "定食屋", "category_id": "0101441", "time": ["12:00-14:30", "18:00-20:00"], "star": 3.4, "review": 3}, {"name": "大福屋", "address": "岩手県一関市大町6-31", "lat": 38.93059643, "lon": 141.13694804, "category": "甘味処", "category_id": "0102834", "time": ["09:30-16:30"], "star": 4.13, "review": 27}, {"name": "みちのく", "address": "岩手県一関市大町2-30", "lat": 38.928136001019, "lon": 141.1357069278, "category": "焼き鳥店", "category_id": "0101960", "time": ["18:00-24:00"], "star": 3.22, "review": 16}, {"name": "お食事処 菜のはな", "address": "岩手県一関市駅前67 JR一ノ関駅", "lat": 38.92583028, "lon": 141.13723569, "category": "立ち食いそば店", "category_id": "0102781", "time": ["07:00-17:00"], "star": 3.82, "review": 4}, {"name": "串焼き黄金鶏 一関駅前店", "address": "岩手県一関市大町1-12 菅与ビル3 1F", "lat": 38.927007797091, "lon": 141.13618803621, "category": "焼き鳥店", "category_id": "0101960", "time": ["17:00-24:00"], "star": 3.6, "review": 2}, {"name": "虹ソラ", "address": "岩手県一関市三関字神田175-1", "lat": 38.9249237, "lon": 141.14481953, "category": "麺料理店", "category_id": "0101175", "time": [], "star": 3.83, "review": 6}, {"name": "水戸屋食堂", "address": "岩手県一関市字北ホウリヨウ11-10", "lat": 38.93184661, "lon": 141.14278311, "category": "定食屋", "category_id": "0101441", "time": [], "star": 3.5, "review": 4}, {"name": "一福亭", "address": "岩手県一関市散田2-3", "lat": 38.92541194, "lon": 141.14356684, "category": "蕎麦店", "category_id": "0100034", "time": ["11:00-15:00", "17:30-20:00"], "star": 4.13, "review": 22}], "飲食店": [{"name": "酒菜わらう月", "address": "岩手県一関市大町5-41", "lat": 38.930072617089, "lon": 141.13795442624, "category": "居酒屋", "category_id": "0101495", "time": ["11:00-14:00", "17:00-23:00"], "star": 3.84, "review": 9}, {"name": "サンエトワール 一ノ関駅店", "address": "岩手県一関市駅前67", "lat": 38.92639417077, "lon": 141.13762062918, "category": "カフェ・喫茶", "category_id": "0100344", "time": [], "star": 0.0, "review": 1}, {"name": "Tfull y", "address": "岩手県一関市三関字神田23-3", "lat": 38.923081636291, "lon": 141.146087915, "category": "カフェ・喫茶", "category_id": "0100344", "time": [], "star": 4.6, "review": 3}, {"name": "Kai 2nd", "address": "岩手県一関市大手町5-10", "lat": 38.929493197089, "lon": 141.13541980624, "category": "カフェ・喫茶", "category_id": "0100344", "time": ["14:00-21:00"], "star": 4.5, "review": 1}, {"name": "和夜我家", "address": "岩手県一関市新大町154", "lat": 38.926784193854, "lon": 141.13528841368, "category": "居酒屋", "category_id": "0101495", "time": [], "star": 3.47, "review": 3}, {"name": "カフェ トワ トワ", "address": "岩手県一関市田村町1-25", "lat": 38.928055467089, "lon": 141.13269925622, "category": "カフェ・喫茶", "category_id": "0100344", "time": [], "star": 3.1, "review": 3}, {"name": "食楽四季", "address": "岩手県一関市大手町2-1 蔵ホテル一関 1F", "lat": 38.92749116709, "lon": 141.13404187622, "category": "ステーキ店", "category_id": "0100570", "time": ["18:00-22:00"], "star": 0.0, "review": 0}, {"name": "蔵のBAR EBISU 蔵ホテル一関", "address": "岩手県一関市大手町2-1 蔵ホテル一関1F", "lat": 38.927506243301, "lon": 141.13399203528, "category": "バー", "category_id": "0100536", "time": [], "star": 0.0, "review": 0}, {"name": "はせ川", "address": "岩手県一関市上大槻街5-24", "lat": 38.92982158, "lon": 141.13908261, "category": "定食屋", "category_id": "0101441", "time": [], "star": 0.0, "review": 0}, {"name": "いろはにほへと 一関駅前店", "address": "岩手県一関市駅前401F", "lat": 38.926305, "lon": 141.13676, "category": "居酒屋", "category_id": "0101495", "time": ["16:00-24:00"], "star": 4.57, "review": 30}, {"name": "一ノ関めぐ味", "address": "岩手県一関市大町 144-2 2F", "lat": 38.92755889892578, "lon": 141.13658142089844, "category": "飲食店", "category_id": "0102732", "time": [], "star": 4.75, "review": 1}, {"name": "夢きらら", "address": "岩手県一関市大町1番6号 佐藤ビル1階", "lat": 38.926902770996094, "lon": 141.1359100341797, "category": "飲食店", "category_id": "0102732", "time": ["11:00-14:00", "17:00-22:00"], "star": 4.92, "review": 1}, {"name": "レストラン赤煉瓦", "address": "岩手県一関市上大槻街2-37", "lat": 38.92717457, "lon": 141.13686623, "category": "レストラン", "category_id": "0100111", "time": ["06:30-09:30", "11:30-14:30"], "star": 3.49, "review": 9}, {"name": "はっぴいえんど", "address": "岩手県一関市駅前67", "lat": 38.9258303, "lon": 141.1372357, "category": "カフェ・喫茶", "category_id": "0100344", "time": [], "star": 4.33, "review": 2}, {"name": "カフェ ジャーナル", "address": "岩手県一関市大手町1-46 一関図書館 1F", "lat": 38.9277794, "lon": 141.1347634, "category": "カフェ・喫茶", "category_id": "0100344", "time": [], "star": 4.63, "review": 9}, {"name": "酒房やかた", "address": "岩手県一関市東地主町24", "lat": 38.931529517089, "lon": 141.13856123625, "category": "居酒屋", "category_id": "0101495", "time": [], "star": 0.0, "review": 0}, {"name": "cafe ∞", "address": "岩手県一関市駅前40 1F", "lat": 38.926389637091, "lon": 141.1366965162, "category": "カフェ・喫茶", "category_id": "0100344", "time": ["09:00-14:00"], "star": 4.24, "review": 6}, {"name": "フレンド", "address": "岩手県一関市大町4-11", "lat": 38.92816358709, "lon": 141.13639524622, "category": "カフェ・喫茶", "category_id": "0100344", "time": ["10:00-19:00"], "star": 4.03, "review": 26}, {"name": "和かな", "address": "岩手県一関市地主町8-7", "lat": 38.93171853, "lon": 141.13694383, "category": "おばんざい料理店", "category_id": "0100042", "time": [], "star": 0.0, "review": 0}, {"name": "居酒屋まるた", "address": "岩手県一関市大町1-14", "lat": 38.927057697091, "lon": 141.13642355621, "category": "居酒屋", "category_id": "0101495", "time": ["17:00-24:00"], "star": 3.73, "review": 9}], "カフェ": [{"name": "Tfull y", "address": "岩手県一関市三関字神田23-3", "lat": 38.923081636291, "lon": 141.146087915, "category": "カフェ・喫茶", "category_id": "0100344", "time": [], "star": 4.6, "review": 3}, {"name": "サンエトワール 一ノ関駅店", "address": "岩手県一関市駅前67", "lat": 38.92639417077, "lon": 141.13762062918, "category": "カフェ・喫茶", "category_id": "0100344", "time": [], "star": 0.0, "review": 1}, {"name": "Kai 2nd", "address": "岩手県一関市大手町5-10", "lat": 38.929493197089, "lon": 141.13541980624, "category": "カフェ・喫茶", "category_id": "0100344", "time": ["14:00-21:00"], "star": 4.5, "review": 1}, {"name": "cafe ∞", "address": "岩手県一関市駅前40 1F", "lat": 38.926389637091, "lon": 141.1366965162, "category": "カフェ・喫茶", "category_id": "0100344", "time": ["09:00-14:00"], "star": 4.24, "review": 6}, {"name": "カフェ トワ トワ", "address": "岩手県一関市田村町1-25", "lat": 38.928055467089, "lon": 141.13269925622, "category": "カフェ・喫茶", "category_id": "0100344", "time": [], "star": 3.1, "review": 3}, {"name": "caffe ComeSta", "address": "岩手県一関市駅前67 JR一ノ関駅西口", "lat": 38.926151687092, "lon": 141.1374811962, "category": "カフェ・喫茶", "category_id": "0100344", "time": ["10:00-17:00"], "star": 3.66, "review": 15}, {"name": "カフェダイニング ドングリ", "address": "岩手県一関市字宇南1-5", "lat": 38.926837, "lon": 141.142241, "category": "カフェ・喫茶", "category_id": "0100344", "time": ["11:30-15:00"], "star": 4.06, "review": 13}, {"name": "モンテ", "address": "岩手県一関市字柳町2-5 一関駅東口交流センター 2F", "lat": 38.926420336287, "lon": 141.14021081504, "category": "カフェ・喫茶", "category_id": "0100344", "time": ["09:00-19:00"], "star": 3.73, "review": 13}, {"name": "カフェ ジャーナル", "address": "岩手県一関市大手町1-46 一関図書館 1F", "lat": 38.9277794, "lon": 141.1347634, "category": "カフェ・喫茶", "category_id": "0100344", "time": [], "star": 4.63, "review": 9}, {"name": "はっぴいえんど", "address": "岩手県一関市駅前67", "lat": 38.9258303, "lon": 141.1372357, "category": "カフェ・喫茶", "category_id": "0100344", "time": [], "star": 4.33, "review": 2}, {"name": "エイコン・カフェ", "address": "岩手県一関市大町6-52", "lat": 38.929688807089, "lon": 141.13671625624, "category": "カフェ・喫茶", "category_id": "0100344", "time": [], "star": 3.87, "review": 11}, {"name": "フレンド", "address": "岩手県一関市大町4-11", "lat": 38.92816358709, "lon": 141.13639524622, "category": "カフェ・喫茶", "category_id": "0100344", "time": ["10:00-19:00"], "star": 4.03, "review": 26}, {"name": "詩季彩 一ノ関駅店", "address": "岩手県一関市駅前67", "lat": 38.926759177092, "lon": 141.13915071621, "category": "カフェ・喫茶", "category_id": "0100344", "time": ["08:00-19:00"], "star": 3.88, "review": 30}, {"name": "Cafe Journal", "address": "岩手県一関市大手町1-46 一関図書館", "lat": 38.928108302405, "lon": 141.13408168554, "category": "カフェ・喫茶", "category_id": "0100344", "time": ["10:00-20:00"], "star": 4.25, "review": 3}, {"name": "ベイシー", "address": "岩手県一関市地主町7-17", "lat": 38.9325775, "lon": 141.13418097, "category": "カフェ・喫茶", "category_id": "0100344", "time": [], "star": 3.95, "review": 18}, {"name": "浮蓮渡", "address": "岩手県一関市上大槻街1-5", "lat": 38.92691628, "lon": 141.13731453, "category": "カフェ・喫茶", "category_id": "0100344", "time": [], "star": 4.0, "review": 2}, {"name": "自休自足", "address": "岩手県一関市樋渡25-6", "lat": 38.930621077092, "lon": 141.14779593624, "category": "カフェ・喫茶", "category_id": "0100344", "time": ["07:00-15:00"], "star": 4.19, "review": 32}, {"name": "RANTE", "address": "岩手県一関市南豊隆11", "lat": 38.930471729952, "lon": 141.14403279546, "category": "カフェ・喫茶", "category_id": "0100344", "time": ["10:00-16:00"], "star": 3.9, "review": 6}, {"name": "株式会社常州園", "address": "岩手県一関市大町6-1", "lat": 38.92961736, "lon": 141.13666671, "category": "カフェ・喫茶", "category_id": "0100344", "time": [], "star": 4.13, "review": 7}, {"name": "シャ・ノアール", "address": "岩手県一関市駅前40", "lat": 38.926346993622, "lon": 141.13674724326, "category": "飲食店", "category_id": "0102732", "time": [], "star": 0.0, "review": 0}], "ドラッグストア": [{"name": "薬王堂 一関三関店", "address": "岩手県一関市三関神田178-1", "lat": 38.9248862, "lon": 141.1441824, "category": "ドラッグストア", "category_id": "0200699", "time": ["08:00-22:00"], "star": 4.29, "review": 22}, {"name": "カワチ薬品 三関店", "address": "岩手県一関市三関神田118", "lat": 38.9231086, "lon": 141.1437741, "category": "ドラッグストア", "category_id": "0200699", "time": ["09:00-21:00"], "star": 3.96, "review": 20}, {"name": "クスリのアオキ 樋渡店", "address": "岩手県一関市樋渡52-1", "lat": 38.9309857, "lon": 141.1479652, "category": "ドラッグストア", "category_id": "0200699", "time": ["09:00-22:00"], "star": 4.32, "review": 37}, {"name": "一関駅前薬局", "address": "岩手県一関市駅前14-2", "lat": 38.92491646, "lon": 141.13628331, "category": "調剤薬局", "category_id": "0202315", "time": ["09:00-17:30"], "star": 0.0, "review": 0}, {"name": "株式会社大正堂薬局", "address": "岩手県一関市大町1-26", "lat": 38.92790447, "lon": 141.13628042, "category": "調剤薬局", "category_id": "0202315", "time": ["09:00-17:30"], "star": 0.0, "review": 0}, {"name": "アロエ薬局", "address": "岩手県一関市新大町44", "lat": 38.92449035, "lon": 141.13503926, "category": "調剤薬局", "category_id": "0202315", "time": [], "star": 0.0, "review": 0}, {"name": "大手町薬局", "address": "岩手県一関市大手町7-2", "lat": 38.93004087, "lon": 141.13522931, "category": "調剤薬局", "category_id": "0202315", "time": ["09:00-18:00"], "star": 0.0, "review": 0}, {"name": "かりん薬局", "address": "岩手県一関市字西沢37-3", "lat": 38.92169911, "lon": 141.13884016, "category": "調剤薬局", "category_id": "0202315", "time": [], "star": 0.0, "review": 1}, {"name": "株式会社みちのく調剤薬局", "address": "岩手県一関市大手町3-26", "lat": 38.93013554, "lon": 141.13415829, "category": "調剤薬局", "category_id": "0202315", "time": [], "star": 0.0, "review": 0}, {"name": "加賀調剤薬局", "address": "岩手県一関市田村町6-10", "lat": 38.93023965, "lon": 141.1325562, "category": "調剤薬局", "category_id": "0202315", "time": ["09:00-18:00"], "star": 0.0, "review": 1}, {"name": "自然薬佐久", "address": "岩手県一関市大町6-40", "lat": 38.93028259277344, "lon": 141.13699340820312, "category": "薬店", "category_id": "0202316", "time": [], "star": 0.0, "review": 0}, {"name": "株式会社ライフケア幸成堂", "address": "岩手県一関市大町4-23", "lat": 38.9287855, "lon": 141.13688866, "category": "薬店", "category_id": "0202316", "time": [], "star": 0.0, "review": 1}, {"name": "このはな薬局", "address": "岩手県一関市磐井町1", "lat": 38.93323723, "lon": 141.13622634, "category": "調剤薬局", "category_id": "0202315", "time": [], "star": 0.0, "review": 0}, {"name": "有限会社一関保険薬局三関薬局", "address": "岩手県一関市三関字仲田29-3", "lat": 38.92609479, "lon": 141.14795561, "category": "調剤薬局", "category_id": "0202315", "time": ["09:00-18:00"], "star": 0.0, "review": 0}, {"name": "フジノ薬店", "address": "岩手県一関市田村町1-34", "lat": 38.92806286, "lon": 141.13204251, "category": "薬店", "category_id": "0202316", "time": [], "star": 0.0, "review": 0}, {"name": "ミナミ薬局", "address": "岩手県一関市宮坂町8-10", "lat": 38.92027483, "lon": 141.13185401, "category": "調剤薬局", "category_id": "0202315", "time": [], "star": 0.0, "review": 0}], "ATM": [{"name": "岩手銀行 一関支店", "address": "岩手県一関市大町5-10", "lat": 38.9294549, "lon": 141.1371994, "category": "銀行", "category_id": "0402596", "time": ["09:00-15:00"], "star": 4.75, "review": 0}, {"name": "岩手銀行 ATM 一関支店", "address": "岩手県一関市大町5-10", "lat": 38.929478, "lon": 141.137232, "category": "ATM", "category_id": "0402785", "time": [], "star": 0.0, "review": 0}, {"name": "ゆうちょ銀行 一関郵便局", "address": "岩手県一関市大手町6-1", "lat": 38.9301554, "lon": 141.135781, "category": "銀行", "category_id": "0402596", "time": [], "star": 4.67, "review": 1}, {"name": "ゆうちょ銀行 一関駅前郵便局", "address": "岩手県一関市駅前31-2", "lat": 38.9256429, "lon": 141.136292, "category": "銀行", "category_id": "0402596", "time": [], "star": 4.0, "review": 2}, {"name": "北日本銀行 一関支店", "address": "岩手県一関市大町5-16", "lat": 38.9298493, "lon": 141.1372828, "category": "銀行", "category_id": "0402596", "time": ["09:00-15:00"], "star": 0.0, "review": 0}, {"name": "ゆうちょ銀行 一関田村町郵便局", "address": "岩手県一関市田村町2-1", "lat": 38.9281506, "lon": 141.131968, "category": "銀行", "category_id": "0402596", "time": [], "star": 4.5, "review": 1}, {"name": "北日本銀行 ATM 一関支店", "address": "岩手県一関市大町5-16", "lat": 38.9298537, "lon": 141.137237, "category": "ATM", "category_id": "0402785", "time": [], "star": 0.0, "review": 0}, {"name": "ゆうちょ銀行 ATM 一関郵便局", "address": "岩手県一関市大手町6-1", "lat": 38.9301554, "lon": 141.135781, "category": "ATM", "category_id": "0402785", "time": [], "star": 0.0, "review": 0}, {"name": "ビューアルッテ JR一ノ関駅正面口", "address": "岩手県一関市駅通67", "lat": 38.9262831, "lon": 141.137586, "category": "ATM", "category_id": "0402785", "time": [], "star": 0.0, "review": 0}, {"name": "岩手銀行 三関支店", "address": "岩手県一関市大町5-10", "lat": 38.92950170542897, "lon": 141.13715540558331, "category": "銀行", "category_id": "0402596", "time": ["09:00-15:00"], "star": 0.0, "review": 0}, {"name": "ゆうちょ銀行 ATM 一関駅前郵便局", "address": "岩手県一関市駅前31-2", "lat": 38.9256429, "lon": 141.136292, "category": "ATM", "category_id": "0402785", "time": [], "star": 0.0, "review": 0}, {"name": "北日本銀行 ATM ジョイス三関店", "address": "岩手県一関市三関神田91-1", "lat": 38.9249285, "lon": 141.145724, "category": "ATM", "category_id": "0402785", "time": [], "star": 0.0, "review": 0}, {"name": "ゆうちょ銀行 ATM ファミリーマート岩手一関相去店内出張所", "address": "岩手県一関市字相去63-1", "lat": 38.9230397, "lon": 141.141144, "category": "ATM", "category_id": "0402785", "time": [], "star": 0.0, "review": 0}, {"name": "ゆうちょ銀行 一関台町郵便局", "address": "岩手県一関市宮坂町8-9", "lat": 38.9203083, "lon": 141.131993, "category": "銀行", "category_id": "0402596", "time": [], "star": 4.0, "review": 1}, {"name": "一関信用金庫 地主町支店", "address": "岩手県一関市新大町5", "lat": 38.9262191, "lon": 141.1358858, "category": "信用金庫", "category_id": "0401098", "time": ["09:00-15:00"], "star": 0.0, "review": 0}, {"name": "ゆうちょ銀行 ATM 一関田村町郵便局", "address": "岩手県一関市田村町2-1", "lat": 38.9281506, "lon": 141.131968, "category": "ATM", "category_id": "0402785", "time": [], "star": 0.0, "review": 0}, {"name": "一関信用金庫 三関支店", "address": "岩手県一関市三関神田168-1", "lat": 38.9256667, "lon": 141.1460322, "category": "信用金庫", "category_id": "0401098", "time": ["09:00-15:00"], "star": 4.5, "review": 0}, {"name": "一関信用金庫 駅前支店", "address": "岩手県一関市新大町5", "lat": 38.926208, "lon": 141.1358858, "category": "信用金庫", "category_id": "0401098", "time": ["09:00-15:00"], "star": 0.0, "review": 0}, {"name": "ローソン銀行 一関大町共同出張所", "address": "岩手県一関市大町1-6", "lat": 38.9269423, "lon": 141.135804, "category": "ATM", "category_id": "0402785", "time": ["00:00-24:00"], "star": 0.0, "review": 0}, {"name": "ゆうちょ銀行 岩手関が丘簡易郵便局", "address": "岩手県一関市関が丘28-2", "lat": 38.9191595, "lon": 141.144105, "category": "銀行", "category_id": "0402596", "time": [], "star": 4.0, "review": 1}], "スーパーマーケット": [{"name": "ジョイス 三関店", "address": "岩手県一関市三関神田91-1", "lat": 38.9244252, "lon": 141.1459767, "category": "スーパー", "category_id": "0200612", "time": ["09:00-22:00"], "star": 4.06, "review": 22}, {"name": "カンブン 五十人町店", "address": "岩手県一関市北豊隆35-5", "lat": 38.9318937, "lon": 141.1434183, "category": "スーパー", "category_id": "0200612", "time": ["10:00-21:00"], "star": 3.57, "review": 15}, {"name": "新鮮館 おおまち", "address": "岩手県一関市大町4-29", "lat": 38.92911564709, "lon": 141.13692308623, "category": "食料品店", "category_id": "0200122", "time": ["09:00-18:00"], "star": 4.14, "review": 14}, {"name": "薬王堂 一関三関店", "address": "岩手県一関市三関神田178-1", "lat": 38.9248862, "lon": 141.1441824, "category": "ドラッグストア", "category_id": "0200699", "time": ["08:00-22:00"], "star": 4.29, "review": 22}, {"name": "ダイソー 岩手三関店", "address": "岩手県一関市三関字神田１６０-１ ", "lat": 38.92452236, "lon": 141.14520451, "category": "100円ショップ", "category_id": "0200001", "time": ["10:00-20:00"], "star": 4.18, "review": 5}, {"name": "クスリのアオキ 樋渡店", "address": "岩手県一関市樋渡52-1", "lat": 38.9309857, "lon": 141.1479652, "category": "ドラッグストア", "category_id": "0200699", "time": ["09:00-22:00"], "star": 4.32, "review": 37}]}, "top_restaurant": {"name": "夢きらら", "category": "飲食店", "star": 4.92, "review": 1}}, {"name": "万石浦", "name_en": "Mangoku-Ura", "lat": 38.4290947, "lon": 141.3690561, "osm_id": 264404868, "operator": "", "railway": "station", "wikidata": "Q6749091", "wikipedia_tag": "ja:万石浦駅", "lines": ["JR石巻線"], "pref": "宮城県", "wikipedia_text": "万石浦駅（まんごくうらえき）は、宮城県石巻市流留（ながる）字垂水（たれみず）にある、東日本旅客鉄道（JR東日本）石巻線の駅である。", "wikipedia_image": "https://upload.wikimedia.org/wikipedia/commons/e/eb/JR_East_Mangokuura_Station_Appearance%2C_Miyagi_Pref.jpg", "nearest_convenience": {"name": "ファミリーマート", "lat": 38.4274029, "lon": 141.3730359, "address": "", "distance_m": 394, "brand": "ファミリーマート"}, "nearest_restaurant": {"name": "食事処あむ", "lat": 38.4275719, "lon": 141.3721115, "address": "", "distance_m": 315, "cuisine": ""}, "nearby_pois": {"コンビニ": [{"name": "ファミリーマート 石巻流留店", "address": "宮城県石巻市流留字一番囲61-1", "lat": 38.4272412, "lon": 141.372302, "category": "コンビニ", "category_id": "0200487", "time": ["00:00-24:00"], "star": 4.95, "review": 6}, {"name": "ローソン 石巻流留", "address": "宮城県石巻市流留字内田81-3", "lat": 38.4285355, "lon": 141.3737101, "category": "コンビニ", "category_id": "0200487", "time": ["00:00-24:00"], "star": 3.4, "review": 14}, {"name": "ミニストップ 石巻渡波店", "address": "宮城県石巻市新成1-21-15", "lat": 38.4246411, "lon": 141.3625835, "category": "コンビニ", "category_id": "0200487", "time": [], "star": 3.86, "review": 2}, {"name": "ローソン 石巻さくら町", "address": "宮城県石巻市さくら町5-7-5", "lat": 38.4229774, "lon": 141.3610948, "category": "コンビニ", "category_id": "0200487", "time": ["00:00-24:00"], "star": 3.53, "review": 19}], "ラーメン": [{"name": "らーめんハウス王水 流留店", "address": "宮城県石巻市流留一番囲61-1", "lat": 38.42679484, "lon": 141.37224892, "category": "ラーメン店", "category_id": "0100097", "time": ["11:00-20:00"], "star": 3.79, "review": 21}, {"name": "麺屋壱番", "address": "宮城県石巻市後生橋41-2", "lat": 38.42239244, "lon": 141.36808168, "category": "ラーメン店", "category_id": "0100097", "time": ["11:00-14:00"], "star": 3.32, "review": 10}, {"name": "味よし", "address": "宮城県石巻市塩富町2-4-19", "lat": 38.42363543, "lon": 141.3703542, "category": "ラーメン店", "category_id": "0100097", "time": ["11:30-19:00"], "star": 3.25, "review": 3}, {"name": "よっちゃん", "address": "宮城県石巻市後生橋1-3", "lat": 38.4205277, "lon": 141.36663399, "category": "ラーメン店", "category_id": "0100097", "time": [], "star": 4.17, "review": 6}, {"name": "食事処 あむ", "address": "宮城県石巻市垂水町3-2-9", "lat": 38.42760945, "lon": 141.3720528, "category": "定食屋", "category_id": "0101441", "time": [], "star": 3.5, "review": 7}], "飲食店": [{"name": "味彩 絆 本店", "address": "宮城県石巻市新成1-21-6", "lat": 38.424200164143, "lon": 141.36235362026, "category": "居酒屋", "category_id": "0101495", "time": [], "star": 4.75, "review": 1}, {"name": "魚しん", "address": "宮城県石巻市流留五性橋9-2", "lat": 38.425064377484, "lon": 141.37010143098, "category": "レストラン", "category_id": "0100111", "time": [], "star": 3.6, "review": 2}, {"name": "食事処 あむ", "address": "宮城県石巻市垂水町3-2-9", "lat": 38.42760945, "lon": 141.3720528, "category": "定食屋", "category_id": "0101441", "time": [], "star": 3.5, "review": 7}, {"name": "居酒屋 ゆう由", "address": "宮城県石巻市流留字五性橋9-2", "lat": 38.42504969, "lon": 141.3699878, "category": "居酒屋", "category_id": "0101495", "time": [], "star": 3.83, "review": 3}, {"name": "千馬", "address": "宮城県石巻市新成3丁目9-5", "lat": 38.42662811279297, "lon": 141.36474609375, "category": "飲食店", "category_id": "0102732", "time": [], "star": 0.0, "review": 0}, {"name": "寿司正", "address": "宮城県石巻市流留字五性橋1-28", "lat": 38.42374868, "lon": 141.36872935, "category": "寿司店", "category_id": "0100101", "time": ["11:30-14:00", "17:00-20:30"], "star": 4.08, "review": 14}, {"name": "らーめんハウス王水 流留店", "address": "宮城県石巻市流留一番囲61-1", "lat": 38.42679484, "lon": 141.37224892, "category": "ラーメン店", "category_id": "0100097", "time": ["11:00-20:00"], "star": 3.79, "review": 21}, {"name": "飲み処金ちゃん", "address": "宮城県石巻市渡波字旭ケ浦176", "lat": 38.42388286, "lon": 141.36263047, "category": "飲食店", "category_id": "0102732", "time": [], "star": 3.13, "review": 1}, {"name": "六花", "address": "宮城県石巻市塩富町2丁目5-5", "lat": 38.42353653, "lon": 141.37202173, "category": "カフェ・喫茶", "category_id": "0100344", "time": [], "star": 0.0, "review": 0}, {"name": "丼丸 『丼丸 お持ち帰り処丼助』渡波新成店", "address": "宮城県石巻市新成2-4-12", "lat": 38.42447309, "lon": 141.36338621, "category": "海鮮丼店", "category_id": "0101882", "time": ["11:00-14:30", "16:00-19:30"], "star": 3.91, "review": 14}, {"name": "味よし", "address": "宮城県石巻市塩富町2-4-19", "lat": 38.42363543, "lon": 141.3703542, "category": "ラーメン店", "category_id": "0100097", "time": ["11:30-19:00"], "star": 3.25, "review": 3}, {"name": "麺屋壱番", "address": "宮城県石巻市後生橋41-2", "lat": 38.42239244, "lon": 141.36808168, "category": "ラーメン店", "category_id": "0100097", "time": ["11:00-14:00"], "star": 3.32, "review": 10}, {"name": "はなよし", "address": "宮城県石巻市渡波旭ケ浦133-7", "lat": 38.42178822, "lon": 141.36487755, "category": "和食店", "category_id": "0100126", "time": [], "star": 0.0, "review": 2}, {"name": "末永海産株式会社", "address": "宮城県石巻市渡波字新釜1-36", "lat": 38.42268426, "lon": 141.37287678, "category": "郷土料理店", "category_id": "0100075", "time": ["09:00-16:00"], "star": 3.73, "review": 3}, {"name": "海山", "address": "宮城県石巻市渡波字念仏壇70-8", "lat": 38.42120495, "lon": 141.36469869, "category": "レストラン", "category_id": "0100111", "time": [], "star": 0.0, "review": 0}, {"name": "まるよし", "address": "宮城県石巻市塩富町2丁目5-2", "lat": 38.4230172, "lon": 141.3711865, "category": "定食屋", "category_id": "0101441", "time": [], "star": 0.0, "review": 0}, {"name": "よっちゃん", "address": "宮城県石巻市後生橋1-3", "lat": 38.4205277, "lon": 141.36663399, "category": "ラーメン店", "category_id": "0100097", "time": [], "star": 4.17, "review": 6}, {"name": "ジラソーレ", "address": "宮城県石巻市流留七勺1-1", "lat": 38.4258686, "lon": 141.3737411, "category": "パスタ料理店", "category_id": "0100575", "time": [], "star": 0.0, "review": 0}, {"name": "錨章会館食堂", "address": "宮城県石巻市宇田川町1-24", "lat": 38.42056381, "lon": 141.36966732, "category": "定食屋", "category_id": "0101441", "time": [], "star": 0.0, "review": 0}, {"name": "居酒屋弁慶", "address": "宮城県石巻市渡波字鳥ノ巣1-11", "lat": 38.4240987, "lon": 141.37744436, "category": "居酒屋", "category_id": "0101495", "time": [], "star": 0.0, "review": 0}], "カフェ": [{"name": "六花", "address": "宮城県石巻市塩富町2丁目5-5", "lat": 38.42353653, "lon": 141.37202173, "category": "カフェ・喫茶", "category_id": "0100344", "time": [], "star": 0.0, "review": 0}], "ドラッグストア": [{"name": "薬王堂 石巻渡波店", "address": "宮城県石巻市後生橋1-5", "lat": 38.4206973, "lon": 141.3663611, "category": "ドラッグストア", "category_id": "0200699", "time": ["08:00-21:45"], "star": 3.4, "review": 21}, {"name": "有限会社万石調剤薬局", "address": "宮城県石巻市垂水町3丁目3-18", "lat": 38.42798908, "lon": 141.37090512, "category": "調剤薬局", "category_id": "0202315", "time": ["08:30-17:00"], "star": 0.0, "review": 0}, {"name": "みやぎ生協 石巻渡波店", "address": "宮城県石巻市後生橋1-3", "lat": 38.4212084, "lon": 141.3669527, "category": "スーパー", "category_id": "0200612", "time": ["09:30-21:00"], "star": 3.65, "review": 13}], "ATM": [{"name": "イオン銀行 ATM イオンスーパーセンター石巻東店出張所(ATMコーナー)", "address": "宮城県石巻市流留七勺1-1", "lat": 38.4283637, "lon": 141.376079, "category": "ATM", "category_id": "0402785", "time": ["09:00-21:00"], "star": 0.0, "review": 0}, {"name": "銀行ATM イーネット ファミリーマート石巻流留 共同出張所", "address": "宮城県石巻市流留字一番囲61-1 ", "lat": 38.42723007, "lon": 141.37228251, "category": "ATM", "category_id": "0402785", "time": ["00:00-24:00"], "star": 0.0, "review": 0}, {"name": "七十七銀行 ATM イオンスーパーセンター石巻東店", "address": "宮城県石巻市流留七勺1-1 イオンスーパーセンター石巻東 1F", "lat": 38.4285167, "lon": 141.375978, "category": "ATM", "category_id": "0402785", "time": [], "star": 0.0, "review": 0}, {"name": "みずほ銀行 ATM イオンスーパーセンター石巻東店出張所", "address": "宮城県石巻市流留七勺1-1", "lat": 38.4283525, "lon": 141.376102, "category": "ATM", "category_id": "0402785", "time": [], "star": 0.0, "review": 0}, {"name": "七十七銀行 ATM CO・OP石巻渡波店", "address": "宮城県石巻市後生橋1-3 CO・OP石巻渡波店", "lat": 38.4210064, "lon": 141.367154, "category": "ATM", "category_id": "0402785", "time": [], "star": 0.0, "review": 0}, {"name": "ローソン銀行 石巻流留共同出張所", "address": "宮城県石巻市流留字内田81-3", "lat": 38.4285336, "lon": 141.373778, "category": "ATM", "category_id": "0402785", "time": ["00:00-24:00"], "star": 0.0, "review": 0}, {"name": "イオン銀行 ATM ミニストップ石巻渡波店出張所(店内)", "address": "宮城県石巻市新成1-21-15", "lat": 38.4246142, "lon": 141.362597, "category": "ATM", "category_id": "0402785", "time": ["00:00-24:00"], "star": 0.0, "review": 0}, {"name": "みずほ銀行 ATM ミニストップ石巻渡波店出張所", "address": "宮城県石巻市新成1-21-15", "lat": 38.424603, "lon": 141.36262, "category": "ATM", "category_id": "0402785", "time": [], "star": 0.0, "review": 0}, {"name": "宝くじ ATM 七十七銀行イオンスーパーセンター石巻東店出張所", "address": "宮城県石巻市流留七勺1-1", "lat": 38.4285167, "lon": 141.375978, "category": "宝くじ売り場", "category_id": "0401442", "time": ["08:00-22:00"], "star": 0.0, "review": 0}, {"name": "ローソン銀行 石巻さくら町共同出張所", "address": "宮城県石巻市さくら町5-7-5", "lat": 38.4229592, "lon": 141.361076, "category": "ATM", "category_id": "0402785", "time": ["00:00-24:00"], "star": 0.0, "review": 0}, {"name": "みやぎ生協 石巻渡波店", "address": "宮城県石巻市後生橋1-3", "lat": 38.4212084, "lon": 141.3669527, "category": "スーパー", "category_id": "0200612", "time": ["09:30-21:00"], "star": 3.65, "review": 13}], "スーパーマーケット": [{"name": "イオン スーパーセンター石巻東店", "address": "宮城県石巻市流留七勺1-1", "lat": 38.4281967, "lon": 141.3759655, "category": "スーパー", "category_id": "0200612", "time": ["08:00-22:00"], "star": 3.84, "review": 86}, {"name": "みやぎ生協 石巻渡波店", "address": "宮城県石巻市後生橋1-3", "lat": 38.4212084, "lon": 141.3669527, "category": "スーパー", "category_id": "0200612", "time": ["09:30-21:00"], "star": 3.65, "review": 13}]}, "top_restaurant": {"name": "味彩 絆 本店", "category": "居酒屋", "star": 4.75, "review": 1}}, {"name": "上涌谷", "name_en": "Kami-Wakuya", "lat": 38.5492627, "lon": 141.0993993, "osm_id": 264405825, "operator": "", "railway": "station", "wikidata": "Q8192019", "wikipedia_tag": "ja:上涌谷駅", "lines": ["JR石巻線"], "pref": "宮城県", "wikipedia_text": "上涌谷駅（かみわくやえき）は、宮城県遠田郡涌谷町掃部字沖名（かもんおきな）にある、東日本旅客鉄道（JR東日本）石巻線の駅である。\n前谷地駅から乗り入れる気仙沼線の列車も停車する。", "wikipedia_image": "https://upload.wikimedia.org/wikipedia/commons/d/d6/JR_East_Kami-Wakuya_Station_Overall%2C_Miyagi_Pref.jpg", "nearest_convenience": {"name": "セブン-イレブン", "lat": 38.5506792, "lon": 141.0947796, "address": "宮城県涌谷町赤間屋敷1711", "distance_m": 432, "brand": "7-ELEVEN"}, "nearest_restaurant": {"name": "ドライブイン一力", "lat": 38.5499739, "lon": 141.097475, "address": "", "distance_m": 185, "cuisine": ""}, "nearby_pois": {"コンビニ": [{"name": "セブンイレブン 涌谷赤間屋敷", "address": "宮城県遠田郡涌谷町赤間屋敷171-1", "lat": 38.5507463, "lon": 141.0947896, "category": "コンビニ", "category_id": "0200487", "time": ["00:00-24:00"], "star": 4.31, "review": 5}], "ラーメン": [{"name": "上涌谷ドライブイン", "address": "宮城県遠田郡涌谷町今左エ門沖名20", "lat": 38.55182757, "lon": 141.09310214, "category": "ドライブイン", "category_id": "0300698", "time": ["11:00-19:30"], "star": 3.32, "review": 13}], "飲食店": [{"name": "食事処 ドライブイン一力", "address": "宮城県遠田郡涌谷町字赤間屋敷279-2", "lat": 38.54998762, "lon": 141.09748821, "category": "定食屋", "category_id": "0101441", "time": ["11:00-14:30"], "star": 3.56, "review": 14}, {"name": "お食事処 上涌谷", "address": "宮城県遠田郡涌谷町今左エ門沖名20", "lat": 38.55181841, "lon": 141.09308687, "category": "飲食店", "category_id": "0102732", "time": ["11:00-19:30"], "star": 0.0, "review": 0}, {"name": "インドカレーSANTA涌谷店", "address": "宮城県遠田郡涌谷町一本柳108-1 ", "lat": 38.54825247, "lon": 141.1048887, "category": "インド料理店", "category_id": "0100282", "time": ["11:00-15:00", "17:00-22:00"], "star": 4.27, "review": 20}], "ATM": [{"name": "セブン銀行 涌谷赤間屋敷店", "address": "宮城県遠田郡涌谷町赤間屋敷171-1", "lat": 38.5506737, "lon": 141.094843, "category": "ATM", "category_id": "0402785", "time": ["00:00-24:00"], "star": 0.0, "review": 0}]}, "top_restaurant": {"name": "インドカレーSANTA涌谷店", "category": "インド料理店", "star": 4.27, "review": 20}}, {"name": "上野目", "name_en": "Kaminome", "lat": 38.6803172, "lon": 140.8593878, "osm_id": 264400764, "operator": "", "railway": "station", "wikidata": "Q642242", "wikipedia_tag": "ja:上野目駅", "lines": ["JR陸羽東線"], "pref": "宮城県", "wikipedia_text": "上野目駅（かみのめえき）は、宮城県大崎市岩出山下一栗（しもいちくり）字熊野堂にある、東日本旅客鉄道（JR東日本）陸羽東線の駅である。", "wikipedia_image": "https://upload.wikimedia.org/wikipedia/commons/b/b1/JR_East_Kaminome_Station_Overall%2C_Miyagi_Pref.jpg", "nearest_convenience": {"name": "ローソン", "lat": 38.6501398, "lon": 140.8775201, "address": "宮城県大崎市岩出山東川原町7-1", "distance_m": 3707, "brand": "ローソン"}, "nearest_restaurant": {"name": "カフェ・パーシモン", "lat": 38.6584841, "lon": 140.8628735, "address": "", "distance_m": 2447, "cuisine": ""}, "nearby_pois": {}}, {"name": "上鹿折", "name_en": "Kami-Shishiori", "lat": 38.9602586, "lon": 141.5668496, "osm_id": 8663670921, "operator": "", "railway": "station", "wikidata": "Q6357193", "wikipedia_tag": "ja:上鹿折駅", "lines": [], "pref": "宮城県", "nearby_bus_stops": [{"name": "上鹿折", "lat": 38.9602565, "lon": 141.5668173, "distance_m": 3, "operator": "ミヤコーバス"}], "wikipedia_text": "上鹿折駅（かみししおりえき）は、宮城県気仙沼市字上東側根にあった、東日本旅客鉄道（JR東日本）大船渡線の鉄道駅（廃駅）である。\n東日本大震災により休止駅となり、その後大船渡線の気仙沼 - 盛間の廃止に伴い廃駅となった。休止後に開業した大船渡線BRTにおいては、JR東日本の停留所施設は設置されなかった。", "wikipedia_image": "https://upload.wikimedia.org/wikipedia/commons/0/04/JR_Kamishishiori_sta_001.jpg", "nearest_convenience": {"name": "ローソン", "lat": 38.921189, "lon": 141.5848805, "address": "宮城県気仙沼市東八幡前６９‐２", "distance_m": 4616, "brand": "LAWSON"}, "nearest_restaurant": {"name": "カントリーロード", "lat": 38.9225262, "lon": 141.5922498, "address": "", "distance_m": 4736, "cuisine": ""}, "nearby_pois": {}}, {"name": "下馬", "name_en": "Geba", "lat": 38.3056276, "lon": 141.0151519, "osm_id": 3791321432, "operator": "", "railway": "station", "wikidata": "Q5529542", "wikipedia_tag": "ja:下馬駅", "lines": [], "pref": "宮城県", "nearby_bus_stops": [{"name": "桜ヶ丘", "lat": 38.3092076, "lon": 141.0163491, "distance_m": 412, "operator": ""}, {"name": "市立病院入口", "lat": 38.3100073, "lon": 141.014238, "distance_m": 493, "operator": ""}], "wikipedia_text": "下馬駅（げばえき）は、宮城県多賀城市下馬2丁目にある、東日本旅客鉄道（JR東日本）仙石線の駅である。\nホームの中間地点に多賀城市と塩竈市の境界線が通っている。駅事務所は多賀城市側にある。", "wikipedia_image": "https://upload.wikimedia.org/wikipedia/commons/9/93/Geba-stn.JPG", "nearest_convenience": {"name": "セブン-イレブン", "lat": 38.3045337, "lon": 141.0120055, "address": "宮城県塩竈市南錦町88", "distance_m": 300, "brand": "セブン-イレブン"}, "nearest_restaurant": {"name": "麗苑", "lat": 38.3056828, "lon": 141.0158426, "address": "", "distance_m": 61, "cuisine": ""}, "nearby_pois": {"コンビニ": [{"name": "ヤマザキYショップ 坂総合病院店", "address": "宮城県塩竈市錦町16-5 坂総合病院 1F", "lat": 38.306506736641, "lon": 141.01553370886, "category": "コンビニ", "category_id": "0200487", "time": ["08:00-18:00"], "star": 4.2, "review": 2}, {"name": "セブンイレブン 塩釜南錦町", "address": "宮城県塩釜市南錦町8-8", "lat": 38.3045236, "lon": 141.0120011, "category": "コンビニ", "category_id": "0200487", "time": ["00:00-24:00"], "star": 4.04, "review": 11}, {"name": "つばさくらぶ", "address": "宮城県多賀城市下馬2-8-21", "lat": 38.3056514, "lon": 141.0156395, "category": "コンビニ", "category_id": "0200487", "time": ["09:00-14:00"], "star": 2.16, "review": 0}, {"name": "ローソン 塩釜桜ケ丘", "address": "宮城県塩竈市桜ケ丘1-8", "lat": 38.3094621, "lon": 141.0168169, "category": "コンビニ", "category_id": "0200487", "time": ["00:00-24:00"], "star": 4.07, "review": 20}, {"name": "セブンイレブン 塩釜駅前通", "address": "宮城県塩竈市東玉川町1-16", "lat": 38.3090284, "lon": 141.010651, "category": "コンビニ", "category_id": "0200487", "time": ["00:00-24:00"], "star": 4.03, "review": 15}, {"name": "セブンイレブン 多賀城下馬", "address": "宮城県多賀城市下馬5-7-5", "lat": 38.3007133, "lon": 141.0160092, "category": "コンビニ", "category_id": "0200487", "time": ["00:00-24:00"], "star": 4.42, "review": 10}, {"name": "NewDays 塩釜", "address": "宮城県塩竈市東玉川5-1", "lat": 38.3096199, "lon": 141.0098677, "category": "コンビニ", "category_id": "0200487", "time": ["07:00-21:30"], "star": 3.77, "review": 4}, {"name": "ファミリーマート 多賀城笠神店", "address": "宮城県多賀城市笠神2-10-21", "lat": 38.3035744, "lon": 141.0244581, "category": "コンビニ", "category_id": "0200487", "time": ["00:00-24:00"], "star": 4.42, "review": 10}, {"name": "ローソン 塩釜玉川一丁目", "address": "宮城県塩竈市玉川1-2-27", "lat": 38.3085256, "lon": 141.0070736, "category": "コンビニ", "category_id": "0200487", "time": ["00:00-24:00"], "star": 4.18, "review": 16}, {"name": "ファミリーマート 多賀城留ヶ谷店", "address": "宮城県多賀城市留ヶ谷3-5-3", "lat": 38.3014934, "lon": 141.0074629, "category": "コンビニ", "category_id": "0200487", "time": ["00:00-24:00"], "star": 3.75, "review": 9}, {"name": "ミラックマツヤ", "address": "宮城県多賀城市丸山1-5-30", "lat": 38.2999219, "lon": 141.0185229, "category": "スーパー", "category_id": "0200612", "time": ["09:00-19:00"], "star": 3.44, "review": 86}, {"name": "ささはら", "address": "宮城県多賀城市伝上山2-28-1", "lat": 38.30204282, "lon": 141.01003424, "category": "食料品店", "category_id": "0200122", "time": ["08:00-19:00"], "star": 3.93, "review": 1}], "ラーメン": [{"name": "自家製中華そばつむぎ", "address": "宮城県多賀城市下馬1-4-20", "lat": 38.3046571, "lon": 141.01475911, "category": "ラーメン店", "category_id": "0100097", "time": ["11:00-14:30"], "star": 3.03, "review": 3}, {"name": "中華そば 蒼穹", "address": "宮城県塩竈市錦町15-7", "lat": 38.30673687, "lon": 141.01606743, "category": "ラーメン店", "category_id": "0100097", "time": ["11:30-14:30"], "star": 3.97, "review": 37}, {"name": "ニラなんばんらーめん 香麺", "address": "宮城県塩竈市野田18-3", "lat": 38.30691004, "lon": 141.00909654, "category": "ラーメン店", "category_id": "0100097", "time": ["11:00-21:00"], "star": 4.18, "review": 54}, {"name": "長町ラーメン 多賀城店", "address": "宮城県多賀城市留ケ谷1-44-3", "lat": 38.302827097446, "lon": 141.00655302, "category": "ラーメン店", "category_id": "0100097", "time": ["11:30-15:00", "17:30-21:00"], "star": 3.61, "review": 13}, {"name": "らーめん骨研究所 多賀城店", "address": "宮城県多賀城市下馬5丁目3-2 MGタウン 101", "lat": 38.3021964, "lon": 141.0162119, "category": "ラーメン店", "category_id": "0100097", "time": [], "star": 3.67, "review": 3}, {"name": "支那そば 高橋商店", "address": "宮城県多賀城市下馬1丁目4-20", "lat": 38.3046571, "lon": 141.01475911, "category": "飲食店", "category_id": "0102732", "time": ["11:00-15:00"], "star": 4.19, "review": 11}, {"name": "歓龍食堂", "address": "宮城県多賀城市下馬4丁目16-18", "lat": 38.3017407, "lon": 141.0172909, "category": "ラーメン店", "category_id": "0100097", "time": [], "star": 0.0, "review": 0}, {"name": "さくら井そば屋", "address": "宮城県塩竈市佐浦町2-5", "lat": 38.31155576, "lon": 141.01777412, "category": "蕎麦店", "category_id": "0100034", "time": [], "star": 3.54, "review": 9}], "飲食店": [{"name": "ホルモンゆうちゃん", "address": "宮城県多賀城市下馬2-5-18 やなぎビル 1F", "lat": 38.304614657448, "lon": 141.01550220001, "category": "ホルモン焼肉店", "category_id": "0100859", "time": ["17:00-24:00"], "star": 4.69, "review": 12}, {"name": "大衆酒場あそびや", "address": "宮城県多賀城市下馬2-1-14", "lat": 38.303043497449, "lon": 141.01660389999, "category": "居酒屋", "category_id": "0101495", "time": ["11:30-14:00", "18:00-23:00"], "star": 3.5, "review": 2}, {"name": "Bookcafe SAFARI", "address": "宮城県多賀城市伝上山4-6-26", "lat": 38.303017887448, "lon": 141.01217235999, "category": "カレー店", "category_id": "0100359", "time": [], "star": 3.6, "review": 1}, {"name": "おとうふかまぼこの直江商店 ヨークベニマル塩釜店", "address": "宮城県塩竈市野田14-34 ヨークベニマル塩釜店 1F", "lat": 38.307006937444, "lon": 141.01015401004, "category": "郷土料理店", "category_id": "0100075", "time": ["09:30-20:00"], "star": 3.56, "review": 3}, {"name": "支那そば 高橋商店", "address": "宮城県多賀城市下馬1丁目4-20", "lat": 38.3046571, "lon": 141.01475911, "category": "飲食店", "category_id": "0102732", "time": ["11:00-15:00"], "star": 4.19, "review": 11}, {"name": "カフェタンタン", "address": "宮城県多賀城市下馬2丁目5-25", "lat": 38.30457275, "lon": 141.01619256, "category": "カフェ・喫茶", "category_id": "0100344", "time": [], "star": 4.88, "review": 3}, {"name": "フミキリCAFE", "address": "宮城県多賀城市下馬1-4-20", "lat": 38.304715537447, "lon": 141.01483471001, "category": "カフェ・喫茶", "category_id": "0100344", "time": ["10:00-18:00"], "star": 4.17, "review": 19}, {"name": "PLATHOME", "address": "宮城県塩竈市南錦町2-8", "lat": 38.306557467446, "lon": 141.01487380003, "category": "カフェ・喫茶", "category_id": "0100344", "time": ["11:00-17:00", "18:00-22:00"], "star": 3.9, "review": 9}, {"name": "竹の子", "address": "宮城県多賀城市下馬4-1-40", "lat": 38.303516717449, "lon": 141.01682231, "category": "和食店", "category_id": "0100126", "time": [], "star": 4.75, "review": 1}, {"name": "ごはん屋 はれ", "address": "宮城県塩竈市東玉川町9-18 マーケット･アパートメント塩釜", "lat": 38.31105114308, "lon": 141.01103761534, "category": "飲食店", "category_id": "0102732", "time": [], "star": 4.5, "review": 2}, {"name": "麗苑", "address": "宮城県多賀城市下馬2-8-4", "lat": 38.30570006, "lon": 141.01580892, "category": "カフェ・喫茶", "category_id": "0100344", "time": ["10:00-17:00"], "star": 3.45, "review": 4}, {"name": "廻鮮寿司塩釜港 本店", "address": "宮城県塩竈市野田18-1", "lat": 38.30699195, "lon": 141.0093278, "category": "回転寿司店", "category_id": "0101332", "time": ["10:00-20:30"], "star": 4.13, "review": 199}, {"name": "おそば すゞき", "address": "宮城県塩竈市佐浦町14-7", "lat": 38.31026633, "lon": 141.01555003, "category": "蕎麦店", "category_id": "0100034", "time": [], "star": 4.25, "review": 23}, {"name": "居酒屋ふじや", "address": "宮城県塩竈市東玉川町8-5", "lat": 38.309726547443, "lon": 141.01099410006, "category": "居酒屋", "category_id": "0101495", "time": ["17:00-23:00"], "star": 4.23, "review": 7}, {"name": "自家製中華そばつむぎ", "address": "宮城県多賀城市下馬1-4-20", "lat": 38.3046571, "lon": 141.01475911, "category": "ラーメン店", "category_id": "0100097", "time": ["11:00-14:30"], "star": 3.03, "review": 3}, {"name": "炭火焼鳥いたどり 下馬店", "address": "宮城県多賀城市下馬2-5-19", "lat": 38.30460438, "lon": 141.01566457, "category": "焼き鳥店", "category_id": "0101960", "time": [], "star": 4.83, "review": 3}, {"name": "ボーヴル", "address": "宮城県多賀城市下馬2-1-14", "lat": 38.302963737449, "lon": 141.01662657999, "category": "フランス料理店", "category_id": "0100264", "time": ["17:30-23:00"], "star": 4.68, "review": 25}, {"name": "駄菓子 BAR えびちゃん", "address": "宮城県多賀城市下馬2-5-18 やなぎビル3F", "lat": 38.304616, "lon": 141.015462, "category": "レストラン", "category_id": "0100111", "time": [], "star": 0.0, "review": 0}, {"name": "UE NIWA CAFE", "address": "宮城県多賀城市下馬5丁目3-2 MGタウン屋上", "lat": 38.30219650268555, "lon": 141.01620483398438, "category": "飲食店", "category_id": "0102732", "time": [], "star": 0.0, "review": 0}, {"name": "すし徳", "address": "宮城県塩竈市佐浦町3-16", "lat": 38.31019943, "lon": 141.01602164, "category": "寿司店", "category_id": "0100101", "time": ["11:00-14:00", "16:30-20:00"], "star": 4.27, "review": 19}], "カフェ": [{"name": "PLATHOME", "address": "宮城県塩竈市南錦町2-8", "lat": 38.306557467446, "lon": 141.01487380003, "category": "カフェ・喫茶", "category_id": "0100344", "time": ["11:00-17:00", "18:00-22:00"], "star": 3.9, "review": 9}, {"name": "フミキリCAFE", "address": "宮城県多賀城市下馬1-4-20", "lat": 38.304715537447, "lon": 141.01483471001, "category": "カフェ・喫茶", "category_id": "0100344", "time": ["10:00-18:00"], "star": 4.17, "review": 19}, {"name": "カフェタンタン", "address": "宮城県多賀城市下馬2丁目5-25", "lat": 38.30457275, "lon": 141.01619256, "category": "カフェ・喫茶", "category_id": "0100344", "time": [], "star": 4.88, "review": 3}, {"name": "麗苑", "address": "宮城県多賀城市下馬2-8-4", "lat": 38.30570006, "lon": 141.01580892, "category": "カフェ・喫茶", "category_id": "0100344", "time": ["10:00-17:00"], "star": 3.45, "review": 4}, {"name": "和歌珈琲", "address": "宮城県多賀城市留ヶ谷2-6-38", "lat": 38.30402381, "lon": 141.0065714, "category": "カフェ・喫茶", "category_id": "0100344", "time": ["11:00-18:00"], "star": 4.25, "review": 13}, {"name": "アトリエ ゴール", "address": "宮城県塩竈市東玉川町6-4", "lat": 38.309944027442, "lon": 141.00990288007, "category": "カフェ・喫茶", "category_id": "0100344", "time": [], "star": 3.46, "review": 9}, {"name": "ノン・ノン", "address": "宮城県多賀城市下馬2-1-2", "lat": 38.30276301, "lon": 141.01624935, "category": "カフェ・喫茶", "category_id": "0100344", "time": ["12:00-15:00", "17:00-22:00"], "star": 3.34, "review": 7}, {"name": "UE NIWA CAFE", "address": "宮城県多賀城市下馬5丁目3-2 MGタウン屋上", "lat": 38.30219650268555, "lon": 141.01620483398438, "category": "飲食店", "category_id": "0102732", "time": [], "star": 0.0, "review": 0}, {"name": "Ko-an", "address": "宮城県多賀城市伝上山3-1-25", "lat": 38.297909667451, "lon": 141.01347724994, "category": "ベーカリー", "category_id": "0100522", "time": ["09:00-18:30"], "star": 4.01, "review": 47}, {"name": "カラオケスタジオ", "address": "宮城県多賀城市下馬5丁目4-22", "lat": 38.302274, "lon": 141.016906, "category": "カフェ・喫茶", "category_id": "0100344", "time": [], "star": 0.0, "review": 0}, {"name": "couleur shiogama", "address": "宮城県塩竈市東玉川町6-4 1F", "lat": 38.309915137443, "lon": 141.00993441006, "category": "ケーキ店", "category_id": "0100460", "time": [], "star": 4.69, "review": 6}, {"name": "カフェNY2", "address": "宮城県多賀城市下馬2丁目5-23", "lat": 38.3049258, "lon": 141.0161572, "category": "", "category_id": "", "time": [], "star": 0.0, "review": 0}, {"name": "塩釜dining酒場 NICHE", "address": "宮城県塩竈市東玉川町8-6", "lat": 38.309673860982, "lon": 141.01090076806, "category": "ダイニングバー", "category_id": "0100645", "time": ["17:00-26:00"], "star": 4.17, "review": 3}, {"name": "お花とカフェたんぽぽ", "address": "宮城県塩竈市野田2-16", "lat": 38.30769961, "lon": 141.01318131, "category": "", "category_id": "", "time": [], "star": 0.0, "review": 0}, {"name": "カフェサロンエルフィン", "address": "宮城県多賀城市下馬2丁目12-13", "lat": 38.30660967, "lon": 141.01608716, "category": "カレー店", "category_id": "0100359", "time": [], "star": 0.0, "review": 0}, {"name": "OKONOMI さち", "address": "宮城県塩竈市佐浦町2-6", "lat": 38.31153714, "lon": 141.01766052, "category": "レストラン", "category_id": "0100111", "time": ["16:00-21:00"], "star": 3.78, "review": 3}, {"name": "米粉パン トゥット", "address": "宮城県多賀城市留ヶ谷1-44-3", "lat": 38.30281817, "lon": 141.00652038, "category": "ベーカリー", "category_id": "0100522", "time": ["09:00-16:00"], "star": 4.25, "review": 44}, {"name": "つつみ屋 レインボー", "address": "宮城県多賀城市鶴ケ谷1-10-3", "lat": 38.299105060524, "lon": 141.0148564817, "category": "和菓子店", "category_id": "0101310", "time": ["10:00-17:00"], "star": 3.5, "review": 1}, {"name": "ベーカリー&カフェこう・あん", "address": "宮城県多賀城市伝上山3丁目1-25", "lat": 38.29789082, "lon": 141.01344331, "category": "", "category_id": "", "time": [], "star": 0.0, "review": 0}], "ドラッグストア": [{"name": "つばさ薬局", "address": "宮城県多賀城市下馬2丁目13-15", "lat": 38.3059014, "lon": 141.01530618, "category": "調剤薬局", "category_id": "0202315", "time": ["08:30-19:00"], "star": 4.83, "review": 1}, {"name": "とよしま薬局", "address": "宮城県塩竈市錦町14-8", "lat": 38.30707017, "lon": 141.01628044, "category": "調剤薬局", "category_id": "0202315", "time": ["09:00-17:30"], "star": 0.0, "review": 0}, {"name": "株式会社三浦薬局", "address": "宮城県多賀城市下馬2丁目7-1", "lat": 38.30473245, "lon": 141.01625782, "category": "調剤薬局", "category_id": "0202315", "time": ["09:00-18:00"], "star": 0.0, "review": 0}, {"name": "アート調剤薬局", "address": "宮城県塩竈市東玉川町2-13", "lat": 38.30859515, "lon": 141.01076097, "category": "調剤薬局", "category_id": "0202315", "time": ["09:00-13:00"], "star": 0.0, "review": 1}, {"name": "きらら薬局", "address": "宮城県塩竈市南錦町8-9", "lat": 38.30478555, "lon": 141.01202801, "category": "調剤薬局", "category_id": "0202315", "time": ["08:00-18:00"], "star": 0.0, "review": 0}, {"name": "リフレ薬局塩釜店", "address": "宮城県塩竈市白萩町9-2", "lat": 38.31130319, "lon": 141.01264419, "category": "調剤薬局", "category_id": "0202315", "time": [], "star": 0.0, "review": 1}, {"name": "つばさ薬局玉川店", "address": "宮城県塩竈市玉川1丁目5-16", "lat": 38.30749549, "lon": 141.00745471, "category": "調剤薬局", "category_id": "0202315", "time": ["09:00-18:00"], "star": 0.0, "review": 1}, {"name": "わかば薬局", "address": "宮城県塩竈市花立町22-53", "lat": 38.30700429, "lon": 141.01783485, "category": "調剤薬局", "category_id": "0202315", "time": [], "star": 0.0, "review": 0}, {"name": "タマガワ薬局香津店", "address": "宮城県塩竈市佐浦町16-8", "lat": 38.31005569, "lon": 141.01389135, "category": "調剤薬局", "category_id": "0202315", "time": [], "star": 0.0, "review": 0}, {"name": "日本調剤 塩釜薬局", "address": "宮城県塩釜市佐浦町14-21", "lat": 38.31103956, "lon": 141.01565524, "category": "調剤薬局", "category_id": "0202315", "time": ["09:00-18:00"], "star": 0.0, "review": 0}, {"name": "下馬薬局", "address": "宮城県塩竈市錦町13-11", "lat": 38.30694041, "lon": 141.01739318, "category": "調剤薬局", "category_id": "0202315", "time": [], "star": 0.0, "review": 0}, {"name": "タケダ薬局", "address": "宮城県塩竈市東玉川町1-24", "lat": 38.30933561, "lon": 141.011082, "category": "調剤薬局", "category_id": "0202315", "time": [], "star": 0.0, "review": 0}, {"name": "もみじ山調剤薬局", "address": "宮城県多賀城市伝上山1丁目4-3", "lat": 38.29767543, "lon": 141.0100373, "category": "調剤薬局", "category_id": "0202315", "time": ["09:00-12:30"], "star": 0.0, "review": 0}, {"name": "株式会社早川薬局", "address": "宮城県塩竈市玉川2丁目2-13", "lat": 38.30895831, "lon": 141.00787208, "category": "調剤薬局", "category_id": "0202315", "time": [], "star": 0.0, "review": 0}, {"name": "株式会社メディカルみやぎ", "address": "宮城県塩竈市石堂3-8", "lat": 38.31170802, "lon": 141.0108602, "category": "薬店", "category_id": "0202316", "time": [], "star": 0.0, "review": 0}, {"name": "あやめ調剤薬局", "address": "宮城県多賀城市鶴ケ谷2丁目19-20", "lat": 38.29698365, "lon": 141.01826952, "category": "調剤薬局", "category_id": "0202315", "time": [], "star": 0.0, "review": 0}], "ATM": [{"name": "七十七銀行 ATM 坂総合病院", "address": "宮城県多賀城市下馬2-13-7", "lat": 38.30616751, "lon": 141.01602747, "category": "ATM", "category_id": "0402785", "time": [], "star": 0.0, "review": 0}, {"name": "七十七銀行 塩釜西支店", "address": "宮城県塩釜市東玉川町2-22", "lat": 38.308534, "lon": 141.0104899, "category": "銀行", "category_id": "0402596", "time": ["09:00-15:00"], "star": 4.38, "review": 3}, {"name": "七十七銀行 ATM 塩釜西支店", "address": "宮城県塩釜市東玉川町2-22", "lat": 38.3084994, "lon": 141.010561, "category": "ATM", "category_id": "0402785", "time": [], "star": 4.0, "review": 0}, {"name": "北日本銀行 塩釜支店", "address": "宮城県塩釜市白萩町3-3", "lat": 38.30987, "lon": 141.0121285, "category": "銀行", "category_id": "0402596", "time": ["09:00-11:30"], "star": 4.0, "review": 1}, {"name": "七十七銀行 ATM 下馬", "address": "宮城県多賀城市下馬5-3-1", "lat": 38.3024998, "lon": 141.01639, "category": "ATM", "category_id": "0402785", "time": [], "star": 0.0, "review": 0}, {"name": "ゆうちょ銀行 塩釜東玉川郵便局", "address": "宮城県塩竈市東玉川町7-8", "lat": 38.3101332, "lon": 141.01032, "category": "銀行", "category_id": "0402596", "time": [], "star": 4.33, "review": 1}, {"name": "ゆうちょ銀行 ATM 下馬郵便局", "address": "宮城県多賀城市下馬4-16-20", "lat": 38.3018519, "lon": 141.017292, "category": "ATM", "category_id": "0402785", "time": [], "star": 0.0, "review": 0}, {"name": "杜の都信用金庫 玉川支店", "address": "宮城県塩釜市東玉川町1-1", "lat": 38.3093617, "lon": 141.0112453, "category": "信用金庫", "category_id": "0401098", "time": ["09:00-15:00"], "star": 4.67, "review": 2}, {"name": "岩手銀行 塩釜支店", "address": "宮城県塩竈市旭町20-18", "lat": 38.3118204, "lon": 141.0216523, "category": "銀行", "category_id": "0402596", "time": ["09:00-15:00"], "star": 4.5, "review": 2}, {"name": "北日本銀行 ATM 塩釜支店", "address": "宮城県塩釜市白萩町3-3", "lat": 38.3098595, "lon": 141.012138, "category": "ATM", "category_id": "0402785", "time": [], "star": 0.0, "review": 0}, {"name": "ゆうちょ銀行 下馬郵便局", "address": "宮城県多賀城市下馬4-16-20", "lat": 38.3018519, "lon": 141.017292, "category": "銀行", "category_id": "0402596", "time": [], "star": 3.0, "review": 0}, {"name": "セブン銀行 塩釜南錦町店", "address": "宮城県塩釜市南錦町8-8", "lat": 38.3044855, "lon": 141.012044, "category": "ATM", "category_id": "0402785", "time": ["00:00-24:00"], "star": 0.0, "review": 0}, {"name": "ゆうちょ銀行 塩釜花立郵便局", "address": "宮城県塩竈市花立町14-17", "lat": 38.309133, "lon": 141.020222, "category": "銀行", "category_id": "0402596", "time": [], "star": 0.0, "review": 0}, {"name": "ゆうちょ銀行 ATM 塩釜花立郵便局", "address": "宮城県塩竈市花立町14-17", "lat": 38.309133, "lon": 141.020222, "category": "ATM", "category_id": "0402785", "time": [], "star": 0.0, "review": 0}, {"name": "岩手銀行 ATM 塩釜支店", "address": "宮城県塩竈市旭町20-18", "lat": 38.3118273, "lon": 141.021692, "category": "ATM", "category_id": "0402785", "time": [], "star": 0.0, "review": 0}, {"name": "ゆうちょ銀行 塩釜佐浦町郵便局", "address": "宮城県塩竈市佐浦町7-12", "lat": 38.3122931, "lon": 141.017775, "category": "銀行", "category_id": "0402596", "time": [], "star": 4.0, "review": 0}, {"name": "セブン銀行 ヨークベニマル 塩釜店", "address": "宮城県塩竈市野田14-34", "lat": 38.30716228, "lon": 141.01007642, "category": "ATM", "category_id": "0402785", "time": ["09:30-21:30"], "star": 0.0, "review": 0}, {"name": "ゆうちょ銀行 ATM 塩釜東玉川郵便局", "address": "宮城県塩竈市東玉川町7-8", "lat": 38.3101332, "lon": 141.01032, "category": "ATM", "category_id": "0402785", "time": [], "star": 0.0, "review": 0}, {"name": "セブン銀行 多賀城下馬店", "address": "宮城県多賀城市下馬5-7-5", "lat": 38.3007056, "lon": 141.016038, "category": "ATM", "category_id": "0402785", "time": ["00:00-24:00"], "star": 0.0, "review": 0},