[{"name": "あつみ温泉", "name_en": "Atsumi Onsen", "lat": 38.6243926, "lon": 139.58794, "osm_id": 5643402055, "operator": "東日本旅客鉄道", "railway": "station", "wikidata": "Q4817784", "wikipedia_tag": "ja:あつみ温泉駅", "lines": ["羽越本線"], "pref": "山形県", "wikipedia_text": "あつみ温泉駅（あつみおんせんえき）は、山形県鶴岡市温海戊（あつみぼ）にある、東日本旅客鉄道（JR東日本）羽越本線の駅である。\n特急「いなほ」（新潟駅 - 酒田駅・秋田駅）、臨時快速列車（観光列車）「海里」（新潟駅 - 酒田駅）が停車する。", "wikipedia_image": "https://upload.wikimedia.org/wikipedia/commons/5/5f/JR_East_Atsumi-Onsen_Station_building_20230723%2C_Yamagata_Pref.jpg", "nearest_restaurant": {"name": "矢口食堂", "lat": 38.6227285, "lon": 139.5868213, "address": "", "distance_m": 209, "cuisine": ""}, "nearby_pois": {"ラーメン": [{"name": "矢口精肉店", "address": "山形県鶴岡市温海戊536-1", "lat": 38.62324957, "lon": 139.58689091, "category": "ラーメン店", "category_id": "0100097", "time": [], "star": 0.0, "review": 0}, {"name": "おばこ食堂", "address": "山形県鶴岡市温海戊549-1", "lat": 38.62278045, "lon": 139.58679648, "category": "ラーメン店", "category_id": "0100097", "time": ["11:00-13:30"], "star": 3.71, "review": 12}, {"name": "矢口食堂", "address": "山形県鶴岡市温海戊536-1", "lat": 38.6232504, "lon": 139.58688757, "category": "ラーメン店", "category_id": "0100097", "time": ["11:00-14:00"], "star": 3.54, "review": 8}], "飲食店": [{"name": "矢口精肉店", "address": "山形県鶴岡市温海戊536-1", "lat": 38.62324957, "lon": 139.58689091, "category": "ラーメン店", "category_id": "0100097", "time": [], "star": 0.0, "review": 0}, {"name": "おばこ食堂", "address": "山形県鶴岡市温海戊549-1", "lat": 38.62278045, "lon": 139.58679648, "category": "ラーメン店", "category_id": "0100097", "time": ["11:00-13:30"], "star": 3.71, "review": 12}, {"name": "矢口食堂", "address": "山形県鶴岡市温海戊536-1", "lat": 38.6232504, "lon": 139.58688757, "category": "ラーメン店", "category_id": "0100097", "time": ["11:00-14:00"], "star": 3.54, "review": 8}, {"name": "寿司割烹 雅", "address": "山形県鶴岡市温海戊27", "lat": 38.627541035983, "lon": 139.58889801311, "category": "寿司店", "category_id": "0100101", "time": [], "star": 4.2, "review": 1}, {"name": "居酒屋ふじや", "address": "山形県鶴岡市温海戊359", "lat": 38.62626647949219, "lon": 139.58831787109375, "category": "金物店", "category_id": "0202561", "time": ["18:00-24:00"], "star": 4.0, "review": 0}, {"name": "東京や", "address": "山形県鶴岡市温海戊360-2", "lat": 38.62652, "lon": 139.588193, "category": "", "category_id": "", "time": [], "star": 0.0, "review": 0}], "ドラッグストア": [{"name": "かもめ薬局あつみ店", "address": "山形県鶴岡市温海字温海48", "lat": 38.62717145, "lon": 139.58895542, "category": "調剤薬局", "category_id": "0202315", "time": [], "star": 0.0, "review": 0}], "ATM": [{"name": "ゆうちょ銀行 温海郵便局", "address": "山形県鶴岡市温海温海449-4", "lat": 38.6239157, "lon": 139.587283, "category": "銀行", "category_id": "0402596", "time": [], "star": 4.0, "review": 1}, {"name": "きらやか銀行 ATM 温海", "address": "山形県鶴岡市温海戊558-4", "lat": 38.6223992, "lon": 139.586518, "category": "ATM", "category_id": "0402785", "time": [], "star": 0.0, "review": 0}, {"name": "荘内銀行 ATM 鶴岡市温海庁舎出張所", "address": "山形県鶴岡市温海戊577-1", "lat": 38.6210448, "lon": 139.587375, "category": "ATM", "category_id": "0402785", "time": [], "star": 0.0, "review": 0}, {"name": "ゆうちょ銀行 ATM 温海郵便局", "address": "山形県鶴岡市温海温海449-4", "lat": 38.6239157, "lon": 139.587283, "category": "ATM", "category_id": "0402785", "time": [], "star": 0.0, "review": 0}]}, "top_restaurant": {"name": "寿司割烹 雅", "category": "寿司店", "star": 4.2, "review": 1}}, {"name": "あやめ公園", "name_en": "Ayame-Koen", "lat": 38.1140176, "lon": 140.0326945, "osm_id": 6126052084, "operator": "", "railway": "station", "wikidata": "Q4830896", "wikipedia_tag": "ja:あやめ公園駅", "lines": [], "pref": "山形県", "wikipedia_text": "あやめ公園駅（あやめこうえんえき）は、山形県長井市幸町にある山形鉄道フラワー長井線の駅である。", "wikipedia_image": "https://upload.wikimedia.org/wikipedia/commons/8/82/AyameKoen.JPG", "nearest_convenience": {"name": "サンクス", "lat": 38.1133192, "lon": 140.033562, "address": "", "distance_m": 109, "brand": ""}, "nearest_restaurant": {"name": "寿し処かね善", "lat": 38.1125705, "lon": 140.0311106, "address": "", "distance_m": 212, "cuisine": ""}, "nearby_pois": {"コンビニ": [{"name": "ファミリーマート 長井中道店", "address": "山形県長井市中道1-1-25", "lat": 38.1085237, "lon": 140.0325991, "category": "コンビニ", "category_id": "0200487", "time": ["00:00-24:00"], "star": 4.33, "review": 2}, {"name": "ファミリーマート 長井舟場店", "address": "山形県長井市舟場14-7", "lat": 38.1151565, "lon": 140.042098, "category": "コンビニ", "category_id": "0200487", "time": ["00:00-24:00"], "star": 4.67, "review": 1}, {"name": "セブンイレブン 長井舟場", "address": "山形県長井市舟場2-13", "lat": 38.1126568, "lon": 140.0424064, "category": "コンビニ", "category_id": "0200487", "time": ["00:00-24:00"], "star": 3.58, "review": 7}, {"name": "サンクス 長井舟場店", "address": "山形県長井市舟場14-7", "lat": 38.115496, "lon": 140.0421841, "category": "コンビニ", "category_id": "0200487", "time": [], "star": 0.0, "review": 0}], "ラーメン": [{"name": "一番", "address": "山形県長井市新町6-15", "lat": 38.11032563, "lon": 140.03126555, "category": "ラーメン店", "category_id": "0100097", "time": ["11:00-14:00", "17:00-19:30"], "star": 3.41, "review": 9}, {"name": "金ちゃんラーメン 長井店", "address": "山形県長井市舟場21-1", "lat": 38.11607752, "lon": 140.04273314, "category": "ラーメン店", "category_id": "0100097", "time": ["11:00-14:00"], "star": 3.91, "review": 17}, {"name": "すえひろ食堂", "address": "山形県長井市十日町1-5-33", "lat": 38.1129645, "lon": 140.04130425, "category": "ラーメン店", "category_id": "0100097", "time": ["11:30-14:00", "17:30-19:30"], "star": 3.53, "review": 17}, {"name": "らーめん廻", "address": "山形県長井市栄町3-1", "lat": 38.10681445, "lon": 140.0346035, "category": "ラーメン店", "category_id": "0100097", "time": ["11:00-14:00", "17:00-19:30"], "star": 3.51, "review": 11}, {"name": "さかた家", "address": "山形県長井市緑町10-7", "lat": 38.118687137256, "lon": 140.04171403881, "category": "定食屋", "category_id": "0101441", "time": [], "star": 1.75, "review": 2}, {"name": "ハイらーめんデス 長井駅前店", "address": "山形県長井市栄町7-1", "lat": 38.10715253, "lon": 140.03716297, "category": "ラーメン店", "category_id": "0100097", "time": ["11:00-25:00"], "star": 2.83, "review": 10}, {"name": "夜汽車", "address": "山形県長井市高野町2-7-6", "lat": 38.1109229, "lon": 140.03577929, "category": "スナック", "category_id": "0100433", "time": ["20:00-24:00"], "star": 4.6, "review": 2}, {"name": "池田家本店", "address": "山形県長井市高野町2-7-2", "lat": 38.11062905, "lon": 140.03586458, "category": "麺料理店", "category_id": "0101175", "time": ["11:00-14:00"], "star": 3.85, "review": 11}, {"name": "桃華楼 本店", "address": "山形県長井市大町4-12", "lat": 38.11082573, "lon": 140.03703779, "category": "飲食店", "category_id": "0102732", "time": ["11:00-14:00", "18:00-21:00"], "star": 3.2, "review": 6}, {"name": "アイデアのおもちゃ箱", "address": "山形県長井市高野町２丁目4-32 ", "lat": 38.11007911, "lon": 140.03556824, "category": "肉まん店", "category_id": "0102218", "time": ["09:00-17:00"], "star": 3.5, "review": 3}], "飲食店": [{"name": "漢陽", "address": "山形県長井市高野町2-2-11 セブンプラザ 1F", "lat": 38.110655911774, "lon": 140.03350172621, "category": "韓国料理店", "category_id": "0100518", "time": [], "star": 0.0, "review": 0}, {"name": "さかた家", "address": "山形県長井市緑町10-7", "lat": 38.118687137256, "lon": 140.04171403881, "category": "定食屋", "category_id": "0101441", "time": [], "star": 1.75, "review": 2}, {"name": "いざ", "address": "山形県長井市高野町2-1-21", "lat": 38.108929317259, "lon": 140.03350318872, "category": "居酒屋", "category_id": "0101495", "time": ["18:00-24:00"], "star": 4.55, "review": 3}, {"name": "やまいちそばや", "address": "山形県長井市緑町6-16", "lat": 38.116685047256, "lon": 140.03880523879, "category": "蕎麦店", "category_id": "0100034", "time": [], "star": 4.14, "review": 5}, {"name": "桃華楼 本店", "address": "山形県長井市大町4-12", "lat": 38.11082573, "lon": 140.03703779, "category": "飲食店", "category_id": "0102732", "time": ["11:00-14:00", "18:00-21:00"], "star": 3.2, "review": 6}, {"name": "So-Bar 水杜里", "address": "山形県長井市中道1-3-24", "lat": 38.10734682, "lon": 140.0317315, "category": "蕎麦店", "category_id": "0100034", "time": ["17:30-22:00"], "star": 4.34, "review": 12}, {"name": "ホットサンドのピッグ", "address": "山形県長井市舟場5-13", "lat": 38.111516210506, "lon": 140.04331663825, "category": "韓国料理店", "category_id": "0100518", "time": ["10:00-14:00", "16:00-18:00"], "star": 0.0, "review": 0}, {"name": "奏宴", "address": "山形県長井市本町1-3-18", "lat": 38.10612961, "lon": 140.03784768, "category": "居酒屋", "category_id": "0101495", "time": [], "star": 4.67, "review": 2}, {"name": "多夢炉", "address": "山形県長井市成田2170-2 (株)はぎ苑(はぎ乃湯北側玄関)", "lat": 38.120512727252, "lon": 140.03302113884, "category": "定食屋", "category_id": "0101441", "time": ["12:00-21:00"], "star": 4.0, "review": 2}, {"name": "山の下", "address": "山形県長井市栄町1-6", "lat": 38.10706219, "lon": 140.03429379, "category": "カフェ・喫茶", "category_id": "0100344", "time": ["11:00-18:00"], "star": 3.95, "review": 12}, {"name": "豊饒", "address": "山形県長井市ままの上4-8", "lat": 38.10760617, "lon": 140.03997519, "category": "居酒屋", "category_id": "0101495", "time": [], "star": 4.4, "review": 4}, {"name": "きちろ", "address": "山形県長井市栄町3-13", "lat": 38.10681003, "lon": 140.0355523, "category": "レストラン", "category_id": "0100111", "time": [], "star": 3.93, "review": 3}, {"name": "あやめ會館", "address": "山形県長井市横町5-1", "lat": 38.11666049, "lon": 140.0328076, "category": "定食屋", "category_id": "0101441", "time": [], "star": 4.0, "review": 0}, {"name": "株式会社中央会館", "address": "山形県長井市栄町7番2号", "lat": 38.10737946, "lon": 140.03725989, "category": "飲食店", "category_id": "0102732", "time": ["11:30-13:30", "17:00-23:00"], "star": 0.0, "review": 0}, {"name": "かく長", "address": "山形県長井市大町4-18", "lat": 38.11076103, "lon": 140.03773079, "category": "蕎麦店", "category_id": "0100034", "time": ["11:30-13:30", "17:00-19:00"], "star": 3.68, "review": 13}, {"name": "ole'h-ole'h", "address": "山形県長井市本町1-4-32", "lat": 38.10642348, "lon": 140.0382879, "category": "居酒屋", "category_id": "0101495", "time": [], "star": 4.05, "review": 5}, {"name": "紀もと", "address": "山形県長井市高野町2-9-10", "lat": 38.1093653, "lon": 140.03584187, "category": "寿司店", "category_id": "0100101", "time": ["18:00-21:00"], "star": 4.39, "review": 7}, {"name": "すしてつ", "address": "山形県長井市高野町2-9-38", "lat": 38.10878203, "lon": 140.03582495, "category": "寿司店", "category_id": "0100101", "time": [], "star": 4.12, "review": 9}, {"name": "居酒屋荷車", "address": "山形県長井市幸町7-1-2", "lat": 38.1137991, "lon": 140.0323841, "category": "居酒屋", "category_id": "0101495", "time": [], "star": 0.0, "review": 0}, {"name": "ココス 長井店", "address": "山形県長井市栄町12-23", "lat": 38.10736284, "lon": 140.03899585, "category": "ファミリーレストラン", "category_id": "0100788", "time": ["10:00-24:00"], "star": 4.12, "review": 54}], "カフェ": [{"name": "山の下", "address": "山形県長井市栄町1-6", "lat": 38.10706219, "lon": 140.03429379, "category": "カフェ・喫茶", "category_id": "0100344", "time": ["11:00-18:00"], "star": 3.95, "review": 12}, {"name": "春まちカフェ", "address": "山形県長井市栄町4-17", "lat": 38.10685172, "lon": 140.03653221, "category": "カフェ・喫茶", "category_id": "0100344", "time": [], "star": 3.0, "review": 3}, {"name": "ホットサンドのピッグ", "address": "山形県長井市舟場5-13", "lat": 38.111516210506, "lon": 140.04331663825, "category": "韓国料理店", "category_id": "0100518", "time": ["10:00-14:00", "16:00-18:00"], "star": 0.0, "review": 0}, {"name": "多夢炉", "address": "山形県長井市成田2170-2 (株)はぎ苑(はぎ乃湯北側玄関)", "lat": 38.120512727252, "lon": 140.03302113884, "category": "定食屋", "category_id": "0101441", "time": ["12:00-21:00"], "star": 4.0, "review": 2}, {"name": "ダンガリー", "address": "山形県長井市十日町1-6-49-1", "lat": 38.112337407259, "lon": 140.04050992875, "category": "カレー店", "category_id": "0100359", "time": ["11:30-19:00"], "star": 3.86, "review": 12}], "ドラッグストア": [{"name": "薬王堂 長井十日町店", "address": "山形県長井市十日町2-16-18", "lat": 38.113651, "lon": 140.0392649, "category": "ドラッグストア", "category_id": "0200699", "time": ["08:00-22:00"], "star": 3.88, "review": 20}, {"name": "ウエルシア長井緑町店", "address": "山形県長井市緑町11-14", "lat": 38.118317, "lon": 140.038939, "category": "ドラッグストア", "category_id": "0200699", "time": ["09:00-22:00"], "star": 3.83, "review": 3}, {"name": "ツルハドラッグ 長井中道店", "address": "山形県長井市中道二丁目19番19号", "lat": 38.10557117, "lon": 140.03112164, "category": "ドラッグストア", "category_id": "0200699", "time": ["09:00-22:00"], "star": 4.15, "review": 8}, {"name": "アップル薬局", "address": "山形県長井市大町9-26", "lat": 38.10990701, "lon": 140.03956594, "category": "調剤薬局", "category_id": "0202315", "time": [], "star": 0.0, "review": 0}, {"name": "あやめ調剤薬局", "address": "山形県長井市大町9-22", "lat": 38.11045779, "lon": 140.03963119, "category": "調剤薬局", "category_id": "0202315", "time": ["08:30-18:00"], "star": 0.0, "review": 0}, {"name": "アイン 長井店", "address": "山形県長井市幸町16-12", "lat": 38.10896683, "lon": 140.02848475, "category": "調剤薬局", "category_id": "0202315", "time": ["08:30-17:30"], "star": 0.0, "review": 0}, {"name": "あやめ薬局駅前店", "address": "山形県長井市栄町4-20-1", "lat": 38.10691866, "lon": 140.03688745, "category": "調剤薬局", "category_id": "0202315", "time": ["08:00-18:00"], "star": 0.0, "review": 0}, {"name": "ながい調剤薬局", "address": "山形県長井市栄町10-3", "lat": 38.10898346, "lon": 140.03804918, "category": "調剤薬局", "category_id": "0202315", "time": [], "star": 0.0, "review": 0}, {"name": "クスリのサンコー", "address": "山形県長井市中道2丁目19-13", "lat": 38.10583531, "lon": 140.0314191, "category": "薬店", "category_id": "0202316", "time": ["09:00-19:00"], "star": 0.0, "review": 0}, {"name": "大東薬品", "address": "山形県長井市大町7-8", "lat": 38.11088603, "lon": 140.03799798, "category": "薬店", "category_id": "0202316", "time": [], "star": 0.0, "review": 0}, {"name": "大町調剤薬局", "address": "山形県長井市大町8-8", "lat": 38.1099253, "lon": 140.03788443, "category": "調剤薬局", "category_id": "0202315", "time": [], "star": 0.0, "review": 0}, {"name": "ミドリ薬局長井店", "address": "山形県長井市ままの上1-2", "lat": 38.10745339, "lon": 140.03924804, "category": "調剤薬局", "category_id": "0202315", "time": [], "star": 0.0, "review": 0}], "ATM": [{"name": "山形銀行 ATM 長井市役所", "address": "山形県長井市栄町1-1", "lat": 38.107533, "lon": 140.03371, "category": "ATM", "category_id": "0402785", "time": [], "star": 0.0, "review": 0}, {"name": "山形銀行 ATM 長井支店", "address": "山形県長井市栄町11-14", "lat": 38.108316, "lon": 140.038191, "category": "ATM", "category_id": "0402785", "time": [], "star": 0.0, "review": 0}, {"name": "銀行ATM イーネット ファミリーマート長井中道 共同出張所", "address": "山形県長井市中道1-1-25 ", "lat": 38.10851532, "lon": 140.03256859, "category": "ATM", "category_id": "0402785", "time": ["00:00-24:00"], "star": 0.0, "review": 0}, {"name": "ゆうちょ銀行 ATM 長井十日町郵便局", "address": "山形県長井市十日町2-1-40", "lat": 38.1135696, "lon": 140.037765, "category": "ATM", "category_id": "0402785", "time": [], "star": 0.0, "review": 0}, {"name": "きらやか銀行 ATM 長井支店", "address": "山形県長井市栄町7-34", "lat": 38.1073945, "lon": 140.037717, "category": "ATM", "category_id": "0402785", "time": [], "star": 0.0, "review": 0}, {"name": "ゆうちょ銀行 ATM 長井中道郵便局", "address": "山形県長井市中道1-2-34", "lat": 38.1083957, "lon": 140.031625, "category": "ATM", "category_id": "0402785", "time": [], "star": 0.0, "review": 0}, {"name": "山形銀行 長井支店", "address": "山形県長井市栄町11-14", "lat": 38.1082849, "lon": 140.038182, "category": "銀行", "category_id": "0402596", "time": ["09:00-15:00"], "star": 0.0, "review": 0}, {"name": "山形銀行 ATM おーばんうめや長井北店", "address": "山形県長井市緑町9-18", "lat": 38.11928541, "lon": 140.04023321, "category": "ATM", "category_id": "0402785", "time": [], "star": 0.0, "review": 0}, {"name": "ろうきん ATM 東北労働金庫 長井市役所", "address": "山形県長井市栄町1-1", "lat": 38.1070492, "lon": 140.033814, "category": "ATM", "category_id": "0402785", "time": [], "star": 0.0, "review": 0}, {"name": "ゆうちょ銀行 長井十日町郵便局", "address": "山形県長井市十日町2-1-40", "lat": 38.1135696, "lon": 140.037765, "category": "銀行", "category_id": "0402596", "time": [], "star": 0.0, "review": 0}, {"name": "イオン銀行 ATM ウエルシア長井緑町店出張所(店内)", "address": "山形県長井市緑町11-14", "lat": 38.1184768, "lon": 140.039139, "category": "ATM", "category_id": "0402785", "time": ["09:00-24:00"], "star": 0.0, "review": 0}, {"name": "きらやか銀行 長井支店", "address": "山形県長井市栄町7-34", "lat": 38.1073684, "lon": 140.0377376, "category": "銀行", "category_id": "0402596", "time": ["09:00-15:00"], "star": 0.0, "review": 0}, {"name": "みずほ銀行 ATM ウエルシア長井緑町店出張所", "address": "山形県長井市緑町11-14", "lat": 38.118469, "lon": 140.039122, "category": "ATM", "category_id": "0402785", "time": [], "star": 0.0, "review": 0}, {"name": "きらやか銀行 長井中央支店", "address": "山形県長井市栄町7-34", "lat": 38.1073684, "lon": 140.0377654, "category": "銀行", "category_id": "0402596", "time": [], "star": 0.0, "review": 0}, {"name": "ゆうちょ銀行 長井中道郵便局", "address": "山形県長井市中道1-2-34", "lat": 38.1083463, "lon": 140.031603, "category": "銀行", "category_id": "0402596", "time": [], "star": 0.0, "review": 0}, {"name": "ゆうちょ銀行 ATM ファミリーマート長井舟場店内出張所", "address": "山形県長井市舟場14-7", "lat": 38.1151661, "lon": 140.0421, "category": "ATM", "category_id": "0402785", "time": [], "star": 0.0, "review": 0}, {"name": "セブン銀行 長井舟場店", "address": "山形県長井市舟場2-13", "lat": 38.1126191, "lon": 140.042485, "category": "ATM", "category_id": "0402785", "time": ["00:00-24:00"], "star": 0.0, "review": 0}, {"name": "米沢信用金庫 長井支店", "address": "山形県長井市栄町8-1", "lat": 38.1085654, "lon": 140.0368876, "category": "信用金庫", "category_id": "0401098", "time": ["09:00-15:00"], "star": 0.0, "review": 0}, {"name": "JAバンク ATM 山形おきたま農業協同組合(JA山形おきたま)旧長井出張所", "address": "山形県長井市栄町4-11", "lat": 38.1067993, "lon": 140.035983, "category": "ATM", "category_id": "0402785", "time": [], "star": 0.0, "review": 0}, {"name": "信用組合 山形中央信用組合 本店営業部", "address": "山形県長井市本町1-3-3", "lat": 38.10688174, "lon": 140.03745268, "category": "信用組合", "category_id": "0401097", "time": [], "star": 0.0, "review": 0}], "銭湯 温泉": [{"name": "はぎ苑 はぎ乃湯", "address": "山形県長井市成田2170-2", "lat": 38.120320107252, "lon": 140.03328418883, "category": "日帰り入浴", "category_id": "0401679", "time": ["10:00-21:00"], "star": 3.94, "review": 13}], "スーパーマーケット": [{"name": "おーばん うめや長井北店", "address": "山形県長井市緑町９番７７号 ", "lat": 38.11927541, "lon": 140.04017572, "category": "スーパー", "category_id": "0200612", "time": ["09:30-21:30"], "star": 4.78, "review": 8}, {"name": "株式会社うめや 十日町店", "address": "山形県長井市十日町2丁目16-18", "lat": 38.1136548, "lon": 140.0392531, "category": "スーパー", "category_id": "0200612", "time": [], "star": 3.68, "review": 4}, {"name": "薬王堂 長井十日町店", "address": "山形県長井市十日町2-16-18", "lat": 38.113651, "lon": 140.0392649, "category": "ドラッグストア", "category_id": "0200699", "time": ["08:00-22:00"], "star": 3.88, "review": 20}]}, "top_restaurant": {"name": "奏宴", "category": "居酒屋", "star": 4.67, "review": 2}}, {"name": "おりはた", "name_en": "Orihata", "lat": 38.0664757, "lon": 140.1225351, "osm_id": 6126052425, "operator": "", "railway": "station", "wikidata": "Q7102656", "wikipedia_tag": "ja:おりはた駅", "lines": [], "pref": "山形県", "wikipedia_text": "おりはた駅（おりはたえき）は、山形県南陽市漆山にある山形鉄道フラワー長井線の駅である。", "wikipedia_image": "https://upload.wikimedia.org/wikipedia/commons/a/ad/Orihata_Station_2006-10-31.jpg", "nearest_convenience": {"name": "セブン-イレブン", "lat": 38.0642554, "lon": 140.1211374, "address": "", "distance_m": 276, "brand": "セブン-イレブン"}, "nearest_restaurant": {"name": "花ぐるまラーメン", "lat": 38.0652174, "lon": 140.123989, "address": "", "distance_m": 189, "cuisine": ""}, "nearby_pois": {"コンビニ": [{"name": "セブンイレブン 南陽西工業団地前", "address": "山形県南陽市漆山字西高堰二1105", "lat": 38.0642281, "lon": 140.1211511, "category": "コンビニ", "category_id": "0200487", "time": ["00:00-24:00"], "star": 4.5, "review": 3}], "ラーメン": [{"name": "ラーメン花ぐるま", "address": "山形県南陽市漆山1316-1", "lat": 38.0652219, "lon": 140.12398891, "category": "定食屋", "category_id": "0101441", "time": [], "star": 3.07, "review": 12}, {"name": "麺屋 葵", "address": "山形県南陽市宮内4549-2", "lat": 38.06543257, "lon": 140.13177518, "category": "ラーメン店", "category_id": "0100097", "time": ["11:00-14:20", "18:00-21:00"], "star": 4.26, "review": 74}, {"name": "一竜", "address": "山形県南陽市宮内2833-106", "lat": 38.0693582, "lon": 140.13218993, "category": "ラーメン店", "category_id": "0100097", "time": ["11:00-14:00"], "star": 3.21, "review": 15}, {"name": "ドライブインひろ", "address": "山形県南陽市漆山1095", "lat": 38.06414779, "lon": 140.12020818, "category": "定食屋", "category_id": "0101441", "time": ["11:00-15:00", "17:00-19:00"], "star": 3.92, "review": 8}, {"name": "うめつ食堂", "address": "山形県南陽市池黒1395", "lat": 38.06838596, "lon": 140.12492618, "category": "定食屋", "category_id": "0101441", "time": ["11:00-20:00"], "star": 3.96, "review": 16}], "飲食店": [{"name": "そばや夕づる", "address": "山形県南陽市漆山2045-22", "lat": 38.070616737311, "lon": 140.12029830827, "category": "蕎麦店", "category_id": "0100034", "time": [], "star": 3.3, "review": 1}, {"name": "うめつ食堂", "address": "山形県南陽市池黒1395", "lat": 38.06838596, "lon": 140.12492618, "category": "定食屋", "category_id": "0101441", "time": ["11:00-20:00"], "star": 3.96, "review": 16}, {"name": "ドライブインひろ", "address": "山形県南陽市漆山1095", "lat": 38.06414779, "lon": 140.12020818, "category": "定食屋", "category_id": "0101441", "time": ["11:00-15:00", "17:00-19:00"], "star": 3.92, "review": 8}, {"name": "泉平", "address": "山形県南陽市宮内3152-2", "lat": 38.072777317759, "lon": 140.12970716323, "category": "寿司店", "category_id": "0100101", "time": [], "star": 0.0, "review": 0}, {"name": "茶道CAFE 青海波", "address": "山形県南陽市漆山1788", "lat": 38.06975555419922, "lon": 140.12002563476562, "category": "飲食店", "category_id": "0102732", "time": [], "star": 0.0, "review": 0}, {"name": "cafe Hanamori 南陽山南店", "address": "山形県南陽市池黒1141-1", "lat": 38.06524063, "lon": 140.13064473, "category": "カフェ・喫茶", "category_id": "0100344", "time": ["11:00-16:00"], "star": 4.31, "review": 5}, {"name": "ラーメン花ぐるま", "address": "山形県南陽市漆山1316-1", "lat": 38.0652219, "lon": 140.12398891, "category": "定食屋", "category_id": "0101441", "time": [], "star": 3.07, "review": 12}, {"name": "Bookcafe猫のしっぽ", "address": "山形県南陽市漆山1788 つるのこ", "lat": 38.069742, "lon": 140.120109, "category": "飲食店", "category_id": "0102732", "time": [], "star": 0.0, "review": 0}, {"name": "麺屋 葵", "address": "山形県南陽市宮内4549-2", "lat": 38.06543257, "lon": 140.13177518, "category": "ラーメン店", "category_id": "0100097", "time": ["11:00-14:20", "18:00-21:00"], "star": 4.26, "review": 74}, {"name": "ヤマサイ", "address": "山形県南陽市漆山1788 つるのこ内", "lat": 38.069755, "lon": 140.12004, "category": "おにぎり店", "category_id": "0100041", "time": ["08:00-14:00"], "star": 0.0, "review": 0}, {"name": "一竜", "address": "山形県南陽市宮内2833-106", "lat": 38.0693582, "lon": 140.13218993, "category": "ラーメン店", "category_id": "0100097", "time": ["11:00-14:00"], "star": 3.21, "review": 15}, {"name": "大竹精肉店", "address": "山形県南陽市池黒1423-1", "lat": 38.07112394, "lon": 140.12435251, "category": "馬肉料理店", "category_id": "0102745", "time": ["09:30-18:30"], "star": 0.0, "review": 0}, {"name": "勇寿し", "address": "山形県南陽市池黒1520-32", "lat": 38.07203832, "lon": 140.12645174, "category": "寿司店", "category_id": "0100101", "time": ["11:00-13:00", "17:30-21:00"], "star": 0.0, "review": 0}, {"name": "ホルモン安", "address": "山形県南陽市宮内929-24", "lat": 38.0653116, "lon": 140.1308171, "category": "ホルモン焼肉店", "category_id": "0100859", "time": [], "star": 0.0, "review": 0}, {"name": "大竹園茶舗", "address": "山形県南陽市宮内3043", "lat": 38.07224197, "lon": 140.12967283, "category": "日本茶店", "category_id": "0101681", "time": [], "star": 0.0, "review": 0}], "カフェ": [{"name": "cafe Hanamori 南陽山南店", "address": "山形県南陽市池黒1141-1", "lat": 38.06524063, "lon": 140.13064473, "category": "カフェ・喫茶", "category_id": "0100344", "time": ["11:00-16:00"], "star": 4.31, "review": 5}, {"name": "麺屋 葵", "address": "山形県南陽市宮内4549-2", "lat": 38.06543257, "lon": 140.13177518, "category": "ラーメン店", "category_id": "0100097", "time": ["11:00-14:20", "18:00-21:00"], "star": 4.26, "review": 74}, {"name": "大竹園茶舗", "address": "山形県南陽市宮内3043", "lat": 38.07224197, "lon": 140.12967283, "category": "日本茶店", "category_id": "0101681", "time": [], "star": 0.0, "review": 0}], "ドラッグストア": [{"name": "宮内さくら調剤薬局", "address": "山形県南陽市宮内4549-1", "lat": 38.06537953, "lon": 140.13200822, "category": "調剤薬局", "category_id": "0202315", "time": [], "star": 0.0, "review": 0}], "ATM": [{"name": "セブン銀行 南陽西工業団地前店", "address": "山形県南陽市漆山字西高堰二1105", "lat": 38.0642171, "lon": 140.121161, "category": "ATM", "category_id": "0402785", "time": ["00:00-24:00"], "star": 0.0, "review": 0}, {"name": "ゆうちょ銀行 ATM 宮内漆山郵便局", "address": "山形県南陽市漆山1923", "lat": 38.0700705, "lon": 140.12145, "category": "ATM", "category_id": "0402785", "time": [], "star": 0.0, "review": 0}, {"name": "ゆうちょ銀行 宮内漆山郵便局", "address": "山形県南陽市漆山1923", "lat": 38.0700705, "lon": 140.12145, "category": "銀行", "category_id": "0402596", "time": [], "star": 0.0, "review": 0}, {"name": "JA山形おきたま南陽支店", "address": "山形県南陽市宮内864", "lat": 38.0640505, "lon": 140.1331279, "category": "銀行", "category_id": "0402596", "time": [], "star": 0.0, "review": 0}, {"name": "JAバンク 山形おきたま農業協同組合(JA山形おきたま)南陽支店", "address": "山形県南陽市宮内864", "lat": 38.0640135, "lon": 140.133097, "category": "銀行", "category_id": "0402596", "time": ["09:00-15:00"], "star": 0.0, "review": 0}, {"name": "JAバンク ATM 山形おきたま農業協同組合(JA山形おきたま)南陽支店", "address": "山形県南陽市宮内864", "lat": 38.0640371, "lon": 140.133101, "category": "ATM", "category_id": "0402785", "time": [], "star": 0.0, "review": 0}]}, "top_restaurant": {"name": "cafe Hanamori 南陽山南店", "category": "カフェ・喫茶", "star": 4.31, "review": 5}}, {"name": "かみのやま温泉", "name_en": "Kaminoyama-Onsen", "lat": 38.1520989, "lon": 140.2785301, "osm_id": 263229121, "operator": "", "railway": "station", "wikidata": "Q1137142", "wikipedia_tag": "ja:かみのやま温泉駅", "lines": [], "pref": "山形県", "wikipedia_text": "かみのやま温泉駅（かみのやまおんせんえき）は、山形県上山市矢来1丁目にある、東日本旅客鉄道（JR東日本）奥羽本線の駅。\n上山市の中心駅であり、奥羽本線上を走るミニ新幹線である山形新幹線の停車駅となっている。一方、奥羽本線の在来線としての愛称として「山形線」が設定されている。", "wikipedia_image": "https://upload.wikimedia.org/wikipedia/commons/5/51/JR_East_Kaminoyamaonsen_Station_West_Exit.jpg", "nearest_convenience": {"name": "NewDays", "lat": 38.1521504, "lon": 140.2784229, "address": "", "distance_m": 11, "brand": "NewDays"}, "nearest_restaurant": {"name": "キセン", "lat": 38.1526247, "lon": 140.2778284, "address": "山形県上山市矢来1丁目3-1", "distance_m": 85, "cuisine": "ramen"}, "nearby_pois": {"コンビニ": [{"name": "NewDays かみのやま", "address": "山形県上山市矢来1-1-1", "lat": 38.1522059, "lon": 140.2784723, "category": "コンビニ", "category_id": "0200487", "time": ["07:00-19:35"], "star": 4.17, "review": 5}, {"name": "ローソン 上山駅前", "address": "山形県上山市矢来1-2-6", "lat": 38.1528475, "lon": 140.2783084, "category": "コンビニ", "category_id": "0200487", "time": ["00:00-24:00"], "star": 4.16, "review": 17}, {"name": "セブンイレブン 上山矢来", "address": "山形県上山市矢来4-9-1", "lat": 38.1473758, "lon": 140.2778505, "category": "コンビニ", "category_id": "0200487", "time": ["00:00-24:00"], "star": 3.82, "review": 11}, {"name": "ローソン 上山十日町", "address": "山形県上山市十日町10-1", "lat": 38.1577803, "lon": 140.2793358, "category": "コンビニ", "category_id": "0200487", "time": ["00:00-24:00"], "star": 4.21, "review": 15}, {"name": "ヨークベニマル 上山店", "address": "山形県上山市仙石元糸目913", "lat": 38.15237, "lon": 140.2882715, "category": "スーパー", "category_id": "0200612", "time": ["09:30-22:00"], "star": 3.95, "review": 58}, {"name": "ステイインホテル材木栄屋", "address": "山形県上山市新湯6-11", "lat": 38.158055, "lon": 140.2720615, "category": "ビジネスホテル", "category_id": "0300758", "time": ["00:00-24:00"], "star": 4.48, "review": 29}], "ラーメン": [{"name": "さぶちゃんラーメン", "address": "山形県上山市石崎1-8-19", "lat": 38.15059606, "lon": 140.26921139, "category": "ラーメン店", "category_id": "0100097", "time": ["11:00-14:00"], "star": 4.25, "review": 30}, {"name": "天竜飯店", "address": "山形県上山市二日町8-2", "lat": 38.15404033, "lon": 140.27628992, "category": "中華料理店", "category_id": "0100990", "time": ["11:30-14:00", "17:00-19:00"], "star": 3.9, "review": 14}, {"name": "幸楽苑 上山店", "address": "山形県上山市仙石梅ノ木774-１", "lat": 38.15084241, "lon": 140.28899653, "category": "ラーメン店", "category_id": "0100097", "time": ["08:00-21:00"], "star": 3.78, "review": 34}, {"name": "外濠堺屋", "address": "山形県上山市新湯1-33", "lat": 38.158191, "lon": 140.2734077, "category": "居酒屋", "category_id": "0101495", "time": [], "star": 0.0, "review": 0}, {"name": "中国料理 新華楼", "address": "山形県上山市二日町8-12", "lat": 38.15443364, "lon": 140.27717343, "category": "中華料理店", "category_id": "0100990", "time": ["11:00-14:30", "17:00-20:30"], "star": 3.83, "review": 25}, {"name": "長好亭みさき", "address": "山形県上山市美咲町1-4-6", "lat": 38.15222343, "lon": 140.28036353, "category": "定食屋", "category_id": "0101441", "time": ["11:00-14:30", "17:00-19:30"], "star": 4.23, "review": 25}, {"name": "ひまわり ヤマザワ上山店", "address": "山形県上山市矢来3-7-23 ヤマザワ上山店内", "lat": 38.150644376793, "lon": 140.27335350996, "category": "飲食店", "category_id": "0102732", "time": ["10:00-19:00"], "star": 3.73, "review": 12}, {"name": "おぐにのマタギ", "address": "山形県上山市新湯2-19 サーガワールドソシアルビル 2F", "lat": 38.156618487305, "lon": 140.27310168903, "category": "ラーメン店", "category_id": "0100097", "time": ["18:00-23:00"], "star": 3.93, "review": 3}, {"name": "五十番食堂", "address": "山形県上山市矢来4-257-1", "lat": 38.14690925, "lon": 140.2786255, "category": "定食屋", "category_id": "0101441", "time": ["11:00-14:30", "17:00-20:30"], "star": 4.15, "review": 24}, {"name": "八千代食堂", "address": "山形県上山市二日町7-10", "lat": 38.15402643, "lon": 140.27598301, "category": "定食屋", "category_id": "0101441", "time": ["11:30-14:30", "17:00-19:15"], "star": 3.82, "review": 21}, {"name": "居酒屋紀saku", "address": "山形県上山市二日町9-21", "lat": 38.15472304, "lon": 140.27695454, "category": "居酒屋", "category_id": "0101495", "time": ["11:30-14:00", "17:00-26:00"], "star": 4.24, "review": 13}, {"name": "そば処 さかえや", "address": "山形県上山市十日町10-28", "lat": 38.15819271, "lon": 140.27965855, "category": "蕎麦店", "category_id": "0100034", "time": ["11:30-19:00"], "star": 4.07, "review": 23}, {"name": "みそのそばや", "address": "山形県上山市石崎1-4-19", "lat": 38.15202181, "lon": 140.27147802, "category": "蕎麦店", "category_id": "0100034", "time": ["11:00-19:30"], "star": 3.47, "review": 21}, {"name": "花や亭", "address": "山形県上山市栄町2-4-10", "lat": 38.15680402, "lon": 140.28120403, "category": "飲食店", "category_id": "0102732", "time": [], "star": 3.53, "review": 9}, {"name": "清来軒そばや", "address": "山形県上山市新丁2-7", "lat": 38.15916483, "lon": 140.2801954, "category": "蕎麦店", "category_id": "0100034", "time": ["11:00-17:30"], "star": 4.01, "review": 12}, {"name": "中華料理 信", "address": "山形県上山市石崎1-8-36", "lat": 38.1511724, "lon": 140.2697538, "category": "飲食店", "category_id": "0102732", "time": ["11:30-14:00", "17:30-20:00"], "star": 3.8, "review": 18}, {"name": "川芳そば", "address": "山形県上山市二日町7-10", "lat": 38.15389199, "lon": 140.27570471, "category": "蕎麦店", "category_id": "0100034", "time": ["11:00-18:00"], "star": 0.0, "review": 1}, {"name": "湯蕎庵 味津肥盧", "address": "山形県上山市新湯6-34", "lat": 38.15757898, "lon": 140.27263091, "category": "蕎麦店", "category_id": "0100034", "time": ["11:00-15:00", "17:00-19:30"], "star": 3.8, "review": 41}, {"name": "笑福", "address": "山形県上山市新湯6-2", "lat": 38.157394, "lon": 140.27259398, "category": "焼肉店", "category_id": "0101963", "time": ["18:00-22:00"], "star": 3.95, "review": 3}, {"name": "篠原精肉店", "address": "山形県上山市新丁4-10", "lat": 38.15939149, "lon": 140.2810817, "category": "精肉店", "category_id": "0202152", "time": ["10:00-18:00", "19:00-21:00"], "star": 4.01, "review": 9}], "飲食店": [{"name": "あぶらや", "address": "山形県上山市栄町1-3-3", "lat": 38.155745507307, "lon": 140.27803760902, "category": "和食店", "category_id": "0100126", "time": [], "star": 3.83, "review": 7}, {"name": "四季彩", "address": "山形県上山市新湯1-23 あづま屋", "lat": 38.156612616632, "lon": 140.27274189707, "category": "カフェ・喫茶", "category_id": "0100344", "time": ["07:00-20:00"], "star": 4.25, "review": 1}, {"name": "BEARS caffe", "address": "山形県上山市矢来1-3-1 かみのやま風月堂内", "lat": 38.152384537309, "lon": 140.27779690899, "category": "カフェ・喫茶", "category_id": "0100344", "time": ["11:00-22:00"], "star": 4.83, "review": 2}, {"name": "キセン", "address": "山形県上山市矢来1丁目3-1 旧風月堂1F", "lat": 38.1525086, "lon": 140.27779459, "category": "飲食店", "category_id": "0102732", "time": [], "star": 4.0, "review": 4}, {"name": "Cafe 仙渓園 月岡ホテル", "address": "山形県上山市新湯1-33 月岡ホテルロビー", "lat": 38.1581389, "lon": 140.2738453, "category": "カフェ・喫茶", "category_id": "0100344", "time": [], "star": 0.0, "review": 0}, {"name": "レストランイビサ", "address": "山形県上山市美咲町1-5-27-5", "lat": 38.1526145, "lon": 140.28030656, "category": "洋食店", "category_id": "0100129", "time": ["11:30-15:00", "17:00-21:00"], "star": 4.17, "review": 28}, {"name": "ライトスタッフcoffee", "address": "山形県上山市矢来1-2-1", "lat": 38.152524257309, "lon": 140.27818955899, "category": "カフェ・喫茶", "category_id": "0100344", "time": ["10:00-17:00"], "star": 4.11, "review": 13}, {"name": "外濠堺屋", "address": "山形県上山市新湯1-33", "lat": 38.158191, "lon": 140.2734077, "category": "居酒屋", "category_id": "0101495", "time": [], "star": 0.0, "review": 0}, {"name": "仙渓園月岡ホテル バイキング", "address": "山形県上山市新湯1-33", "lat": 38.158191, "lon": 140.2734077, "category": "食べ放題店", "category_id": "0100319", "time": [], "star": 0.0, "review": 0}, {"name": "長好亭みさき", "address": "山形県上山市美咲町1-4-6", "lat": 38.15222343, "lon": 140.28036353, "category": "定食屋", "category_id": "0101441", "time": ["11:00-14:30", "17:00-19:30"], "star": 4.23, "review": 25}, {"name": "harappa", "address": "山形県上山市矢来1-3-1", "lat": 38.152356957309, "lon": 140.27778468899, "category": "蕎麦店", "category_id": "0100034", "time": ["11:00-22:00"], "star": 4.03, "review": 31}, {"name": "居酒屋紀saku", "address": "山形県上山市二日町9-21", "lat": 38.15472304, "lon": 140.27695454, "category": "居酒屋", "category_id": "0101495", "time": ["11:30-14:00", "17:00-26:00"], "star": 4.24, "review": 13}, {"name": "居酒屋高太郎", "address": "山形県上山市沢丁7-10", "lat": 38.155647107306, "lon": 140.27466865902, "category": "居酒屋", "category_id": "0101495", "time": ["18:00-23:00"], "star": 4.27, "review": 6}, {"name": "厩戸", "address": "山形県上山市鶴脛町1-6-10", "lat": 38.15898635, "lon": 140.27383239, "category": "カフェ・喫茶", "category_id": "0100344", "time": ["11:00-16:00"], "star": 4.48, "review": 54}, {"name": "昭和の本箱まちライブラリーけやきの家", "address": "山形県上山市八日町8-6", "lat": 38.15506804, "lon": 140.27820441, "category": "飲食店", "category_id": "0102732", "time": [], "star": 4.0, "review": 1}, {"name": "八千代食堂", "address": "山形県上山市二日町7-10", "lat": 38.15402643, "lon": 140.27598301, "category": "定食屋", "category_id": "0101441", "time": ["11:30-14:30", "17:00-19:15"], "star": 3.82, "review": 21}, {"name": "あべくん珈琲", "address": "山形県上山市矢来4-17-56", "lat": 38.14783978, "lon": 140.28134657, "category": "カフェ・喫茶", "category_id": "0100344", "time": ["11:00-19:00"], "star": 4.16, "review": 16}, {"name": "ぺネタ", "address": "山形県上山市十日町3-12", "lat": 38.15714165, "lon": 140.27717884, "category": "カフェ・喫茶", "category_id": "0100344", "time": [], "star": 4.0, "review": 1}, {"name": "ひまわり ヤマザワ上山店", "address": "山形県上山市矢来3-7-23 ヤマザワ上山店内", "lat": 38.150644376793, "lon": 140.27335350996, "category": "飲食店", "category_id": "0102732", "time": ["10:00-19:00"], "star": 3.73, "review": 12}, {"name": "Cafe&Bar JAM", "address": "山形県上山市栄町1-2-2 ゆうみん21 101", "lat": 38.154818627308, "lon": 140.27733638901, "category": "バー", "category_id": "0100536", "time": ["20:00-24:00"], "star": 0.0, "review": 0}], "カフェ": [{"name": "BEARS caffe", "address": "山形県上山市矢来1-3-1 かみのやま風月堂内", "lat": 38.152384537309, "lon": 140.27779690899, "category": "カフェ・喫茶", "category_id": "0100344", "time": ["11:00-22:00"], "star": 4.83, "review": 2}, {"name": "四季彩", "address": "山形県上山市新湯1-23 あづま屋", "lat": 38.156612616632, "lon": 140.27274189707, "category": "カフェ・喫茶", "category_id": "0100344", "time": ["07:00-20:00"], "star": 4.25, "review": 1}, {"name": "ライトスタッフcoffee", "address": "山形県上山市矢来1-2-1", "lat": 38.152524257309, "lon": 140.27818955899, "category": "カフェ・喫茶", "category_id": "0100344", "time": ["10:00-17:00"], "star": 4.11, "review": 13}, {"name": "Cafe 仙渓園 月岡ホテル", "address": "山形県上山市新湯1-33 月岡ホテルロビー", "lat": 38.1581389, "lon": 140.2738453, "category": "カフェ・喫茶", "category_id": "0100344", "time": [], "star": 0.0, "review": 0}, {"name": "厩戸", "address": "山形県上山市鶴脛町1-6-10", "lat": 38.15898635, "lon": 140.27383239, "category": "カフェ・喫茶", "category_id": "0100344", "time": ["11:00-16:00"], "star": 4.48, "review": 54}, {"name": "あべくん珈琲", "address": "山形県上山市矢来4-17-56", "lat": 38.14783978, "lon": 140.28134657, "category": "カフェ・喫茶", "category_id": "0100344", "time": ["11:00-19:00"], "star": 4.16, "review": 16}, {"name": "アカリトリノマド", "address": "山形県上山市鶴脛町1-6-2", "lat": 38.158557226529, "lon": 140.27380650952, "category": "飲食店", "category_id": "0102732", "time": ["11:00-18:00"], "star": 4.14, "review": 8}, {"name": "NORMA", "address": "山形県上山市新湯1-13", "lat": 38.15643581, "lon": 140.27363671, "category": "カフェ・喫茶", "category_id": "0100344", "time": ["12:00-14:00", "18:00-22:00"], "star": 4.01, "review": 7}, {"name": "ぺネタ", "address": "山形県上山市十日町3-12", "lat": 38.15714165, "lon": 140.27717884, "category": "カフェ・喫茶", "category_id": "0100344", "time": [], "star": 4.0, "review": 1}, {"name": "まちcafe2011", "address": "山形県上山市十日町1-6", "lat": 38.155495030391, "lon": 140.27686382842, "category": "カフェ・喫茶", "category_id": "0100344", "time": [], "star": 3.7, "review": 4}, {"name": "Gökotta COFFEE", "address": "山形県上山市栄町1-4-10", "lat": 38.15832465, "lon": 140.28007045, "category": "カフェ・喫茶", "category_id": "0100344", "time": ["10:30-17:30"], "star": 4.2, "review": 1}, {"name": "harappa", "address": "山形県上山市矢来1-3-1", "lat": 38.152356957309, "lon": 140.27778468899, "category": "蕎麦店", "category_id": "0100034", "time": ["11:00-22:00"], "star": 4.03, "review": 31}, {"name": "スイートピーの日記", "address": "山形県上山市河崎2-2-2", "lat": 38.15114904, "lon": 140.26897832, "category": "カフェ・喫茶", "category_id": "0100344", "time": ["10:00-19:00"], "star": 2.76, "review": 8}, {"name": "ふらんどーる洋菓子店", "address": "山形県上山市矢来1-3-1", "lat": 38.152394517309, "lon": 140.27786655899, "category": "ケーキ店", "category_id": "0100460", "time": ["09:00-18:30"], "star": 2.97, "review": 7}, {"name": "Pole Pole Cafe", "address": "山形県上山市十日町1-6", "lat": 38.15546, "lon": 140.27693, "category": "カフェ・喫茶", "category_id": "0100344", "time": [], "star": 0.0, "review": 0}, {"name": "名人のゆ", "address": "山形県上山市湯町4", "lat": 38.160673107304, "lon": 140.27685034907, "category": "日帰り入浴", "category_id": "0401679", "time": ["10:00-18:00"], "star": 3.95, "review": 11}, {"name": "利久堂", "address": "山形県上山市新丁7-12", "lat": 38.16020391, "lon": 140.28187436, "category": "和菓子店", "category_id": "0101310", "time": ["08:30-18:00"], "star": 4.01, "review": 17}, {"name": "かかし茶屋", "address": "山形県上山市元城内3-7", "lat": 38.157502274611, "lon": 140.27620871808, "category": "食料品卸売業", "category_id": "0502722", "time": ["09:00-16:45"], "star": 3.54, "review": 10}, {"name": "珈琲ベルセゾン", "address": "山形県上山市北町本丁3-12", "lat": 38.15974564, "lon": 140.2822749, "category": "カフェ・喫茶", "category_id": "0100344", "time": [], "star": 0.0, "review": 0}, {"name": "マクドナルド 上山ヨークタウン店", "address": "山形県上山市仙石梅ノ木780-1", "lat": 38.1511618, "lon": 140.2885132, "category": "ハンバーガー店", "category_id": "0100722", "time": ["08:00-23:00"], "star": 3.95, "review": 74}], "ドラッグストア": [{"name": "ツルハドラッグ 上山店", "address": "山形県上山市長清水1丁目2-16", "lat": 38.14681756, "lon": 140.27736729, "category": "ドラッグストア", "category_id": "0200699", "time": ["08:00-22:00"], "star": 4.38, "review": 8}, {"name": "ドラッグヤマザワ 上山店", "address": "山形県上山市矢来3-7-23", "lat": 38.1506781, "lon": 140.2735729, "category": "ドラッグストア", "category_id": "0200699", "time": ["09:30-20:30"], "star": 4.25, "review": 2}, {"name": "サンドラッグ上山店", "address": "山形県上山市仙石字梅ノ木778-1 ", "lat": 38.15210338, "lon": 140.2888881, "category": "ドラッグストア", "category_id": "0200699", "time": ["09:30-21:00"], "star": 3.9, "review": 26}, {"name": "クオール薬局上山店", "address": "山形県上山市八日町4ー26", "lat": 38.15436395, "lon": 140.2781944, "category": "薬局・薬店関連", "category_id": "0202317", "time": ["09:00-18:00"], "star": 0.0, "review": 0}, {"name": "フジヤ薬店", "address": "山形県上山市十日町10-6", "lat": 38.15821797, "lon": 140.27923554, "category": "ドラッグストア", "category_id": "0200699", "time": [], "star": 0.0, "review": 0}, {"name": "コスモファーマ薬局 コスモ調剤薬局 かみのやま矢来店", "address": "山形県上山市矢来3-7-32-15", "lat": 38.15027676, "lon": 140.2728444, "category": "調剤薬局", "category_id": "0202315", "time": ["09:00-18:00"], "star": 0.0, "review": 0}, {"name": "かみのやま調剤薬局美咲町店", "address": "山形県上山市美咲町2丁目3-11", "lat": 38.15262844, "lon": 140.28214443, "category": "調剤薬局", "category_id": "0202315", "time": [], "star": 0.0, "review": 0}, {"name": "すずらん薬局", "address": "山形県上山市八日町2-20", "lat": 38.15394448, "lon": 140.27780072, "category": "調剤薬局", "category_id": "0202315", "time": [], "star": 0.0, "review": 0}, {"name": "ヤマザワ調剤薬局 上山店", "address": "山形県上山市沢丁6-5", "lat": 38.15598894, "lon": 140.27452582, "category": "調剤薬局", "category_id": "0202315", "time": ["09:00-18:00"], "star": 0.0, "review": 1}, {"name": "有限会社浜田薬局", "address": "山形県上山市矢来1丁目5-3", "lat": 38.1527602, "lon": 140.27647165, "category": "漢方", "category_id": "0201946", "time": [], "star": 0.0, "review": 0}, {"name": "松本薬局", "address": "山形県上山市新湯1-7", "lat": 38.15623195, "lon": 140.27397169, "category": "調剤薬局", "category_id": "0202315", "time": [], "star": 0.0, "review": 0}, {"name": "のぞみ調剤薬局", "address": "山形県上山市金生1丁目14-8", "lat": 38.15082095, "lon": 140.2855479, "category": "調剤薬局", "category_id": "0202315", "time": [], "star": 0.0, "review": 0}, {"name": "ひまわり薬局", "address": "山形県上山市河崎1丁目2-38", "lat": 38.14969341, "lon": 140.27023969, "category": "調剤薬局", "category_id": "0202315", "time": ["09:00-18:30"], "star": 0.0, "review": 0}, {"name": "救済堂薬局上山店", "address": "山形県上山市十日町7-2", "lat": 38.15745887, "lon": 140.27823261, "category": "調剤薬局", "category_id": "0202315", "time": ["09:00-12:30"], "star": 0.0, "review": 0}, {"name": "アクロスプラザ ヨークタウン上山", "address": "山形県上山市仙石元糸目913", "lat": 38.1518423, "lon": 140.2881715, "category": "ショッピングセンター・モール", "category_id": "0200537", "time": [], "star": 4.19, "review": 8}, {"name": "有限会社黒田薬局", "address": "山形県上山市十日町6-8", "lat": 38.15708864, "lon": 140.27832651, "category": "漢方", "category_id": "0201946", "time": [], "star": 0.0, "review": 0}], "ATM": [{"name": "きらやか銀行 上山支店", "address": "山形県上山市矢来1-2-8", "lat": 38.1530336, "lon": 140.2784528, "category": "銀行", "category_id": "0402596", "time": ["09:00-15:00"], "star": 2.5, "review": 1}, {"name": "きらやか銀行 ATM おーばん上山店", "address": "山形県上山市美咲町2-3-8", "lat": 38.1521336, "lon": 140.282059, "category": "ATM", "category_id": "0402785", "time": [], "star": 0.0, "review": 0}, {"name": "ゆうちょ銀行 ATM 上山郵便局", "address": "山形県上山市八日町1-5", "lat": 38.1537816, "lon": 140.27827, "category": "ATM", "category_id": "0402785", "time": [], "star": 0.0, "review": 0}, {"name": "山形銀行 ATM おーばん上山店", "address": "山形県上山市美咲町2-3-8", "lat": 38.1524878, "lon": 140.281417, "category": "ATM", "category_id": "0402785", "time": [], "star": 0.0, "review": 0}, {"name": "山形銀行 ATM 上山支店", "address": "山形県上山市二日町10-25", "lat": 38.154856, "lon": 140.275807, "category": "ATM", "category_id": "0402785", "time": [], "star": 0.0, "review": 0}, {"name": "山形銀行 上山支店", "address": "山形県上山市二日町10-25", "lat": 38.1548861, "lon": 140.2757585, "category": "銀行", "category_id": "0402596", "time": ["09:00-15:00"], "star": 0.0, "review": 0}, {"name": "荘内銀行 上山支店", "address": "山形県上山市十日町2-4", "lat": 38.1555499, "lon": 140.276239, "category": "銀行", "category_id": "0402596", "time": ["09:00-15:00"], "star": 3.67, "review": 2}, {"name": "山形銀行 ATM ヤマザワ上山店", "address": "山形県上山市矢来3-7-23", "lat": 38.1507295, "lon": 140.273448, "category": "ATM", "category_id": "0402785", "time": [], "star": 0.0, "review": 0}, {"name": "きらやか銀行 上山中央支店（上山支店内）", "address": "山形県上山市矢来1-2-8", "lat": 38.1530669, "lon": 140.2784667, "category": "銀行", "category_id": "0402596", "time": [], "star": 0.0, "review": 0}, {"name": "荘内銀行 ATM 上山支店", "address": "山形県上山市十日町2-4", "lat": 38.1555502, "lon": 140.27624, "category": "ATM", "category_id": "0402785", "time": [], "star": 0.0, "review": 0}, {"name": "きらやか銀行 ATM 上山支店", "address": "山形県上山市矢来1-2-8", "lat": 38.1531135, "lon": 140.278459, "category": "ATM", "category_id": "0402785", "time": [], "star": 0.0, "review": 0}, {"name": "JAバンク 山形農業協同組合(JAやまがた)上山北支店", "address": "山形県上山市東町8-20", "lat": 38.1515728, "lon": 140.2862133, "category": "銀行", "category_id": "0402596", "time": ["09:00-15:00"], "star": 4.5, "review": 0}, {"name": "ローソン銀行 上山駅前共同出張所", "address": "山形県上山市矢来1-2-6", "lat": 38.152849, "lon": 140.278317, "category": "ATM", "category_id": "0402785", "time": ["00:00-24:00"], "star": 0.0, "review": 0}, {"name": "山形銀行 ATM 上山市役所", "address": "山形県上山市河崎1-1-10", "lat": 38.149573, "lon": 140.267816, "category": "ATM", "category_id": "0402785", "time": [], "star": 0.0, "review": 0}, {"name": "ゆうちょ銀行 上山十日町郵便局", "address": "山形県上山市十日町2-17", "lat": 38.1562016, "lon": 140.276681, "category": "銀行", "category_id": "0402596", "time": [], "star": 0.0, "review": 1}, {"name": "ゆうちょ銀行 上山郵便局", "address": "山形県上山市八日町1-5", "lat": 38.1537816, "lon": 140.27827, "category": "銀行", "category_id": "0402596", "time": [], "star": 0.0, "review": 0}, {"name": "JAバンク ATM 山形農業協同組合(JAやまがた)上山北支店", "address": "山形県上山市東町8-20", "lat": 38.1516004, "lon": 140.286259, "category": "ATM", "category_id": "0402785", "time": [], "star": 0.0, "review": 0}, {"name": "ゆうちょ銀行 ATM 上山十日町郵便局", "address": "山形県上山市十日町2-17", "lat": 38.1562016, "lon": 140.276681, "category": "ATM", "category_id": "0402785", "time": [], "star": 0.0, "review": 0}, {"name": "ろうきん ATM 東北労働金庫 上山支店", "address": "山形県上山市栄町2-6-2", "lat": 38.1573894, "lon": 140.281183, "category": "ATM", "category_id": "0402785", "time": [], "star": 0.0, "review": 0}, {"name": "荘内銀行 ATM ヨークベニマル上山店出張所", "address": "山形県上山市仙石元糸目913", "lat": 38.1522843, "lon": 140.288258, "category": "ATM", "category_id": "0402785", "time": [], "star": 0.0, "review": 0}], "銭湯 温泉": [{"name": "下大湯共同浴場", "address": "山形県上山市十日町9-30", "lat": 38.15834071, "lon": 140.2784145, "category": "日帰り入浴", "category_id": "0401679", "time": ["06:30-22:00"], "star": 4.28, "review": 17}, {"name": "名人のゆ", "address": "山形県上山市湯町4", "lat": 38.160673107304, "lon": 140.27685034907, "category": "日帰り入浴", "category_id": "0401679", "time": ["10:00-18:00"], "star": 3.95, "review": 11}, {"name": "澤のゆ", "address": "山形県上山市新湯5-13", "lat": 38.15749342, "lon": 140.27204875, "category": "日帰り入浴", "category_id": "0401679", "time": ["15:00-21:00"], "star": 0.0, "review": 1}, {"name": "仙渓園 月岡ホテル", "address": "山形県上山市新湯1-33", "lat": 38.1581412, "lon": 140.2732641, "category": "温泉", "category_id": "0401677", "time": ["17:30-20:30"], "star": 4.08, "review": 95}, {"name": "二日町共同浴場", "address": "山形県上山市二日町5-21-6", "lat": 38.15388751, "lon": 140.27423624, "category": "日帰り入浴", "category_id": "0401679", "time": ["06:30-21:30"], "star": 0.0, "review": 0}, {"name": "お部屋食と温泉貸切風呂くつろぎの宿 有馬館", "address": "山形県上山市新湯6-5", "lat": 38.1578939, "lon": 140.2723087, "category": "旅館", "category_id": "0301676", "time": ["08:00-21:00"], "star": 4.21, "review": 52}, {"name": "日帰り入浴 月岡ホテル", "address": "山形県上山市新湯1-33", "lat": 38.1581412, "lon": 140.2732641, "category": "日帰り入浴", "category_id": "0401679", "time": ["15:00-21:00"], "star": 0.0, "review": 0}, {"name": "日帰り入浴 ホテル山内", "address": "山形県上山市湯町4-10", "lat": 38.16079176, "lon": 140.27650538, "category": "日帰り入浴", "category_id": "0401679", "time": [], "star": 0.0, "review": 0}, {"name": "日帰り入浴 ふぢ金旅館", "address": "山形県上山市湯町4-1", "lat": 38.16077316, "lon": 140.2766362, "category": "日帰り入浴", "category_id": "0401679", "time": [], "star": 0.0, "review": 0}], "スーパーマーケット": [{"name": "おーばん 上山店", "address": "山形県上山市美咲町二丁目３－８", "lat": 38.15204767, "lon": 140.2821442, "category": "スーパー", "category_id": "0200612", "time": ["09:30-21:30"], "star": 4.09, "review": 50}, {"name": "ヤマザワ 上山店", "address": "山形県上山市矢来3-7-23", "lat": 38.150667, "lon": 140.2735312, "category": "スーパー", "category_id": "0200612", "time": ["09:30-21:00"], "star": 3.74, "review": 35}, {"name": "ヨークベニマル 上山店", "address": "山形県上山市仙石元糸目913", "lat": 38.15237, "lon": 140.2882715, "category": "スーパー", "category_id": "0200612", "time": ["09:30-22:00"], "star": 3.95, "review": 58}, {"name": "大和屋", "address": "山形県上山市十日町1-7", "lat": 38.15550545, "lon": 140.27700839, "category": "スーパー", "category_id": "0200612", "time": ["09:30-17:30"], "star": 0.0, "review": 0}, {"name": "株式会社マルソウたかはし", "address": "山形県上山市十日町4-5", "lat": 38.15647979, "lon": 140.27727276, "category": "青果店", "category_id": "0202677", "time": [], "star": 4.3, "review": 7}, {"name": "アクロスプラザ ヨークタウン上山", "address": "山形県上山市仙石元糸目913", "lat": 38.1518423, "lon": 140.2881715, "category": "ショッピングセンター・モール", "category_id": "0200537", "time": [], "star": 4.19, "review": 8}, {"name": "篠原精肉店", "address": "山形県上山市新丁4-10", "lat": 38.15939149, "lon": 140.2810817, "category": "精肉店", "category_id": "0202152", "time": ["10:00-18:00", "19:00-21:00"], "star": 4.01, "review": 9}]}, "top_restaurant": {"name": "BEARS caffe", "category": "カフェ・喫茶", "star": 4.83, "review": 2}}, {"name": "さくらんぼ東根", "name_en": "Sakurambo-Higashine", "lat": 38.4285068, "lon": 140.3810129, "osm_id": 6126772553, "operator": "", "railway": "station", "wikidata": "Q742572", "wikipedia_tag": "ja:さくらんぼ東根駅", "lines": ["奥羽本線", "山形新幹線"], "pref": "山形県", "wikipedia_text": "さくらんぼ東根駅（さくらんぼひがしねえき）は、山形県東根市さくらんぼ駅前1丁目にある、東日本旅客鉄道（JR東日本）の奥羽本線（山形線）の駅。", "wikipedia_image": "https://upload.wikimedia.org/wikipedia/commons/0/05/JR_East_Sakurambohigashine_Station_East_Exit%2C_Yamagata_Pref.jpg", "nearest_convenience": {"name": "ファミリーマート", "lat": 38.4280571, "lon": 140.3825202, "address": "", "distance_m": 140, "brand": "ファミリーマート"}, "nearest_restaurant": {"name": "昭和ホルモン亭 さくらんぼ東根駅前店", "lat": 38.4295324, "lon": 140.3825067, "address": "", "distance_m": 173, "cuisine": ""}, "nearby_pois": {"コンビニ": [{"name": "ローソン 東根蟹沢南", "address": "山形県東根市蟹沢字三本檀1633-1", "lat": 38.4299097, "lon": 140.3767262, "category": "コンビニ", "category_id": "0200487", "time": ["00:00-24:00"], "star": 4.35, "review": 5}, {"name": "ファミリーマート さくらんぼ東根駅前店", "address": "山形県東根市さくらんぼ駅前1-9-6", "lat": 38.4280628, "lon": 140.3824818, "category": "コンビニ", "category_id": "0200487", "time": ["00:00-24:00"], "star": 3.88, "review": 21}, {"name": "セブンイレブン 東根蟹沢", "address": "山形県東根市一本木2-1-1", "lat": 38.4255881, "lon": 140.3829735, "category": "コンビニ", "category_id": "0200487", "time": ["00:00-24:00"], "star": 3.75, "review": 18}, {"name": "ローソン 東根大森二丁目", "address": "山形県東根市大森2-3-20", "lat": 38.4303598, "lon": 140.3836652, "category": "コンビニ", "category_id": "0200487", "time": ["00:00-24:00"], "star": 3.88, "review": 8}, {"name": "セブンイレブン 東根蟹沢南", "address": "山形県東根市大字蟹沢下縄目字1929-1", "lat": 38.4266239, "lon": 140.3750315, "category": "コンビニ", "category_id": "0200487", "time": ["00:00-24:00"], "star": 3.84, "review": 12}, {"name": "ローソン 東根市役所前", "address": "山形県東根市中央2-1-16", "lat": 38.4306265, "lon": 140.3892651, "category": "コンビニ", "category_id": "0200487", "time": ["00:00-24:00"], "star": 4.11, "review": 7}, {"name": "ローソン 東根中央", "address": "山形県東根市中央3-2-2", "lat": 38.4353427, "lon": 140.3882763, "category": "コンビニ", "category_id": "0200487", "time": ["00:00-24:00"], "star": 4.47, "review": 7}, {"name": "スーパーホテル山形・さくらんぼ東根駅前", "address": "山形県東根市さくらんぼ駅前2-17-21", "lat": 38.4284212, "lon": 140.3851374, "category": "ビジネスホテル", "category_id": "0300758", "time": [], "star": 4.31, "review": 43}, {"name": "セーブオン 東根中央店", "address": "山形県東根市中央3丁目2-1", "lat": 38.4353723, "lon": 140.3883175, "category": "コンビニ", "category_id": "0200487", "time": [], "star": 0.0, "review": 0}], "ラーメン": [{"name": "らーめんちゃあみい", "address": "山形県東根市さくらんぼ駅前3-10-28", "lat": 38.42705601, "lon": 140.38306706, "category": "ラーメン店", "category_id": "0100097", "time": ["11:00-15:00", "17:00-23:30"], "star": 3.56, "review": 23}, {"name": "らーめんりんりん", "address": "山形県東根市蟹沢1926-4", "lat": 38.42726162, "lon": 140.3745723, "category": "ラーメン店", "category_id": "0100097", "time": ["11:00-18:00"], "star": 3.46, "review": 11}, {"name": "麺sきっちん", "address": "山形県東根市さくらんぼ駅前3-9-2", "lat": 38.42663945, "lon": 140.38565209, "category": "ラーメン店", "category_id": "0100097", "time": ["07:00-09:00", "11:00-14:00"], "star": 3.62, "review": 20}, {"name": "二代目高橋商店", "address": "山形県東根市中央2-11-7-112 1F", "lat": 38.431300417168, "lon": 140.38990370173, "category": "ラーメン店", "category_id": "0100097", "time": ["10:00-17:00"], "star": 4.18, "review": 96}, {"name": "中華饅満月", "address": "山形県東根市四ツ家1-7-3", "lat": 38.433942651899, "lon": 140.38271221749, "category": "ラーメン店", "category_id": "0100097", "time": [], "star": 0.0, "review": 0}, {"name": "町田商店 東根店", "address": "山形県東根市さくらんぼ駅前2-13-3", "lat": 38.4287712, "lon": 140.38861789, "category": "ラーメン店", "category_id": "0100097", "time": ["11:00-24:00"], "star": 4.05, "review": 28}, {"name": "伊藤商店 山形東根店", "address": "山形県東根市中央2-12-8", "lat": 38.43279853, "lon": 140.38950737, "category": "ラーメン店", "category_id": "0100097", "time": ["07:00-15:00"], "star": 3.75, "review": 15}, {"name": "黒島食堂", "address": "山形県東根市中央２丁目１２-８-2", "lat": 38.43280409, "lon": 140.38957903, "category": "ラーメン店", "category_id": "0100097", "time": ["11:00-15:00"], "star": 4.05, "review": 5}, {"name": "らーめんさくらんぼ", "address": "山形県東根市大林2-4-37", "lat": 38.43659411, "lon": 140.38479453, "category": "ラーメン店", "category_id": "0100097", "time": ["11:00-14:00", "18:00-20:00"], "star": 3.15, "review": 11}, {"name": "幸楽苑 東根店", "address": "山形県東根市中央2-1-3", "lat": 38.4303371, "lon": 140.389257, "category": "ラーメン店", "category_id": "0100097", "time": ["10:00-22:00"], "star": 3.81, "review": 40}, {"name": "玉家", "address": "山形県東根市蟹沢1538-39", "lat": 38.43421914, "lon": 140.3727122, "category": "中華料理店", "category_id": "0100990", "time": ["11:00-14:30", "17:00-20:00"], "star": 2.93, "review": 9}, {"name": "ごはんどき 東根店", "address": "山形県東根市大字蟹沢字下縄目1885-5", "lat": 38.4278181, "lon": 140.374077, "category": "定食屋", "category_id": "0101441", "time": ["11:30-18:00"], "star": 3.4, "review": 2}, {"name": "町田商店東根店", "address": "山形県東根市さくらんぼ駅前2丁目13-3", "lat": 38.42904645, "lon": 140.38899316, "category": "家系ラーメン店", "category_id": "0102859", "time": [], "star": 4.0, "review": 1}, {"name": "そば処 東亭", "address": "山形県東根市さくらんぼ駅前1-7-19", "lat": 38.43020841, "lon": 140.38281129, "category": "蕎麦店", "category_id": "0100034", "time": ["11:00-15:00"], "star": 3.91, "review": 53}, {"name": "つるよしそば", "address": "山形県東根市蟹沢2201-3", "lat": 38.43323103, "lon": 140.37849618, "category": "蕎麦店", "category_id": "0100034", "time": ["11:00-17:00"], "star": 3.46, "review": 20}, {"name": "コーヒー屋おおもり", "address": "山形県東根市さくらんぼ駅前3-4-1", "lat": 38.42804898, "lon": 140.38455847, "category": "カフェ・喫茶", "category_id": "0100344", "time": ["10:00-21:00"], "star": 3.89, "review": 15}, {"name": "めん太郎　東根店", "address": "山形県東根市一本木2ー3ー9", "lat": 38.4249244, "lon": 140.38707351, "category": "うどん店", "category_id": "0100033", "time": ["11:30-15:00", "16:00-17:30"], "star": 0.0, "review": 0}, {"name": "丸亀製麺 東根", "address": "山形県東根市大字蟹沢字上縄目1800-5", "lat": 38.4280127, "lon": 140.376501, "category": "讃岐うどん店", "category_id": "0102952", "time": ["10:30-21:00"], "star": 3.77, "review": 15}], "飲食店": [{"name": "軽食喫茶つばさ", "address": "山形県東根市さくらんぼ駅前1-1-1 さくらんぼ東根駅タント館 1F", "lat": 38.428445937167, "lon": 140.3810686117, "category": "カフェ・喫茶", "category_id": "0100344", "time": ["08:30-20:00"], "star": 3.4, "review": 12}, {"name": "笑へい", "address": "山形県東根市蟹沢1646-7", "lat": 38.429763012673, "lon": 140.37802697682, "category": "焼き鳥店", "category_id": "0101960", "time": [], "star": 0.0, "review": 0}, {"name": "中華料理 食為天 東根店", "address": "山形県東根市さくらんぼ駅前3-8-3", "lat": 38.42651162717, "lon": 140.38637369168, "category": "中華料理店", "category_id": "0100990", "time": ["11:00-15:00", "17:00-23:00"], "star": 3.4, "review": 10}, {"name": "あじまん ヤマザワ さくらんぼ東根店", "address": "山形県東根市大字蟹沢字下縄目2293-1", "lat": 38.42230713717, "lon": 140.37790081164, "category": "たこ焼き店", "category_id": "0100134", "time": [], "star": 3.5, "review": 1}, {"name": "中華饅満月", "address": "山形県東根市四ツ家1-7-3", "lat": 38.433942651899, "lon": 140.38271221749, "category": "ラーメン店", "category_id": "0100097", "time": [], "star": 0.0, "review": 0}, {"name": "パパ&ママ", "address": "山形県東根市大字蟹沢1646-33", "lat": 38.429864487165, "lon": 140.37880349172, "category": "洋食店", "category_id": "0100129", "time": ["11:30-14:30", "17:30-21:00"], "star": 4.05, "review": 24}, {"name": "コーヒー屋おおもり", "address": "山形県東根市さくらんぼ駅前3-4-1", "lat": 38.42804898, "lon": 140.38455847, "category": "カフェ・喫茶", "category_id": "0100344", "time": ["10:00-21:00"], "star": 3.89, "review": 15}, {"name": "そば処 東亭", "address": "山形県東根市さくらんぼ駅前1-7-19", "lat": 38.43020841, "lon": 140.38281129, "category": "蕎麦店", "category_id": "0100034", "time": ["11:00-15:00"], "star": 3.91, "review": 53}, {"name": "居酒屋わ", "address": "山形県東根市さくらんぼ駅前2-5-20", "lat": 38.42890056, "lon": 140.38541931, "category": "居酒屋", "category_id": "0101495", "time": ["18:00-23:00"], "star": 3.62, "review": 18}, {"name": "目利きの銀次 さくらんぼ東根東口駅前店", "address": "山形県東根市さくらんぼ駅前2-1-7第二柴田ビル 1～2F", "lat": 38.42912, "lon": 140.383567, "category": "シーフード・海鮮料理店", "category_id": "0100542", "time": ["17:00-24:00"], "star": 3.56, "review": 15}, {"name": "ペコリーノ スペリオーレ", "address": "山形県東根市さくらんぼ駅前2-7-19", "lat": 38.429508427168, "lon": 140.38601967171, "category": "イタリア料理店", "category_id": "0100263", "time": ["11:30-14:30", "17:30-21:00"], "star": 4.05, "review": 22}, {"name": "魚民 さくらんぼ東根東口駅前店", "address": "山形県東根市さくらんぼ駅前2-1-6柴田ビル　１Ｆ", "lat": 38.429057, "lon": 140.383364, "category": "居酒屋", "category_id": "0101495", "time": ["17:00-27:00"], "star": 3.73, "review": 19}, {"name": "コーヒーハウス・ドリップ", "address": "山形県東根市一本木1-2-10", "lat": 38.42493569, "lon": 140.38222038, "category": "カフェ・喫茶", "category_id": "0100344", "time": ["10:00-20:00"], "star": 3.73, "review": 9}, {"name": "鷹月", "address": "山形県東根市一本木2-7-21", "lat": 38.42473211, "lon": 140.38270041, "category": "居酒屋", "category_id": "0101495", "time": ["17:30-22:00"], "star": 3.92, "review": 5}, {"name": "実の房・居食家", "address": "山形県東根市中央2-3-30", "lat": 38.43065732, "lon": 140.38603296, "category": "居酒屋", "category_id": "0101495", "time": [], "star": 3.55, "review": 6}, {"name": "ミスタードーナツ イオン東根", "address": "山形県東根市さくらんぼ駅前3-7-15", "lat": 38.4269797, "lon": 140.3875707, "category": "ドーナツ店", "category_id": "0100701", "time": ["09:00-21:00"], "star": 4.12, "review": 32}, {"name": "ペコリーノ", "address": "山形県東根市さくらんぼ駅前2丁目7-19", "lat": 38.42949773, "lon": 140.38600738, "category": "洋食店", "category_id": "0100129", "time": [], "star": 4.0, "review": 1}, {"name": "竈煙 心月", "address": "山形県東根市さくらんぼ駅前2-13-7", "lat": 38.42916227, "lon": 140.38862956, "category": "和食店", "category_id": "0100126", "time": ["11:30-14:00", "17:30-22:00"], "star": 3.75, "review": 13}, {"name": "やきとり与次郎", "address": "山形県東根市四ツ家1-1-18", "lat": 38.43204155, "lon": 140.38344497, "category": "焼き鳥店", "category_id": "0101960", "time": ["17:00-23:00"], "star": 4.53, "review": 12}, {"name": "昭和ホルモン亭 さくらんぼ東根駅前店", "address": "山形県東根市さくらんぼ駅前1-7-24", "lat": 38.429569, "lon": 140.382516, "category": "ホルモン焼肉店", "category_id": "0100859", "time": ["17:00-25:00"], "star": 3.66, "review": 10}], "カフェ": [{"name": "軽食喫茶つばさ", "address": "山形県東根市さくらんぼ駅前1-1-1 さくらんぼ東根駅タント館 1F", "lat": 38.428445937167, "lon": 140.3810686117, "category": "カフェ・喫茶", "category_id": "0100344", "time": ["08:30-20:00"], "star": 3.4, "review": 12}, {"name": "コーヒー屋おおもり", "address": "山形県東根市さくらんぼ駅前3-4-1", "lat": 38.42804898, "lon": 140.38455847, "category": "カフェ・喫茶", "category_id": "0100344", "time": ["10:00-21:00"], "star": 3.89, "review": 15}, {"name": "コーヒーハウス・ドリップ", "address": "山形県東根市一本木1-2-10", "lat": 38.42493569, "lon": 140.38222038, "category": "カフェ・喫茶", "category_id": "0100344", "time": ["10:00-20:00"], "star": 3.73, "review": 9}, {"name": "オイッティマルシャン", "address": "山形県東根市中央南1-7-3 まなびあテラス", "lat": 38.428411436364, "lon": 140.39008971053, "category": "イタリア料理店", "category_id": "0100263", "time": ["09:00-21:30"], "star": 4.07, "review": 23}, {"name": "未来食屋", "address": "山形県東根市一本木3-8-24", "lat": 38.42243598, "lon": 140.38217763, "category": "カレー店", "category_id": "0100359", "time": ["11:00-14:00", "17:00-20:00"], "star": 4.07, "review": 12}, {"name": "ミスタードーナツ イオン東根", "address": "山形県東根市さくらんぼ駅前3-7-15", "lat": 38.4269797, "lon": 140.3875707, "category": "ドーナツ店", "category_id": "0100701", "time": ["09:00-21:00"], "star": 4.12, "review": 32}, {"name": "麺sきっちん", "address": "山形県東根市さくらんぼ駅前3-9-2", "lat": 38.42663945, "lon": 140.38565209, "category": "ラーメン店", "category_id": "0100097", "time": ["07:00-09:00", "11:00-14:00"], "star": 3.62, "review": 20}, {"name": "サーティワンアイスクリーム イオン東根店", "address": "山形県東根市さくらんぼ駅前三丁目７番１５号 イオン新東根店", "lat": 38.427049, "lon": 140.38733, "category": "アイスクリーム店", "category_id": "0100226", "time": ["10:00-19:00"], "star": 4.17, "review": 16}, {"name": "サイゼリヤ イオン東根店", "address": "山形県東根市さくらんぼ駅前3-7-15 イオン東根店1Ｆ", "lat": 38.426816, "lon": 140.386671, "category": "ファミリーレストラン", "category_id": "0100788", "time": ["11:00-22:00"], "star": 4.07, "review": 51}], "ドラッグストア": [{"name": "サンドラッグ さくらんぼ東根駅前店", "address": "山形県東根市さくらんぼ駅前２－１６－２５", "lat": 38.42889614, "lon": 140.38642624, "category": "ドラッグストア", "category_id": "0200699", "time": ["09:00-21:30"], "star": 3.83, "review": 5}, {"name": "ウエルシア東根中央店", "address": "山形県東根市中央2-1-25", "lat": 38.430851, "lon": 140.389605, "category": "ドラッグストア", "category_id": "0200699", "time": ["08:00-24:00"], "star": 4.36, "review": 14}, {"name": "カワチ薬品 東根店", "address": "山形県東根市中央南2-1-27", "lat": 38.4265993, "lon": 140.3895623, "category": "ドラッグストア", "category_id": "0200699", "time": ["09:00-21:00"], "star": 3.19, "review": 63}, {"name": "ツルハドラッグ 東根中央店", "address": "山形県東根市さくらんぼ駅前2丁目14番17号", "lat": 38.4282407, "lon": 140.38838455, "category": "ドラッグストア", "category_id": "0200699", "time": ["09:00-22:30"], "star": 4.57, "review": 10}, {"name": "調剤薬局ツルハドラッグ 東根中央店", "address": "山形県東根市さくらんぼ駅前2丁目14番17号", "lat": 38.4282407, "lon": 140.38838455, "category": "調剤薬局", "category_id": "0202315", "time": ["09:00-22:30"], "star": 4.42, "review": 11}, {"name": "サンドラッグ さくらんぼ東根駅前薬局店", "address": "山形県東根市さくらんぼ駅前２－１６－２５", "lat": 38.42889614, "lon": 140.38642624, "category": "ドラッグストア", "category_id": "0200699", "time": [], "star": 0.0, "review": 0}, {"name": "イオン薬局東根店", "address": "山形県東根市さくらんぼ駅前3丁目7-15", "lat": 38.4269186, "lon": 140.3876663, "category": "調剤薬局", "category_id": "0202315", "time": ["09:00-19:00"], "star": 0.0, "review": 0}, {"name": "ゆうき薬局", "address": "山形県東根市さくらんぼ駅前1丁目7-14", "lat": 38.43056814, "lon": 140.38287306, "category": "調剤薬局", "category_id": "0202315", "time": [], "star": 0.0, "review": 0}, {"name": "マリーングループ ブナの森調剤薬局 東根店", "address": "山形県東根市さくらんぼ駅前2-17-7", "lat": 38.42856976, "lon": 140.38503014, "category": "調剤薬局", "category_id": "0202315", "time": ["09:00-13:00"], "star": 0.0, "review": 0}, {"name": "有限会社ゆうき薬局", "address": "山形県東根市さくらんぼ駅前1丁目7-14", "lat": 38.43038645, "lon": 140.38300158, "category": "調剤薬局", "category_id": "0202315", "time": [], "star": 0.0, "review": 0}, {"name": "ユニスマイル薬局 ひがしね店", "address": "山形県東根市さくらんぼ駅前2丁目10-3 ", "lat": 38.42896282, "lon": 140.38734012, "category": "医療・薬・保険衛生関連", "category_id": "0401237", "time": ["09:00-18:00"], "star": 0.0, "review": 0}, {"name": "あくあ調剤薬局", "address": "山形県東根市さくらんぼ駅前2丁目13-3", "lat": 38.42878036, "lon": 140.38862372, "category": "調剤薬局", "category_id": "0202315", "time": [], "star": 0.0, "review": 0}, {"name": "さくらんぼ薬局", "address": "山形県東根市一本木2丁目5-17", "lat": 38.42271631, "lon": 140.38585412, "category": "調剤薬局", "category_id": "0202315", "time": [], "star": 0.0, "review": 0}, {"name": "けやき薬局東根店", "address": "山形県東根市大森2丁目1-1", "lat": 38.43000718, "lon": 140.38916651, "category": "調剤薬局", "category_id": "0202315", "time": [], "star": 0.0, "review": 0}], "ATM": [{"name": "銀行ATM イーネット ファミリーマートさくらんぼ東根駅前 共同出張所", "address": "山形県東根市さくらんぼ駅前1-9-6 ", "lat": 38.42807949, "lon": 140.38248731, "category": "ATM", "category_id": "0402785", "time": ["00:00-24:00"], "star": 0.0, "review": 0}, {"name": "山形銀行 ATM 東根支店", "address": "山形県東根市中央2-1-10", "lat": 38.4305932, "lon": 140.3881929, "category": "銀行", "category_id": "0402596", "time": [], "star": 4.25, "review": 0}, {"name": "荘内銀行 東根支店", "address": "山形県東根市さくらんぼ駅前2-17-19", "lat": 38.4285378, "lon": 140.3858124, "category": "銀行", "category_id": "0402596", "time": ["09:00-15:00"], "star": 0.0, "review": 0}, {"name": "山形銀行 ATM イオン東根店", "address": "山形県東根市さくらんぼ駅前3-7-15", "lat": 38.4271443, "lon": 140.387246, "category": "ATM", "category_id": "0402785", "time": [], "star": 0.0, "review": 0}, {"name": "きらやか銀行 ATM イオン東根店", "address": "山形県東根市さくらんぼ駅前3-7-15", "lat": 38.4267583, "lon": 140.387007, "category": "ATM", "category_id": "0402785", "time": [], "star": 0.0, "review": 0}, {"name": "山形銀行 ATM ヤマザワさくらんぼ東根店", "address": "山形県東根市大字蟹沢字下縄目2293-1", "lat": 38.427574, "lon": 140.375064, "category": "ATM", "category_id": "0402785", "time": [], "star": 0.0, "review": 0}, {"name": "株式会社荘内銀行 楯岡支店", "address": "山形県東根市さくらんぼ駅前2-17-19(東根支店内)", "lat": 38.42847255400478, "lon": 140.3859097136697, "category": "銀行", "category_id": "0402596", "time": [], "star": 0.0, "review": 0}, {"name": "山形銀行 ATM 東根市役所", "address": "山形県東根市中央1-1-1", "lat": 38.4317466, "lon": 140.39099, "category": "ATM", "category_id": "0402785", "time": [], "star": 0.0, "review": 0}, {"name": "山形銀行 東根支店", "address": "山形県東根市中央2-1-10", "lat": 38.4305765, "lon": 140.3881957, "category": "銀行", "category_id": "0402596", "time": ["09:00-15:00"], "star": 0.0, "review": 0}, {"name": "セブン銀行 東根蟹沢店", "address": "山形県東根市一本木2-1-1", "lat": 38.4255849, "lon": 140.382991, "category": "ATM", "category_id": "0402785", "time": ["00:00-24:00"], "star": 0.0, "review": 0}, {"name": "イオン銀行 ATM イオン東根店第二出張所(ATMコーナー)", "address": "山形県東根市さくらんぼ駅前3-7-15", "lat": 38.4271476, "lon": 140.387428, "category": "ATM", "category_id": "0402785", "time": ["08:00-22:00"], "star": 0.0, "review": 0}, {"name": "イオン銀行 ATM イオン東根店出張所(1F 工業団地側入口付近エレベーター横)", "address": "山形県東根市さくらんぼ駅前3-7-15", "lat": 38.4271544, "lon": 140.387552, "category": "ATM", "category_id": "0402785", "time": ["08:00-22:00"], "star": 0.0, "review": 0}, {"name": "ろうきん ATM 東北労働金庫 東根市役所", "address": "山形県東根市中央1-1-1", "lat": 38.4313855, "lon": 140.390945, "category": "ATM", "category_id": "0402785", "time": [], "star": 4.5, "review": 0}, {"name": "セブン銀行 東根蟹沢南店", "address": "山形県東根市大字蟹沢下縄目字1929-1", "lat": 38.4265974, "lon": 140.375091, "category": "ATM", "category_id": "0402785", "time": ["00:00-24:00"], "star": 0.0, "review": 0}, {"name": "ゆうちょ銀行 ATM イオン東根店内出張所", "address": "山形県東根市さくらんぼ駅前3-7-15 1F ATMコーナー", "lat": 38.427163, "lon": 140.387554, "category": "ATM", "category_id": "0402785", "time": [], "star": 0.0, "review": 0}, {"name": "みずほ銀行 ATM イオン東根店出張所", "address": "山形県東根市さくらんぼ駅前3-7-15", "lat": 38.4272725, "lon": 140.387278, "category": "ATM", "category_id": "0402785", "time": [], "star": 0.0, "review": 0}, {"name": "みずほ銀行 ATM イオン東根店第二出張所", "address": "山形県東根市さくらんぼ駅前3-7-15", "lat": 38.4272725, "lon": 140.387278, "category": "ATM", "category_id": "0402785", "time": [], "star": 0.0, "review": 0}, {"name": "ローソン銀行 東根大森二丁目共同出張所", "address": "山形県東根市大森2-3-20", "lat": 38.4304495, "lon": 140.383644, "category": "ATM", "category_id": "0402785", "time": ["00:00-24:00"], "star": 0.0, "review": 0}, {"name": "ローソン銀行 東根蟹沢南共同出張所", "address": "山形県東根市蟹沢1633-1", "lat": 38.4298857, "lon": 140.376811, "category": "ATM", "category_id": "0402785", "time": ["00:00-24:00"], "star": 0.0, "review": 0}, {"name": "新庄信用金庫 東根支店", "address": "山形県東根市さくらんぼ駅前2-12-1", "lat": 38.4298489, "lon": 140.389079, "category": "信用金庫", "category_id": "0401098", "time": [], "star": 0.0, "review": 0}], "スーパーマーケット": [{"name": "ヤマザワ さくらんぼ東根店", "address": "山形県東根市大字蟹沢字下縄目2293-1", "lat": 38.4273905, "lon": 140.3751982, "category": "スーパー", "category_id": "0200612", "time": ["09:30-22:00"], "star": 4.14, "review": 2}, {"name": "イオン 東根店", "address": "山形県東根市さくらんぼ駅前3-7-15", "lat": 38.4271408, "lon": 140.3875207, "category": "スーパー", "category_id": "0200612", "time": ["07:00-22:00"], "star": 4.0, "review": 42}, {"name": "イオン東根店 レストランイブ", "address": "山形県東根市さくらんぼ駅前3丁目7-15", "lat": 38.42708887, "lon": 140.38748753, "category": "スーパー", "category_id": "0200612", "time": [], "star": 4.75, "review": 1}, {"name": "業務スーパー 東根店", "address": "山形県東根市中央2-12-31", "lat": 38.4332874, "lon": 140.3906929, "category": "スーパー", "category_id": "0200612", "time": ["09:00-20:00"], "star": 3.97, "review": 46}, {"name": "イオン東根店 だがし夢や", "address": "山形県東根市さくらんぼ駅前3丁目7-15", "lat": 38.42708887, "lon": 140.38748753, "category": "スーパー", "category_id": "0200612", "time": [], "star": 0.0, "review": 0}, {"name": "イオン東根店 カバンのフジタ", "address": "山形県東根市さくらんぼ駅前3丁目7-15", "lat": 38.427094, "lon": 140.3874959, "category": "スーパー", "category_id": "0200612", "time": [], "star": 0.0, "review": 0}, {"name": "イオン東根店 セーター", "address": "山形県東根市さくらんぼ駅前3丁目7-15", "lat": 38.42708887, "lon": 140.38748753, "category": "スーパー", "category_id": "0200612", "time": [], "star": 3.77, "review": 1}, {"name": "イオン東根店 グレースマリー", "address": "山形県東根市さくらんぼ駅前3丁目7-15", "lat": 38.42708887, "lon": 140.38748753, "category": "スーパー", "category_id": "0200612", "time": [], "star": 0.0, "review": 0}, {"name": "イオン東根店 アップルハウス", "address": "山形県東根市さくらんぼ駅前3丁目7-15", "lat": 38.42708887, "lon": 140.38748753, "category": "スーパー", "category_id": "0200612", "time": [], "star": 0.0, "review": 0}, {"name": "イオン東根店 マルタ", "address": "山形県東根市さくらんぼ駅前3丁目7-15", "lat": 38.42708887, "lon": 140.38748753, "category": "スーパー", "category_id": "0200612", "time": [], "star": 0.0, "review": 0}, {"name": "ikkaイオン東根", "address": "山形県東根市さくらんぼ駅前3丁目7-15", "lat": 38.427132992432, "lon": 140.38750668945, "category": "スーパー", "category_id": "0200612", "time": [], "star": 0.0, "review": 0}, {"name": "イオン東根店 伊達乃里", "address": "山形県東根市さくらんぼ駅前3丁目7-15", "lat": 38.42708887, "lon": 140.38748753, "category": "スーパー", "category_id": "0200612", "time": [], "star": 0.0, "review": 0}, {"name": "イオン東根店 ニューステップ", "address": "山形県東根市さくらんぼ駅前3丁目7-15", "lat": 38.42708887, "lon": 140.38748753, "category": "スーパー", "category_id": "0200612", "time": [], "star": 0.0, "review": 0}, {"name": "イオン東根店 ブティックミキ", "address": "山形県東根市さくらんぼ駅前3丁目7-15", "lat": 38.42708887, "lon": 140.38748753, "category": "スーパー", "category_id": "0200612", "time": [], "star": 0.0, "review": 0}, {"name": "イオン東根店 ファナー", "address": "山形県東根市さくらんぼ駅前3丁目7-15", "lat": 38.42708887, "lon": 140.38748753, "category": "スーパー", "category_id": "0200612", "time": [], "star": 0.0, "review": 0}, {"name": "イオン東根店 グルメドール", "address": "山形県東根市さくらんぼ駅前3丁目7-15", "lat": 38.42708887, "lon": 140.38748753, "category": "スーパー", "category_id": "0200612", "time": [], "star": 0.0, "review": 0}, {"name": "イオン東根店 レディースカマタ", "address": "山形県東根市さくらんぼ駅前3丁目7-15", "lat": 38.42708887, "lon": 140.38748753, "category": "スーパー", "category_id": "0200612", "time": [], "star": 0.0, "review": 0}, {"name": "ケンタッキー フライドチキン イオン東根店", "address": "山形県東根市さくらんぼ駅前3-7-15", "lat": 38.4271269, "lon": 140.3875207, "category": "フライドチキン店", "category_id": "0102937", "time": ["10:00-21:00"], "star": 4.06, "review": 42}, {"name": "ハニーズ 東根店", "address": "山形県東根市さくらんぼ駅前3-7-15 イオン東根店 1F", "lat": 38.427088, "lon": 140.3874457, "category": "婦人服店", "category_id": "0200923", "time": [], "star": 3.75, "review": 2}, {"name": "マックハウス イオン東根店", "address": "山形県東根市さくらんぼ駅前3-7-15 イオン東根店 2F", "lat": 38.4272769, "lon": 140.3875373, "category": "衣料品店", "category_id": "0201401", "time": ["09:00-21:00"], "star": 4.33, "review": 0}]}, "top_restaurant": {"name": "やきとり与次郎", "category": "焼き鳥店", "star": 4.53, "review": 12}}, {"name": "中川", "name_en": "Nakagawa", "lat": 38.0934708, "lon": 140.2038087, "osm_id": 6126413702, "operator": "", "railway": "station", "wikidata": "Q1207396", "wikipedia_tag": "ja:中川駅 (山形県)", "lines": ["奥羽本線"], "pref": "山形県", "wikipedia_text": "中川駅（なかがわえき）", "nearest_restaurant": {"name": "だるまや", "lat": 38.0929467, "lon": 140.2015535, "address": "", "distance_m": 206, "cuisine": "japanese"}, "nearby_pois": {"ラーメン": [{"name": "一好食堂", "address": "山形県南陽市元中山146-6", "lat": 38.0995188, "lon": 140.20910302, "category": "定食屋", "category_id": "0101441", "time": ["11:15-14:45"], "star": 3.78, "review": 15}, {"name": "だるまや南陽店", "address": "山形県南陽市小岩沢34-10", "lat": 38.0929685, "lon": 140.20147361, "category": "飲食店", "category_id": "0102732", "time": [], "star": 0.0, "review": 1}], "飲食店": [{"name": "だるまや南陽店", "address": "山形県南陽市小岩沢34-10", "lat": 38.0929685, "lon": 140.20147361, "category": "飲食店", "category_id": "0102732", "time": [], "star": 0.0, "review": 1}, {"name": "一好食堂", "address": "山形県南陽市元中山146-6", "lat": 38.0995188, "lon": 140.20910302, "category": "定食屋", "category_id": "0101441", "time": ["11:15-14:45"], "star": 3.78, "review": 15}], "ATM": [{"name": "ゆうちょ銀行 小岩沢簡易郵便局", "address": "山形県南陽市小岩沢34-2", "lat": 38.0931453, "lon": 140.2018, "category": "銀行", "category_id": "0402596", "time": [], "star": 0.0, "review": 0}]}, "top_restaurant": {"name": "一好食堂", "category": "定食屋", "star": 3.78, "review": 15}}, {"name": "中郡", "name_en": "Chugun", "lat": 37.9690403, "lon": 140.0671656, "osm_id": 6125249153, "operator": "", "railway": "station", "wikidata": "Q5119017", "wikipedia_tag": "ja:中郡駅 (山形県)", "lines": [], "pref": "山形県", "wikipedia_text": "中郡駅（ちゅうぐんえき）は、山形県東置賜郡川西町時田（ときだ）にある、東日本旅客鉄道（JR東日本）米坂線の駅である。", "wikipedia_image": "https://upload.wikimedia.org/wikipedia/commons/d/d2/JR_East_Ch%C5%ABgun_Station_building%2C_Yamagata_Pref.jpg", "nearest_convenience": {"name": "ローソン 川西小松店", "lat": 38.0053034, "lon": 140.0447225, "address": "", "distance_m": 4486, "brand": ""}, "nearest_restaurant": {"name": "はしもと屋", "lat": 38.0027771, "lon": 140.0471924, "address": "", "distance_m": 4140, "cuisine": ""}, "nearby_pois": {"コンビニ": [{"name": "ファミリーマート 川西時田店", "address": "山形県東置賜郡川西町時田918-10", "lat": 37.9736271, "lon": 140.064183, "category": "コンビニ", "category_id": "0200487", "time": ["00:00-24:00"], "star": 4.3, "review": 2}], "飲食店": [{"name": "もち処 壽恒庵", "address": "山形県米沢市下小菅1067-2 山形県", "lat": 37.96252549, "lon": 140.06522801, "category": "郷土料理店", "category_id": "0100075", "time": ["11:00-14:00"], "star": 0.0, "review": 0}], "ATM": [{"name": "ゆうちょ銀行 ATM ファミリーマート川西時田店内出張所", "address": "山形県東置賜郡川西町時田918-10", "lat": 37.9736241, "lon": 140.06418, "category": "ATM", "category_id": "0402785", "time": [], "star": 0.0, "review": 0}, {"name": "ゆうちょ銀行 時田簡易郵便局", "address": "山形県東置賜郡川西町時田641", "lat": 37.9769382, "lon": 140.063722, "category": "銀行", "category_id": "0402596", "time": [], "star": 0.0, "review": 0}]}}, {"name": "乱川", "name_en": "Midaregawa", "lat": 38.3871854, "lon": 140.3748813, "osm_id": 6126772559, "operator": "", "railway": "station", "wikidata": "Q11370550", "wikipedia_tag": "ja:乱川駅", "lines": ["奥羽本線"], "pref": "山形県", "wikipedia_text": "乱川駅（みだれがわえき）は、山形県天童市大字乱川にある、東日本旅客鉄道（JR東日本）奥羽本線の駅である。「山形線」の愛称区間に含まれている。", "wikipedia_image": "https://upload.wikimedia.org/wikipedia/commons/2/2d/JR_East_Midaregawa_Station_Overall%2C_Yamagata_Pref.jpg", "nearest_convenience": {"name": "ファミリーマート 天童北久野本店", "lat": 38.3736863, "lon": 140.3738529, "address": "", "distance_m": 1504, "brand": ""}, "nearest_restaurant": {"name": "もとき食堂", "lat": 38.3971526, "lon": 140.3774316, "address": "", "distance_m": 1130, "cuisine": ""}, "nearby_pois": {"ラーメン": [{"name": "軽食 ひまわり ヤマザワ天童北店", "address": "山形県天童市乱川4-1-1 ヤマザワ天童北店", "lat": 38.382124677196, "lon": 140.37873057124, "category": "定食屋", "category_id": "0101441", "time": [], "star": 3.53, "review": 4}, {"name": "春日食堂", "address": "山形県天童市乱川1243-1", "lat": 38.38874532, "lon": 140.38076252, "category": "飲食店", "category_id": "0102732", "time": ["11:00-14:00", "17:00-19:00"], "star": 4.25, "review": 23}], "飲食店": [{"name": "軽食 ひまわり ヤマザワ天童北店", "address": "山形県天童市乱川4-1-1 ヤマザワ天童北店", "lat": 38.382124677196, "lon": 140.37873057124, "category": "定食屋", "category_id": "0101441", "time": [], "star": 3.53, "review": 4}, {"name": "春日食堂", "address": "山形県天童市乱川1243-1", "lat": 38.38874532, "lon": 140.38076252, "category": "飲食店", "category_id": "0102732", "time": ["11:00-14:00", "17:00-19:00"], "star": 4.25, "review": 23}, {"name": "小座間農園カフェ", "address": "山形県天童市乱川1278", "lat": 38.39089393719, "lon": 140.37907383133, "category": "カフェ・喫茶", "category_id": "0100344", "time": ["10:00-17:00"], "star": 4.31, "review": 5}, {"name": "手打ちそば 山里", "address": "山形県天童市乱川3-8-6", "lat": 38.3871413, "lon": 140.38054953, "category": "蕎麦店", "category_id": "0100034", "time": ["11:00-15:00"], "star": 3.91, "review": 13}, {"name": "やきとり夢屋 天童北店", "address": "山形県天童市乱川3-12-5", "lat": 38.38705794, "lon": 140.37858936, "category": "焼き鳥店", "category_id": "0101960", "time": ["17:00-23:00"], "star": 3.88, "review": 4}, {"name": "王様の焼肉くろぬま 天童店", "address": "山形県天童市乱川3-1-32", "lat": 38.38426, "lon": 140.378794, "category": "焼肉店", "category_id": "0101963", "time": ["11:30-14:30", "17:30-23:00"], "star": 3.96, "review": 28}, {"name": "万代もち", "address": "山形県天童市乱川1255-1", "lat": 38.39033545, "lon": 140.38080802, "category": "和食店", "category_id": "0100126", "time": [], "star": 3.76, "review": 5}, {"name": "大韓料理", "address": "山形県天童市乱川2丁目12-35", "lat": 38.3861871, "lon": 140.3781373, "category": "韓国料理店", "category_id": "0100518", "time": [], "star": 0.0, "review": 0}, {"name": "株式会社天童木工", "address": "山形県天童市乱川1丁目3-10", "lat": 38.3822484, "lon": 140.3766694, "category": "家具製造・卸売業", "category_id": "0501455", "time": [], "star": 4.67, "review": 3}, {"name": "浪漫亭", "address": "山形県天童市北久野本4丁目7-5-3", "lat": 38.3786157, "lon": 140.3779043, "category": "定食屋", "category_id": "0101441", "time": [], "star": 0.0, "review": 0}], "カフェ": [{"name": "小座間農園カフェ", "address": "山形県天童市乱川1278", "lat": 38.39089393719, "lon": 140.37907383133, "category": "カフェ・喫茶", "category_id": "0100344", "time": ["10:00-17:00"], "star": 4.31, "review": 5}], "ドラッグストア": [{"name": "クスリのアオキ 天童北店", "address": "山形県天童市北久野本3-2-28", "lat": 38.3792291, "lon": 140.3737016, "category": "ドラッグストア", "category_id": "0200699", "time": ["09:00-22:00"], "star": 4.6, "review": 0}, {"name": "ドラッグヤマザワ 天童北店", "address": "山形県天童市乱川4-1-1", "lat": 38.3821595, "lon": 140.3789262, "category": "ドラッグストア", "category_id": "0200699", "time": ["09:30-21:00"], "star": 3.5, "review": 3}, {"name": "ホープ薬局天童店", "address": "山形県天童市乱川3丁目2-3", "lat": 38.38483371, "lon": 140.37857527, "category": "調剤薬局", "category_id": "0202315", "time": ["09:00-18:00"], "star": 0.0, "review": 0}, {"name": "ヤマザワ 天童北店", "address": "山形県天童市乱川4-1-1", "lat": 38.3822623, "lon": 140.3789206, "category": "スーパー", "category_id": "0200612", "time": ["09:30-21:00"], "star": 3.95, "review": 26}, {"name": "マルマン調剤薬局", "address": "山形県天童市大字久野本362-4", "lat": 38.38097645, "lon": 140.38246297, "category": "調剤薬局", "category_id": "0202315", "time": [], "star": 0.0, "review": 0}], "ATM": [{"name": "ゆうちょ銀行 天童北久野本郵便局", "address": "山形県天童市北久野本3-3-10", "lat": 38.3788489, "lon": 140.374718, "category": "銀行", "category_id": "0402596", "time": ["09:00-17:00"], "star": 4.5, "review": 1}, {"name": "山形銀行 ATM ヤマザワ天童北店", "address": "山形県天童市乱川4-1-1", "lat": 38.3822613, "lon": 140.378941, "category": "ATM", "category_id": "0402785", "time": [], "star": 0.0, "review": 0}, {"name": "ゆうちょ銀行 ATM 天童北久野本郵便局", "address": "山形県天童市北久野本3-3-10", "lat": 38.3788489, "lon": 140.374718, "category": "ATM", "category_id": "0402785", "time": [], "star": 0.0, "review": 0}, {"name": "信用組合 北郡信用組合 天童支店", "address": "山形県天童市乱川2-4-6", "lat": 38.38473422, "lon": 140.37584238, "category": "信用組合", "category_id": "0401097", "time": [], "star": 0.0, "review": 0}], "スーパーマーケット": [{"name": "ヤマザワ 天童北店", "address": "山形県天童市乱川4-1-1", "lat": 38.3822623, "lon": 140.3789206, "category": "スーパー", "category_id": "0200612", "time": ["09:30-21:00"], "star": 3.95, "review": 26}, {"name": "株式会社おーばん本社", "address": "山形県天童市乱川3丁目12-1", "lat": 38.38639606, "lon": 140.3786691, "category": "食料品卸売業", "category_id": "0502722", "time": [], "star": 4.0, "review": 0}, {"name": "ドラッグヤマザワ 天童北店", "address": "山形県天童市乱川4-1-1", "lat": 38.3821595, "lon": 140.3789262, "category": "ドラッグストア", "category_id": "0200699", "time": ["09:30-21:00"], "star": 3.5, "review": 3}]}, "top_restaurant": {"name": "株式会社天童木工", "category": "家具製造・卸売業", "star": 4.67, "review": 3}}, {"name": "五十川", "name_en": "Iragawa", "lat": 38.6705752, "lon": 139.6163171, "osm_id": 5690634860, "operator": "", "railway": "station", "wikidata": "Q6066383", "wikipedia_tag": "ja:五十川駅", "lines": ["羽越本線"], "pref": "山形県", "wikipedia_text": "五十川駅（いらがわえき）は、山形県鶴岡市五十川にある、東日本旅客鉄道（JR東日本）羽越本線の駅である。", "wikipedia_image": "https://upload.wikimedia.org/wikipedia/commons/2/2c/JR_East_Iragawa_Station_Entrance.jpg", "nearby_pois": {"ATM": [{"name": "ゆうちょ銀行 五十川簡易郵便局", "address": "山形県鶴岡市五十川山ノ脇271-5", "lat": 38.671591, "lon": 139.620511, "category": "銀行", "category_id": "0402596", "time": [], "star": 0.0, "review": 0}]}}, {"name": "今泉", "name_en": "Imaizumi", "lat": 38.0570157, "lon": 140.0442391, "osm_id": 264408897, "operator": "", "railway": "station", "wikidata": "Q6002988", "wikipedia_tag": "ja:今泉駅", "lines": [], "pref": "山形県", "wikipedia_text": "今泉駅（いまいずみえき）は、山形県長井市今泉にある、東日本旅客鉄道（JR東日本）・山形鉄道の駅である。", "wikipedia_image": "https://upload.wikimedia.org/wikipedia/commons/e/e4/Imaizumi_Station07262009.JPG", "nearest_convenience": {"name": "ローソン 長井今泉店", "lat": 38.0557095, "lon": 140.0507682, "address": "", "distance_m": 590, "brand": ""}, "nearest_restaurant": {"name": "かめや", "lat": 38.0591463, "lon": 140.0466702, "address": "", "distance_m": 318, "cuisine": ""}, "nearby_pois": {"コンビニ": [{"name": "ローソン 長井今泉", "address": "山形県長井市今泉字山田1822-1", "lat": 38.0557769, "lon": 140.0508361, "category": "コンビニ", "category_id": "0200487", "time": ["00:00-24:00"], "star": 4.0, "review": 2}, {"name": "LAWSON 長井今泉南店", "address": "山形県長井市大字今泉字五反壱548-1", "lat": 38.051466, "lon": 140.0422732, "category": "コンビニ", "category_id": "0200487", "time": [], "star": 4.04, "review": 7}], "ラーメン": [{"name": "かめや", "address": "山形県長井市今泉2246", "lat": 38.05925515, "lon": 140.04669879, "category": "ラーメン店", "category_id": "0100097", "time": ["11:00-16:00"], "star": 3.51, "review": 25}, {"name": "茶夢", "address": "山形県長井市今泉1123", "lat": 38.05821835, "lon": 140.0490166, "category": "ラーメン店", "category_id": "0100097", "time": ["11:00-22:00"], "star": 3.5, "review": 5}], "飲食店": [{"name": "バロン", "address": "山形県長井市今泉1122-1", "lat": 38.058333007296, "lon": 140.0484924482, "category": "カフェ・喫茶", "category_id": "0100344", "time": [], "star": 3.59, "review": 6}, {"name": "かめや", "address": "山形県長井市今泉2246", "lat": 38.05925515, "lon": 140.04669879, "category": "ラーメン店", "category_id": "0100097", "time": ["11:00-16:00"], "star": 3.51, "review": 25}, {"name": "茶夢", "address": "山形県長井市今泉1123", "lat": 38.05821835, "lon": 140.0490166, "category": "ラーメン店", "category_id": "0100097", "time": ["11:00-22:00"], "star": 3.5, "review": 5}, {"name": "割烹まるげん", "address": "山形県長井市今泉1812-556", "lat": 38.05691989, "lon": 140.05078919, "category": "和食店", "category_id": "0100126", "time": [], "star": 3.4, "review": 2}, {"name": "味処めしや", "address": "山形県長井市歌丸2682-2", "lat": 38.0644546, "lon": 140.0422745, "category": "定食屋", "category_id": "0101441", "time": [], "star": 0.0, "review": 0}, {"name": "桜亭", "address": "山形県長井市今泉2944-2", "lat": 38.0605773, "lon": 140.0503573, "category": "肉料理店", "category_id": "0100212", "time": [], "star": 0.0, "review": 0}, {"name": "泉平寿し", "address": "山形県長井市今泉552-10", "lat": 38.0522337, "lon": 140.0430749, "category": "寿司店", "category_id": "0100101", "time": [], "star": 0.0, "review": 0}, {"name": "酒房まっちゃんち", "address": "山形県長井市歌丸2682-2", "lat": 38.0644546, "lon": 140.0422744, "category": "焼き鳥店", "category_id": "0101960", "time": [], "star": 0.0, "review": 0}], "カフェ": [{"name": "バロン", "address": "山形県長井市今泉1122-1", "lat": 38.058333007296, "lon": 140.0484924482, "category": "カフェ・喫茶", "category_id": "0100344", "time": [], "star": 3.59, "review": 6}], "ATM": [{"name": "ゆうちょ銀行 ATM 豊田郵便局", "address": "山形県長井市今泉1812-526", "lat": 38.0561519, "lon": 140.050325, "category": "ATM", "category_id": "0402785", "time": [], "star": 0.0, "review": 0}, {"name": "ゆうちょ銀行 豊田郵便局", "address": "山形県長井市今泉1812-526", "lat": 38.0561676, "lon": 140.050307, "category": "銀行", "category_id": "0402596", "time": [], "star": 0.0, "review": 0}, {"name": "ローソン銀行 長井今泉共同出張所", "address": "山形県長井市今泉字山田1822-1", "lat": 38.0556658, "lon": 140.050909, "category": "ATM", "category_id": "0402785", "time": ["00:00-24:00"], "star": 0.0, "review": 0}, {"name": "ローソン銀行 長井今泉南共同出張所", "address": "山形県長井市今泉548-1", "lat": 38.0514472, "lon": 140.042401, "category": "ATM", "category_id": "0402785", "time": ["00:00-24:00"], "star": 0.0, "review": 0}], "スーパーマーケット": [{"name": "株式会社うめや本部", "address": "山形県長井市今泉552", "lat": 38.05245696, "lon": 140.04191793, "category": "スーパー", "category_id": "0200612", "time": [], "star": 0.0, "review": 0}]}, "top_restaurant": {"name": "バロン", "category": "カフェ・喫茶", "star": 3.59, "review": 6}}, {"name": "伊佐領", "name_en": "Isaryo", "lat": 38.0509974, "lon": 139.8228747, "osm_id": 6125964349, "operator": "", "railway": "station", "wikidata": "Q6078999", "wikipedia_tag": "ja:伊佐領駅", "lines": [], "pref": "山形県", "wikipedia_text": "伊佐領駅（いさりょうえき）は、山形県西置賜郡小国町大字伊佐領にある、東日本旅客鉄道（JR東日本）米坂線の駅である。", "wikipedia_image": "https://upload.wikimedia.org/wikipedia/commons/d/d1/JR_East_Isary%C5%8D_Station_building%2C_Yamagata_Pref.jpg", "nearest_restaurant": {"name": "金目そばの館", "lat": 38.0925421, "lon": 139.8044877, "address": "", "distance_m": 4892, "cuisine": ""}, "nearby_pois": {"ATM": [{"name": "ゆうちょ銀行 伊佐領簡易郵便局", "address": "山形県西置賜郡小国町伊佐領21", "lat": 38.0503155, "lon": 139.825245, "category": "銀行", "category_id": "0402596", "time": [], "star": 0.0, "review": 0}]}}, {"name": "余目", "name_en": "Amarume", "lat": 38.8442243, "lon": 139.9115083, "osm_id": 5599756028, "operator": "", "railway": "station", "wikidata": "Q4740358", "wikipedia_tag": "ja:余目駅", "lines": ["羽越本線"], "pref": "山形県", "nearby_bus_stops": [{"name": "余目駅前", "lat": 38.8439692, "lon": 139.9109102, "distance_m": 59, "operator": ""}], "wikipedia_text": "余目駅（あまるめえき）は、山形県東田川郡庄内町余目にある、東日本旅客鉄道（JR東日本）の駅である。", "wikipedia_image": "https://upload.wikimedia.org/wikipedia/commons/2/2d/JR_East_Amarume_Station_building%2C_Yamagata_Pref.jpg", "nearest_restaurant": {"name": "焼肉・ホルモン NIKU THE KURA", "lat": 38.8443213, "lon": 139.9106248, "address": "", "distance_m": 77, "cuisine": "japanese"}, "nearby_pois": {"コンビニ": [{"name": "ローソン 庄内余目", "address": "山形県東田川郡庄内町余目土堤下20-1", "lat": 38.8444482, "lon": 139.9043675, "category": "コンビニ", "category_id": "0200487", "time": ["00:00-24:00"], "star": 4.11, "review": 32}, {"name": "セブンイレブン 余目バイパス", "address": "山形県東田川郡庄内町余目滑石45-1", "lat": 38.8449341, "lon": 139.9001147, "category": "コンビニ", "category_id": "0200487", "time": ["00:00-24:00"], "star": 4.36, "review": 9}, {"name": "セブンイレブン 庄内余目月屋敷", "address": "山形県東田川郡庄内町余目字月屋敷101", "lat": 38.8511114, "lon": 139.9101275, "category": "コンビニ", "category_id": "0200487", "time": ["00:00-24:00"], "star": 3.93, "review": 7}, {"name": "Aコープ あまるめ", "address": "山形県東田川郡庄内町余目字三人谷地172", "lat": 38.84808613, "lon": 139.90587781, "category": "農業協同組合", "category_id": "0502468", "time": ["09:30-19:00"], "star": 4.46, "review": 8}, {"name": "兼古酒店Yショップ", "address": "山形県東田川郡庄内町余目字沢田123-1", "lat": 38.84258235, "lon": 139.91076482, "category": "鮮魚店", "category_id": "0202771", "time": [], "star": 4.0, "review": 0}], "ラーメン": [{"name": "中華そば八千代", "address": "山形県東田川郡庄内町余目三人谷地1-2", "lat": 38.84550797, "lon": 139.90833561, "category": "ラーメン店", "category_id": "0100097", "time": ["11:00-17:00"], "star": 4.12, "review": 33}, {"name": "つるや", "address": "山形県東田川郡庄内町余目上猿田15-3", "lat": 38.84552628, "lon": 139.90780423, "category": "ラーメン店", "category_id": "0100097", "time": ["11:00-18:30"], "star": 3.36, "review": 11}, {"name": "一幸食堂", "address": "山形県東田川郡庄内町余目沢田129-1", "lat": 38.84369329, "lon": 139.91011137, "category": "ラーメン店", "category_id": "0100097", "time": ["11:00-14:00", "16:00-20:00"], "star": 3.59, "review": 19}, {"name": "らーめん 支那虎", "address": "山形県東田川郡庄内町余目土堤下28-5", "lat": 38.843111256752, "lon": 139.90458864623, "category": "ラーメン店", "category_id": "0100097", "time": ["11:00-15:00"], "star": 3.64, "review": 8}, {"name": "煌麺", "address": "山形県東田川郡庄内町余目字三人谷地13-11", "lat": 38.8464128, "lon": 139.90735244, "category": "ラーメン店", "category_id": "0100097", "time": ["11:00-14:30", "18:00-22:00"], "star": 3.86, "review": 16}, {"name": "かなめ食堂", "address": "山形県東田川郡庄内町余目沢田130", "lat": 38.84362857, "lon": 139.90999193, "category": "定食屋", "category_id": "0101441", "time": ["11:00-20:00"], "star": 3.36, "review": 13}, {"name": "麺や猪鹿蝶", "address": "山形県東田川郡庄内町余目字三人谷地189", "lat": 38.84814636, "lon": 139.90488366, "category": "飲食店", "category_id": "0102732", "time": [], "star": 3.86, "review": 11}, {"name": "和心食事処", "address": "山形県東田川郡庄内町余目土堤下38-1", "lat": 38.842762616751, "lon": 139.90269656622, "category": "定食屋", "category_id": "0101441", "time": ["11:00-14:00", "17:00-20:30"], "star": 4.03, "review": 10}, {"name": "あじ彩", "address": "山形県東田川郡庄内町余目字土堤38-13", "lat": 38.84263757, "lon": 139.90332179, "category": "中華料理店", "category_id": "0100990", "time": ["11:00-14:30", "17:00-21:00"], "star": 3.79, "review": 34}, {"name": "花のドライブイン", "address": "山形県東田川郡庄内町常万助惣124-1", "lat": 38.83654429, "lon": 139.91629999, "category": "定食屋", "category_id": "0101441", "time": ["10:30-14:00", "17:00-18:00"], "star": 3.92, "review": 17}, {"name": "川村食堂", "address": "山形県東田川郡庄内町余目字町21", "lat": 38.84979645, "lon": 139.90594591, "category": "麺料理店", "category_id": "0101175", "time": ["11:00-14:30"], "star": 3.66, "review": 21}, {"name": "一番亭", "address": "山形県東田川郡庄内町余目土堤下26-15", "lat": 38.84369997, "lon": 139.90397225, "category": "台湾料理店", "category_id": "0101283", "time": ["11:00-14:30", "17:00-23:00"], "star": 3.97, "review": 9}], "飲食店": [{"name": "あまるめホッとホーム", "address": "山形県東田川郡庄内町余目字沢田5-2 JR余目駅", "lat": 38.844120356753, "lon": 139.91136874623, "category": "カフェ・喫茶", "category_id": "0100344", "time": ["07:00-18:00"], "star": 3.17, "review": 5}, {"name": "創作BAL 食楽", "address": "山形県東田川郡庄内町余目土堤下38-1 C棟", "lat": 38.843108466751, "lon": 139.90263884623, "category": "居酒屋", "category_id": "0101495", "time": [], "star": 3.5, "review": 2}, {"name": "Mon's kitchen", "address": "山形県東田川郡庄内町余目字町136-2", "lat": 38.850293076747, "lon": 139.9045406263, "category": "台湾料理店", "category_id": "0101283", "time": ["11:00-17:00"], "star": 4.13, "review": 4}, {"name": "香林塔", "address": "山形県東田川郡庄内町余目字上朝丸78-2", "lat": 38.84181148, "lon": 139.90760017, "category": "レストラン", "category_id": "0100111", "time": ["11:00-15:00", "17:00-22:00"], "star": 3.96, "review": 29}, {"name": "庄内発酵堂", "address": "山形県東田川郡庄内町余目沢田140-4", "lat": 38.844370536753, "lon": 139.90938721623, "category": "飲食店", "category_id": "0102732", "time": ["11:30-14:30"], "star": 3.92, "review": 5}, {"name": "ひげ坊主", "address": "山形県東田川郡庄内町余目上猿田16-2", "lat": 38.84596618, "lon": 139.90700612, "category": "居酒屋", "category_id": "0101495", "time": ["17:00-24:00"], "star": 4.22, "review": 14}, {"name": "カフェ&ギャラリー JUJU", "address": "山形県東田川郡庄内町余目沢田143-5", "lat": 38.84496864, "lon": 139.90931873, "category": "カフェ・喫茶", "category_id": "0100344", "time": ["12:00-15:00"], "star": 4.13, "review": 3}, {"name": "Fresh Juice&Inner Beauty Bar FELICITA+", "address": "山形県東田川郡庄内町余目沢田108-1 新産業創造館クラッセ", "lat": 38.844384376753, "lon": 139.91048567623, "category": "バー", "category_id": "0100536", "time": ["10:00-17:00"], "star": 4.22, "review": 15}, {"name": "かなめ食堂", "address": "山形県東田川郡庄内町余目沢田130", "lat": 38.84362857, "lon": 139.90999193, "category": "定食屋", "category_id": "0101441", "time": ["11:00-20:00"], "star": 3.36, "review": 13}, {"name": "Red Saloon", "address": "山形県東田川郡庄内町余目沢田 147", "lat": 38.84513166, "lon": 139.9087951, "category": "カフェバー", "category_id": "0102864", "time": ["18:30-23:00"], "star": 4.0, "review": 2}, {"name": "しょうじ", "address": "山形県東田川郡庄内町余目三人谷地4", "lat": 38.84600315, "lon": 139.9076225, "category": "居酒屋", "category_id": "0101495", "time": [], "star": 4.09, "review": 10}, {"name": "ブリラーノ", "address": "山形県東田川郡庄内町余目三人谷地12-2", "lat": 38.84629254, "lon": 139.90715357, "category": "イタリア料理店", "category_id": "0100263", "time": ["11:30-17:00", "18:00-22:00"], "star": 4.04, "review": 25}, {"name": "カギゼン", "address": "山形県東田川郡庄内町余目町21", "lat": 38.850589192389, "lon": 139.90529629478, "category": "定食屋", "category_id": "0101441", "time": [], "star": 0.0, "review": 0}, {"name": "和心食事処", "address": "山形県東田川郡庄内町余目土堤下38-1", "lat": 38.842762616751, "lon": 139.90269656622, "category": "定食屋", "category_id": "0101441", "time": ["11:00-14:00", "17:00-20:30"], "star": 4.03, "review": 10}, {"name": "香林塔 K-Dining", "address": "山形県東田川郡 庄内町余目字上朝丸78-2", "lat": 38.8416862487793, "lon": 139.9076690673828, "category": "レストラン", "category_id": "0100111", "time": ["11:00-15:00", "17:00-22:00"], "star": 0.0, "review": 1}, {"name": "花のドライブイン", "address": "山形県東田川郡庄内町常万助惣124-1", "lat": 38.83654429, "lon": 139.91629999, "category": "定食屋", "category_id": "0101441", "time": ["10:30-14:00", "17:00-18:00"], "star": 3.92, "review": 17}, {"name": "居酒屋 二号店", "address": "山形県東田川郡庄内町余目土堤下3-5", "lat": 38.84548929, "lon": 139.90668508, "category": "居酒屋", "category_id": "0101495", "time": [], "star": 3.43, "review": 11}, {"name": "余目製パン クラッセ店", "address": "山形県東田川郡庄内町余目字沢田108", "lat": 38.844551126753, "lon": 139.91060074624, "category": "ベーカリー", "category_id": "0100522", "time": ["09:00-18:00"], "star": 3.89, "review": 31}, {"name": "うたげ家", "address": "山形県東田川郡庄内町余目上猿田189-5", "lat": 38.84615359, "lon": 139.90548335, "category": "居酒屋", "category_id": "0101495", "time": ["17:00-23:00"], "star": 4.2, "review": 1}, {"name": "中華そば八千代", "address": "山形県東田川郡庄内町余目三人谷地1-2", "lat": 38.84550797, "lon": 139.90833561, "category": "ラーメン店", "category_id": "0100097", "time": ["11:00-17:00"], "star": 4.12, "review": 33}], "カフェ": [{"name": "あまるめホッとホーム", "address": "山形県東田川郡庄内町余目字沢田5-2 JR余目駅", "lat": 38.844120356753, "lon": 139.91136874623, "category": "カフェ・喫茶", "category_id": "0100344", "time": ["07:00-18:00"], "star": 3.17, "review": 5}, {"name": "カフェ&ギャラリー JUJU", "address": "山形県東田川郡庄内町余目沢田143-5", "lat": 38.84496864, "lon": 139.90931873, "category": "カフェ・喫茶", "category_id": "0100344", "time": ["12:00-15:00"], "star": 4.13, "review": 3}, {"name": "ロータス コーヒースタンド", "address": "山形県東田川郡庄内町余目土堤下38-1 和心敷地内C棟", "lat": 38.84272193457, "lon": 139.90279158724, "category": "カフェ・喫茶", "category_id": "0100344", "time": ["12:00-17:00"], "star": 4.43, "review": 9}, {"name": "創作BAL 食楽", "address": "山形県東田川郡庄内町余目土堤下38-1 C棟", "lat": 38.843108466751, "lon": 139.90263884623, "category": "居酒屋", "category_id": "0101495", "time": [], "star": 3.5, "review": 2}, {"name": "梛の木カフェ", "address": "山形県東田川郡庄内町余目字土堤下38-1", "lat": 38.84323468, "lon": 139.90256897, "category": "カフェ・喫茶", "category_id": "0100344", "time": [], "star": 4.32, "review": 3}, {"name": "余目製パン クラッセ店", "address": "山形県東田川郡庄内町余目字沢田108", "lat": 38.844551126753, "lon": 139.91060074624, "category": "ベーカリー", "category_id": "0100522", "time": ["09:00-18:00"], "star": 3.89, "review": 31}, {"name": "Red Saloon", "address": "山形県東田川郡庄内町余目沢田 147", "lat": 38.84513166, "lon": 139.9087951, "category": "カフェバー", "category_id": "0102864", "time": ["18:30-23:00"], "star": 4.0, "review": 2}, {"name": "ブリラーノ", "address": "山形県東田川郡庄内町余目三人谷地12-2", "lat": 38.84629254, "lon": 139.90715357, "category": "イタリア料理店", "category_id": "0100263", "time": ["11:30-17:00", "18:00-22:00"], "star": 4.04, "review": 25}], "ドラッグストア": [{"name": "薬王堂 山形余目店", "address": "山形県東田川郡庄内町余目滑石48-1", "lat": 38.8444731, "lon": 139.901823, "category": "ドラッグストア", "category_id": "0200699", "time": ["09:00-22:00"], "star": 4.35, "review": 26}, {"name": "庄内すこやか薬局", "address": "山形県東田川郡庄内町余目字猿田91-1", "lat": 38.84480181, "lon": 139.90484992, "category": "調剤薬局", "category_id": "0202315", "time": [], "star": 0.0, "review": 0}, {"name": "白幡薬店", "address": "山形県東田川郡庄内町余目字沢田154-9", "lat": 38.84599624, "lon": 139.90845193, "category": "薬店", "category_id": "0202316", "time": [], "star": 0.0, "review": 0}, {"name": "まつや薬局", "address": "山形県東田川郡庄内町余目字町13", "lat": 38.84918544, "lon": 139.90626404, "category": "調剤薬局", "category_id": "0202315", "time": [], "star": 0.0, "review": 0}], "ATM": [{"name": "山形銀行 余目支店", "address": "山形県東田川郡庄内町余目字三人谷地167", "lat": 38.84817, "lon": 139.906367, "category": "銀行", "category_id": "0402596", "time": ["09:00-15:00"], "star": 4.5, "review": 1}, {"name": "ゆうちょ銀行 ATM 余目郵便局", "address": "山形県東田川郡庄内町余目猿田89-4", "lat": 38.8456172, "lon": 139.904417, "category": "ATM", "category_id": "0402785", "time": [], "star": 0.0, "review": 0}, {"name": "荘内銀行 ATM 余目支店", "address": "山形県東田川郡庄内町余目字町17-1", "lat": 38.8495872, "lon": 139.906695, "category": "ATM", "category_id": "0402785", "time": [], "star": 0.0, "review": 0}, {"name": "ゆうちょ銀行 ATM 余目茶屋町郵便局", "address": "山形県東田川郡庄内町余目沢田155", "lat": 38.8460537, "lon": 139.908323, "category": "ATM", "category_id": "0402785", "time": [], "star": 0.0, "review": 0}, {"name": "ゆうちょ銀行 余目郵便局", "address": "山形県東田川郡庄内町余目猿田89-4", "lat": 38.8456172, "lon": 139.904417, "category": "銀行", "category_id": "0402596", "time": [], "star": 0.0, "review": 1}, {"name": "山形銀行 ATM 余目支店", "address": "山形県東田川郡庄内町余目字三人谷地167", "lat": 38.8481506, "lon": 139.9062308, "category": "ATM", "category_id": "0402785", "time": [], "star": 0.0, "review": 0}, {"name": "JAバンク ATM 余目町農業協同組合(JAあまるめ)本所", "address": "山形県東田川郡庄内町余目字三人谷地172", "lat": 38.8478738, "lon": 139.905542, "category": "ATM", "category_id": "0402785", "time": [], "star": 0.0, "review": 0}, {"name": "ゆうちょ銀行 余目茶屋町郵便局", "address": "山形県東田川郡庄内町余目沢田155", "lat": 38.8460537, "lon": 139.908323, "category": "銀行", "category_id": "0402596", "time": [], "star": 0.0, "review": 0}, {"name": "荘内銀行 余目支店", "address": "山形県東田川郡庄内町余目字町17-1", "lat": 38.8495865, "lon": 139.9066945, "category": "銀行", "category_id": "0402596", "time": ["09:00-15:00"], "star": 0.0, "review": 0}, {"name": "鶴岡信用金庫 余目支店", "address": "山形県東田川郡庄内町余目上朝丸95", "lat": 38.8420626, "lon": 139.9084482, "category": "信用金庫", "category_id": "0401098", "time": ["09:00-15:00"], "star": 0.0, "review": 0}, {"name": "セブン銀行 庄内余目月屋敷店", "address": "山形県東田川郡庄内町余目字月屋敷101", "lat": 38.8510577, "lon": 139.910146, "category": "ATM", "category_id": "0402785", "time": ["00:00-24:00"], "star": 0.0, "review": 0}, {"name": "JAバンク 余目町農業協同組合(JAあまるめ)本所", "address": "山形県東田川郡庄内町余目字三人谷地172", "lat": 38.847695, "lon": 139.905883, "category": "銀行", "category_id": "0402596", "time": [], "star": 0.0, "review": 0}, {"name": "ゆうちょ銀行 矢口簡易郵便局", "address": "山形県東田川郡庄内町余目矢口47", "lat": 38.8390102, "lon": 139.907529, "category": "銀行", "category_id": "0402596", "time": [], "star": 0.0, "review": 0}, {"name": "セブン銀行 余目バイパス店", "address": "山形県東田川郡庄内町余目滑石45-1", "lat": 38.8447835, "lon": 139.900167, "category": "ATM", "category_id": "0402785", "time": ["00:00-24:00"], "star": 0.0, "review": 0}, {"name": "ローソン銀行 庄内余目共同出張所", "address": "山形県東田川郡庄内町余目土堤下20-1", "lat": 38.8444607, "lon": 139.904363, "category": "ATM", "category_id": "0402785", "time": ["00:00-24:00"], "star": 0.0, "review": 0}], "銭湯 温泉": [{"name": "庄内町ギャラリー温泉 町湯", "address": "山形県東田川郡庄内町余目字土堤下35番地2", "lat": 38.8420791, "lon": 139.9053788, "category": "日帰り入浴", "category_id": "0401679", "time": ["09:00-21:00"], "star": 4.4, "review": 20}], "スーパーマーケット": [{"name": "薬王堂 山形余目店", "address": "山形県東田川郡庄内町余目滑石48-1", "lat": 38.8444731, "lon": 139.901823, "category": "ドラッグストア", "category_id": "0200699", "time": ["09:00-22:00"], "star": 4.35, "review": 26}]}, "top_restaurant": {"name": "ロータス コーヒースタンド", "category": "カフェ・喫茶", "star": 4.43, "review": 9}}, {"name": "勝木", "name_en": "Gatsugi", "lat": 38.4903993, "lon": 139.5175571, "osm_id": 264262727, "operator": "", "railway": "station", "wikidata": "Q5527499", "wikipedia_tag": "ja:勝木駅", "lines": [], "pref": "山形県", "wikipedia_text": "勝木駅（がつぎえき）は、新潟県村上市勝木にある、東日本旅客鉄道（JR東日本）羽越本線の駅である。", "wikipedia_image": "https://upload.wikimedia.org/wikipedia/commons/0/00/JR_East_Gatsugi_Station_building.jpg", "nearest_convenience": {"name": "セブンイレブン(Seven-Eleven)", "lat": 38.4910756, "lon": 139.5224089, "address": "", "distance_m": 429, "brand": ""}, "nearest_restaurant": {"name": "あさひ食堂", "lat": 38.4886666, "lon": 139.5151017, "address": "", "distance_m": 288, "cuisine": ""}, "nearby_pois": {"コンビニ": [{"name": "セブンイレブン 山北勝木", "address": "新潟県村上市勝木847-1", "lat": 38.4911703, "lon": 139.5223921, "category": "コンビニ", "category_id": "0200487", "time": ["00:00-24:00"], "star": 3.62, "review": 21}, {"name": "Yショップ本間", "address": "新潟県村上市勝木707-5", "lat": 38.49072862, "lon": 139.52164719, "category": "コンビニ", "category_id": "0200487", "time": [], "star": 2.5, "review": 1}], "ラーメン": [{"name": "あさひ食堂", "address": "新潟県村上市寝屋16", "lat": 38.48872173, "lon": 139.51512766, "category": "定食屋", "category_id": "0101441", "time": ["11:00-14:00"], "star": 3.52, "review": 5}], "飲食店": [{"name": "食の工房 かがり火", "address": "新潟県村上市勝木1099", "lat": 38.489059416853, "lon": 139.51655355292, "category": "和食店", "category_id": "0100126", "time": ["11:30-14:00", "17:00-21:00"], "star": 3.37, "review": 6},