[{"name": "せきてらす前", "name_en": "Sekiterasu-mae", "lat": 35.4833334, "lon": 136.9142209, "osm_id": 452815839, "operator": "長良川鉄道", "railway": "station", "wikidata": "Q5645941", "wikipedia_tag": "ja:せきてらす前駅", "lines": ["長良川鉄道越美南線"], "pref": "岐阜県", "nearby_bus_stops": [{"name": "安桜山公園前", "lat": 35.4857052, "lon": 136.9185627, "distance_m": 473, "operator": ""}], "wikipedia_text": "せきてらす前駅（せきてらすまええき）は、岐阜県関市平和通にある、長良川鉄道越美南線の駅である。駅番号は6。", "wikipedia_image": "https://upload.wikimedia.org/wikipedia/commons/8/88/Hamonokaikanmae_Station.JPG", "nearest_convenience": {"name": "ローソン", "lat": 35.4828731, "lon": 136.9179777, "address": "", "distance_m": 344, "brand": "LAWSON"}, "nearest_restaurant": {"name": "孫六", "lat": 35.4830578, "lon": 136.914631, "address": "", "distance_m": 48, "cuisine": ""}, "nearby_pois": {"コンビニ": [{"name": "セブンイレブン 関市平和通8丁目", "address": "岐阜県関市平和通8-15", "lat": 35.4850497, "lon": 136.9099349, "category": "コンビニ", "category_id": "0200487", "time": ["00:00-24:00"], "star": 4.19, "review": 11}, {"name": "ローソン 関平和通", "address": "岐阜県関市平和通2-8-1", "lat": 35.4829085, "lon": 136.9179344, "category": "コンビニ", "category_id": "0200487", "time": ["00:00-24:00"], "star": 3.08, "review": 12}, {"name": "Yショップたるつな店", "address": "岐阜県関市本町8丁目41", "lat": 35.4868635, "lon": 136.9125903, "category": "コンビニ", "category_id": "0200487", "time": [], "star": 3.33, "review": 3}, {"name": "カーコンビニ倶楽部 関 平和通店", "address": "岐阜県関市古屋敷町8-1", "lat": 35.4825119, "lon": 136.913869, "category": "自動車修理・整備店", "category_id": "0400986", "time": [], "star": 0.0, "review": 0}, {"name": "カーコンビニ倶楽部 有限会社林モータース", "address": "岐阜県関市古屋敷町 8-1", "lat": 35.48221676, "lon": 136.91383469, "category": "", "category_id": "", "time": [], "star": 0.0, "review": 0}, {"name": "スーパーセンタートライアル 関店", "address": "岐阜県関市片倉町1-3", "lat": 35.482307, "lon": 136.911479, "category": "スーパー", "category_id": "0200612", "time": ["00:00-23:59"], "star": 4.22, "review": 271}], "ラーメン": [{"name": "らーめん楽天", "address": "岐阜県関市清水町19", "lat": 35.477734637133, "lon": 136.91849888316, "category": "ラーメン店", "category_id": "0100097", "time": ["11:30-13:30", "17:30-21:00"], "star": 3.84, "review": 37}, {"name": "麺屋やま昇 関店", "address": "岐阜県関市平和通2-3 ハビット関平和通2", "lat": 35.48289183, "lon": 136.91824273, "category": "飲食店", "category_id": "0102732", "time": ["11:00-15:00", "17:00-22:30"], "star": 4.15, "review": 6}, {"name": "しょうりゅう 関店", "address": "岐阜県関市平和通2-18", "lat": 35.48246021, "lon": 136.91841216, "category": "中華料理店", "category_id": "0100990", "time": ["11:00-14:30", "17:30-22:00"], "star": 4.16, "review": 31}, {"name": "入船", "address": "岐阜県関市大平町2-6", "lat": 35.48285393, "lon": 136.92436608, "category": "蕎麦店", "category_id": "0100034", "time": [], "star": 3.76, "review": 10}], "飲食店": [{"name": "須多 ゙", "address": "岐阜県関市本町8-18", "lat": 35.486816367931, "lon": 136.91332473442, "category": "和食店", "category_id": "0100126", "time": ["11:30-21:00"], "star": 3.5, "review": 1}, {"name": "パランタイン", "address": "岐阜県関市十六所41-55", "lat": 35.477945970395, "lon": 136.91200324049, "category": "カフェ・喫茶", "category_id": "0100344", "time": [], "star": 0.0, "review": 1}, {"name": "えん", "address": "岐阜県関市南春日町9-1", "lat": 35.481918187935, "lon": 136.91607255437, "category": "定食屋", "category_id": "0101441", "time": ["09:00-16:30"], "star": 0.0, "review": 0}, {"name": "居酒屋 富次郎", "address": "岐阜県関市本町3-21-3", "lat": 35.4856781, "lon": 136.9170895, "category": "居酒屋", "category_id": "0101495", "time": [], "star": 0.0, "review": 0}, {"name": "居酒屋ひらの", "address": "岐阜県関市伊勢町1-7", "lat": 35.4855599, "lon": 136.9212967, "category": "居酒屋", "category_id": "0101495", "time": [], "star": 0.0, "review": 0}, {"name": "居酒屋 いおり", "address": "岐阜県関市千年町1-3-2", "lat": 35.485386077933, "lon": 136.9181373044, "category": "居酒屋", "category_id": "0101495", "time": [], "star": 0.0, "review": 1}, {"name": "苺", "address": "岐阜県関市古屋敷町1-3", "lat": 35.48183765, "lon": 136.91435549, "category": "カフェ・喫茶", "category_id": "0100344", "time": ["07:00-18:00"], "star": 3.61, "review": 12}, {"name": "ぎふ初寿司 片倉分店", "address": "岐阜県関市片倉町1-76", "lat": 35.482706556519, "lon": 136.91068392715, "category": "寿司店", "category_id": "0100101", "time": [], "star": 0.0, "review": 0}, {"name": "麺屋やま昇 関店", "address": "岐阜県関市平和通2-3 ハビット関平和通2", "lat": 35.48289183, "lon": 136.91824273, "category": "飲食店", "category_id": "0102732", "time": ["11:00-15:00", "17:00-22:30"], "star": 4.15, "review": 6}, {"name": "まつや", "address": "岐阜県関市緑町2-4-17 ビッグマックス関店", "lat": 35.488880637122, "lon": 136.90681888328, "category": "カレー店", "category_id": "0100359", "time": ["11:00-20:00"], "star": 3.3, "review": 1}, {"name": "kuu", "address": "岐阜県関市赤渕5-105", "lat": 35.479964184173, "lon": 136.91438300306, "category": "飲食店", "category_id": "0102732", "time": [], "star": 4.0, "review": 6}, {"name": "濃州関所茶屋", "address": "岐阜県関市南春日町9-1", "lat": 35.48191852, "lon": 136.91604288, "category": "カフェ・喫茶", "category_id": "0100344", "time": ["09:00-16:00"], "star": 3.72, "review": 32}, {"name": "じゅらく荘", "address": "岐阜県関市日ノ出町2丁目16", "lat": 35.4838156, "lon": 136.91315, "category": "和食店", "category_id": "0100126", "time": [], "star": 3.9, "review": 5}, {"name": "マビッシュ", "address": "岐阜県関市西木戸町7番地", "lat": 35.48786477, "lon": 136.91311964, "category": "カフェ・喫茶", "category_id": "0100344", "time": ["09:00-19:00"], "star": 4.1, "review": 33}, {"name": "そばきり 萬屋町 助六", "address": "岐阜県関市本町8-27", "lat": 35.48714705, "lon": 136.91242943, "category": "蕎麦店", "category_id": "0100034", "time": [], "star": 3.99, "review": 44}, {"name": "夢庵", "address": "岐阜県関市片倉町1-7", "lat": 35.48247164, "lon": 136.91047519, "category": "カフェ・喫茶", "category_id": "0100344", "time": ["08:00-18:00"], "star": 3.45, "review": 10}, {"name": "あんず珈琲", "address": "岐阜県関市平和通8-1-9", "lat": 35.484859097931, "lon": 136.9105679244, "category": "カフェ・喫茶", "category_id": "0100344", "time": ["10:00-15:30"], "star": 4.0, "review": 2}, {"name": "あんこカフェ", "address": "岐阜県関市本町1-16 ", "lat": 35.48586381, "lon": 136.9198232, "category": "カフェ・喫茶", "category_id": "0100344", "time": ["09:00-17:00"], "star": 4.0, "review": 1}, {"name": "いろは", "address": "岐阜県関市山ノ手2-14-3", "lat": 35.48645287, "lon": 136.91822746, "category": "居酒屋", "category_id": "0101495", "time": [], "star": 4.5, "review": 2}, {"name": "うなぎの名代 辻屋", "address": "岐阜県関市本町5-14", "lat": 35.48614031, "lon": 136.915489, "category": "うなぎ料理店", "category_id": "0100035", "time": ["11:00-14:00", "17:00-20:00"], "star": 4.07, "review": 143}], "カフェ": [{"name": "パランタイン", "address": "岐阜県関市十六所41-55", "lat": 35.477945970395, "lon": 136.91200324049, "category": "カフェ・喫茶", "category_id": "0100344", "time": [], "star": 0.0, "review": 1}, {"name": "マビッシュ", "address": "岐阜県関市西木戸町7番地", "lat": 35.48786477, "lon": 136.91311964, "category": "カフェ・喫茶", "category_id": "0100344", "time": ["09:00-19:00"], "star": 4.1, "review": 33}, {"name": "苺", "address": "岐阜県関市古屋敷町1-3", "lat": 35.48183765, "lon": 136.91435549, "category": "カフェ・喫茶", "category_id": "0100344", "time": ["07:00-18:00"], "star": 3.61, "review": 12}, {"name": "あんず珈琲", "address": "岐阜県関市平和通8-1-9", "lat": 35.484859097931, "lon": 136.9105679244, "category": "カフェ・喫茶", "category_id": "0100344", "time": ["10:00-15:30"], "star": 4.0, "review": 2}, {"name": "えん", "address": "岐阜県関市南春日町9-1", "lat": 35.481918187935, "lon": 136.91607255437, "category": "定食屋", "category_id": "0101441", "time": ["09:00-16:30"], "star": 0.0, "review": 0}, {"name": "Cafe PALANTINE", "address": "岐阜県関市十六所41-55", "lat": 35.47787964, "lon": 136.91199209, "category": "カフェ・喫茶", "category_id": "0100344", "time": [], "star": 4.38, "review": 8}, {"name": "濃州関所茶屋", "address": "岐阜県関市南春日町9-1", "lat": 35.48191852, "lon": 136.91604288, "category": "カフェ・喫茶", "category_id": "0100344", "time": ["09:00-16:00"], "star": 3.72, "review": 32}, {"name": "あんこカフェ", "address": "岐阜県関市本町1-16 ", "lat": 35.48586381, "lon": 136.9198232, "category": "カフェ・喫茶", "category_id": "0100344", "time": ["09:00-17:00"], "star": 4.0, "review": 1}, {"name": "カフェ・茶房 宗休", "address": "岐阜県関市西日吉町35 関善光寺境内", "lat": 35.488823237125, "lon": 136.91525798328, "category": "カフェ・喫茶", "category_id": "0100344", "time": ["09:30-16:30"], "star": 3.9, "review": 17}, {"name": "夢庵", "address": "岐阜県関市片倉町1-7", "lat": 35.48247164, "lon": 136.91047519, "category": "カフェ・喫茶", "category_id": "0100344", "time": ["08:00-18:00"], "star": 3.45, "review": 10}, {"name": "ぽけっと", "address": "岐阜県関市片倉町1-36", "lat": 35.48173339, "lon": 136.91101211, "category": "カフェ・喫茶", "category_id": "0100344", "time": [], "star": 4.0, "review": 1}, {"name": "ル カフェ ノア", "address": "岐阜県関市本町1-26", "lat": 35.48556661, "lon": 136.9195796, "category": "カフェ・喫茶", "category_id": "0100344", "time": ["08:00-17:00"], "star": 3.8, "review": 2}, {"name": "カフェhoco hoco", "address": "岐阜県関市桜本町2-30-1 関市文化会館", "lat": 35.490273157928, "lon": 136.91109784446, "category": "カフェ・喫茶", "category_id": "0100344", "time": ["09:00-16:00"], "star": 3.67, "review": 9}, {"name": "なご味秋桜", "address": "岐阜県関市赤渕1", "lat": 35.48049281, "lon": 136.91537265, "category": "カフェ・喫茶", "category_id": "0100344", "time": [], "star": 0.0, "review": 0}, {"name": "カレイド", "address": "岐阜県関市大門町1-16", "lat": 35.480921906616, "lon": 136.92139267171, "category": "カフェ・喫茶", "category_id": "0100344", "time": ["08:00-17:00"], "star": 3.96, "review": 5}, {"name": "10カフェ バイ マスヤ", "address": "岐阜県関市本町1-39", "lat": 35.485539427934, "lon": 136.9209204644, "category": "スイーツ店", "category_id": "0100534", "time": [], "star": 4.67, "review": 2}, {"name": "初雪草", "address": "岐阜県関市元重町74-1", "lat": 35.49022781, "lon": 136.91283568, "category": "カフェ・喫茶", "category_id": "0100344", "time": ["08:00-17:00"], "star": 3.5, "review": 7}, {"name": "喫茶 匠", "address": "岐阜県関市平和通4丁目16 岐阜県刃物会館 1F", "lat": 35.4826835, "lon": 136.9145897, "category": "カフェ・喫茶", "category_id": "0100344", "time": [], "star": 0.0, "review": 0}, {"name": "マーブル", "address": "岐阜県関市赤渕5-105 コープフジキ 1F", "lat": 35.4799608, "lon": 136.914406, "category": "カフェ・喫茶", "category_id": "0100344", "time": [], "star": 0.0, "review": 0}, {"name": "夢ふうせん", "address": "岐阜県関市西欠ノ下78-1", "lat": 35.477594747939, "lon": 136.92026688432, "category": "カフェ・喫茶", "category_id": "0100344", "time": ["08:30-17:00"], "star": 3.55, "review": 11}], "ドラッグストア": [{"name": "スギ薬局 関中央店", "address": "岐阜県関市柳町1-1", "lat": 35.4840748, "lon": 136.9105321, "category": "ドラッグストア", "category_id": "0200699", "time": [], "star": 3.42, "review": 5}, {"name": "山本薬品", "address": "岐阜県関市新町27-1", "lat": 35.4843445, "lon": 136.91948599, "category": "ドラッグストア", "category_id": "0200699", "time": [], "star": 0.0, "review": 0}, {"name": "松前屋調剤薬局", "address": "岐阜県関市本町5丁目15-10", "lat": 35.48550148, "lon": 136.91515375, "category": "調剤薬局", "category_id": "0202315", "time": [], "star": 0.0, "review": 0}, {"name": "Ｖ・drug 関中央薬局", "address": "岐阜県関市緑町2-1-10", "lat": 35.48950748, "lon": 136.90715438, "category": "調剤薬局", "category_id": "0202315", "time": ["09:00-19:00"], "star": 3.75, "review": 2}, {"name": "丹羽薬局", "address": "岐阜県関市栄町1丁目3-1", "lat": 35.48711009, "lon": 136.91170781, "category": "調剤薬局", "category_id": "0202315", "time": [], "star": 0.0, "review": 0}, {"name": "みどり調剤薬局", "address": "岐阜県関市辻井戸町1-56", "lat": 35.48804271, "lon": 136.91015981, "category": "調剤薬局", "category_id": "0202315", "time": [], "star": 0.0, "review": 0}, {"name": "ホソノ薬局", "address": "岐阜県関市出来町13-3", "lat": 35.48585362, "lon": 136.92300821, "category": "調剤薬局", "category_id": "0202315", "time": [], "star": 0.0, "review": 0}, {"name": "文栄堂薬局", "address": "岐阜県関市栄町2丁目33", "lat": 35.48672176, "lon": 136.91001823, "category": "調剤薬局", "category_id": "0202315", "time": [], "star": 0.0, "review": 0}, {"name": "神明調剤薬局", "address": "岐阜県関市寿町1丁目1-20", "lat": 35.47737302, "lon": 136.92236629, "category": "調剤薬局", "category_id": "0202315", "time": [], "star": 0.0, "review": 0}, {"name": "きぢや薬局", "address": "岐阜県関市本町1丁目8", "lat": 35.48579578, "lon": 136.92035511, "category": "漢方", "category_id": "0201946", "time": [], "star": 0.0, "review": 0}], "ATM": [{"name": "ゆうちょ銀行 関郵便局", "address": "岐阜県関市平和通6-7-1", "lat": 35.4835862, "lon": 136.912357, "category": "銀行", "category_id": "0402596", "time": [], "star": 4.78, "review": 4}, {"name": "大垣共立銀行 関支店", "address": "岐阜県関市本町6-20", "lat": 35.4864303, "lon": 136.9146596, "category": "銀行", "category_id": "0402596", "time": ["09:00-15:00"], "star": 4.63, "review": 1}, {"name": "大垣共立銀行 関口出張所", "address": "岐阜県関市本町6-20", "lat": 35.4863386, "lon": 136.9145346, "category": "銀行", "category_id": "0402596", "time": [], "star": 4.33, "review": 1}, {"name": "ゆうちょ銀行 ATM 関郵便局", "address": "岐阜県関市平和通6-7-1", "lat": 35.4835862, "lon": 136.912357, "category": "ATM", "category_id": "0402785", "time": [], "star": 0.0, "review": 0}, {"name": "大垣共立銀行 ATM 関支店", "address": "岐阜県関市本町6-20", "lat": 35.4863627, "lon": 136.914586, "category": "ATM", "category_id": "0402785", "time": [], "star": 0.0, "review": 0}, {"name": "ゆうちょ銀行 関栄町郵便局", "address": "岐阜県関市栄町2-37-2", "lat": 35.4868464, "lon": 136.91059, "category": "銀行", "category_id": "0402596", "time": [], "star": 4.5, "review": 0}, {"name": "ゆうちょ銀行 関大門郵便局", "address": "岐阜県関市大門町3-2", "lat": 35.4810618, "lon": 136.923279, "category": "銀行", "category_id": "0402596", "time": [], "star": 4.0, "review": 1}, {"name": "大垣共立銀行 ATM 関口出張所", "address": "岐阜県関市本町6-20", "lat": 35.4863986, "lon": 136.9146, "category": "ATM", "category_id": "0402785", "time": [], "star": 0.0, "review": 0}, {"name": "ゆうちょ銀行 ATM 関栄町郵便局", "address": "岐阜県関市栄町2-37-2", "lat": 35.4868464, "lon": 136.91059, "category": "ATM", "category_id": "0402785", "time": [], "star": 0.0, "review": 0}, {"name": "セブン銀行 関市平和通8丁目店", "address": "岐阜県関市平和通8-15", "lat": 35.4849609, "lon": 136.910051, "category": "ATM", "category_id": "0402785", "time": ["00:00-24:00"], "star": 0.0, "review": 0}, {"name": "ローソン銀行 関平和通共同出張所", "address": "岐阜県関市平和通2-8-1", "lat": 35.4829225, "lon": 136.917925, "category": "ATM", "category_id": "0402785", "time": ["00:00-24:00"], "star": 0.0, "review": 0}, {"name": "ゆうちょ銀行 ATM 関大門郵便局", "address": "岐阜県関市大門町3-2", "lat": 35.4810618, "lon": 136.923279, "category": "ATM", "category_id": "0402785", "time": [], "star": 0.0, "review": 0}, {"name": "関信用金庫 本町支店", "address": "岐阜県関市本町2-21", "lat": 35.4855749, "lon": 136.918551, "category": "信用金庫", "category_id": "0401098", "time": [], "star": 0.0, "review": 0}, {"name": "宝くじ ATM 大垣共立銀行関支店", "address": "岐阜県関市本町6-20", "lat": 35.4863807, "lon": 136.914606, "category": "宝くじ売り場", "category_id": "0401442", "time": ["08:00-20:00"], "star": 0.0, "review": 0}], "スーパーマーケット": [{"name": "スーパーセンタートライアル 関店", "address": "岐阜県関市片倉町1-3", "lat": 35.482307, "lon": 136.911479, "category": "スーパー", "category_id": "0200612", "time": ["00:00-23:59"], "star": 4.22, "review": 271}, {"name": "全日食チェーン 山憲商店関店", "address": "岐阜県関市千年町1-22", "lat": 35.4851983, "lon": 136.917452, "category": "スーパー", "category_id": "0200612", "time": ["10:00-20:00"], "star": 4.04, "review": 31}, {"name": "株式会社ヤマベイ", "address": "岐阜県関市川間町33-7", "lat": 35.49007968, "lon": 136.90977032, "category": "米販売店", "category_id": "0202140", "time": [], "star": 0.0, "review": 0}]}, "top_restaurant": {"name": "10カフェ バイ マスヤ", "category": "スイーツ店", "star": 4.67, "review": 2}}, {"name": "みなみ子宝温泉", "name_en": "Minami-Kodakara-Onsen", "lat": 35.627986, "lon": 136.950658, "osm_id": 452815825, "operator": "長良川鉄道", "railway": "station", "wikidata": "Q4426218", "wikipedia_tag": "ja:みなみ子宝温泉駅", "lines": ["長良川鉄道越美南線"], "pref": "岐阜県", "wikipedia_text": "みなみ子宝温泉駅（みなみこだからおんせんえき）は、岐阜県郡上市美並町大原にある、長良川鉄道越美南線の駅である。駅番号は18。2002年度（平成14年度）、中部の駅百選の一つに選ばれている。", "wikipedia_image": "https://upload.wikimedia.org/wikipedia/commons/b/bc/Minami-Kodakara-Onsen-Sta-1.JPG", "nearest_restaurant": {"name": "", "lat": 35.610655, "lon": 136.943249, "address": "", "distance_m": 2040, "cuisine": ""}, "nearby_pois": {"飲食店": [{"name": "食房 oṃ", "address": "岐阜県郡上市美並町大原2709 円空の湯", "lat": 35.627497537853, "lon": 136.95038508582, "category": "韓国料理店", "category_id": "0100518", "time": [], "star": 3.77, "review": 3}, {"name": "もっきんポット", "address": "岐阜県郡上市美並町上田1607-1", "lat": 35.63035249, "lon": 136.94632446, "category": "飲食店", "category_id": "0102732", "time": ["09:00-17:00"], "star": 4.5, "review": 1}, {"name": "手打ちそばかとう", "address": "岐阜県郡上市美並町上田1570-1", "lat": 35.63136404, "lon": 136.94591555, "category": "蕎麦店", "category_id": "0100034", "time": [], "star": 3.0, "review": 2}, {"name": "子安", "address": "岐阜県郡上市美並町大原2709", "lat": 35.6274471, "lon": 136.9505123, "category": "定食屋", "category_id": "0101441", "time": [], "star": 0.0, "review": 0}], "カフェ": [{"name": "もっきんポット", "address": "岐阜県郡上市美並町上田1607-1", "lat": 35.63035249, "lon": 136.94632446, "category": "飲食店", "category_id": "0102732", "time": ["09:00-17:00"], "star": 4.5, "review": 1}], "銭湯 温泉": [{"name": "子宝温泉 円空の湯", "address": "岐阜県郡上市美並町大原2709", "lat": 35.62733, "lon": 136.95038, "category": "日帰り入浴", "category_id": "0401679", "time": ["10:00-22:00"], "star": 0.0, "review": 0}]}, "top_restaurant": {"name": "もっきんポット", "category": "飲食店", "star": 4.5, "review": 1}}, {"name": "モレラ岐阜", "name_en": "Morera-Gifu", "lat": 35.4552697, "lon": 136.6697017, "osm_id": 3786132121, "operator": "", "railway": "station", "wikidata": "Q11344646", "wikipedia_tag": "ja:モレラ岐阜駅", "lines": [], "pref": "岐阜県", "wikipedia_text": "モレラ岐阜駅（モレラぎふえき）は、岐阜県本巣市早野にある、樽見鉄道樽見線の駅である。駅番号はTR07。", "wikipedia_image": "https://upload.wikimedia.org/wikipedia/commons/1/1a/Tarumi_Line_in_MALera_Gifu_Station_01.jpg", "nearest_convenience": {"name": "デイリーストア", "lat": 35.4331277, "lon": 136.6792143, "address": "", "distance_m": 2609, "brand": ""}, "nearest_restaurant": {"name": "ロマン", "lat": 35.4468467, "lon": 136.693759, "address": "", "distance_m": 2372, "cuisine": ""}, "nearby_pois": {"コンビニ": [{"name": "ローソン Sモレラ岐阜", "address": "岐阜県本巣市三橋1100", "lat": 35.4533069, "lon": 136.672256, "category": "コンビニ", "category_id": "0200487", "time": ["07:00-23:00"], "star": 4.03, "review": 37}, {"name": "ローソン 本巣見延", "address": "岐阜県本巣市見延927-6", "lat": 35.4600849, "lon": 136.6645319, "category": "コンビニ", "category_id": "0200487", "time": ["00:00-24:00"], "star": 4.54, "review": 12}, {"name": "ロピア モレラ岐阜店", "address": "岐阜県本巣市三橋1100", "lat": 35.45239454863557, "lon": 136.67214823934043, "category": "スーパー", "category_id": "0200612", "time": ["10:00-20:00"], "star": 3.88, "review": 522}], "ラーメン": [{"name": "一風堂 モレラ岐阜店", "address": "岐阜県本巣市三橋1100 モレラ岐阜 1F", "lat": 35.4546138, "lon": 136.6725201, "category": "とんこつラーメン店", "category_id": "0102948", "time": ["11:00-21:30"], "star": 3.33, "review": 12}, {"name": "横浜家系ラーメン 丸岡商店 モレラ岐阜店", "address": "岐阜県本巣市三橋1100 モレラ岐阜 2F ブループラザ", "lat": 35.45507988950895, "lon": 136.67304941609217, "category": "ラーメン店", "category_id": "0100097", "time": ["10:00-20:00"], "star": 3.57, "review": 42}, {"name": "スガキヤ モレラ岐阜店", "address": "岐阜県本巣市三橋1100 モレラ岐阜 2F", "lat": 35.4525641, "lon": 136.6718036, "category": "ラーメン店", "category_id": "0100097", "time": ["10:00-21:00"], "star": 3.99, "review": 67}, {"name": "清太麺房", "address": "岐阜県本巣市三橋2-29", "lat": 35.45090472, "lon": 136.67525175, "category": "ラーメン店", "category_id": "0100097", "time": ["11:30-14:30", "17:30-22:00"], "star": 3.63, "review": 56}, {"name": "麺屋えいと", "address": "岐阜県本巣市三橋1096-12", "lat": 35.44777044, "lon": 136.67432832, "category": "飲食店", "category_id": "0102732", "time": ["11:00-15:00", "17:00-21:00"], "star": 4.44, "review": 10}, {"name": "湯火功夫", "address": "岐阜県本巣市三橋1100 モレラ岐阜 1F", "lat": 35.453933417875, "lon": 136.67291312426, "category": "中華料理店", "category_id": "0100990", "time": ["11:00-21:30"], "star": 3.7, "review": 3}, {"name": "ちゃんぽん亭総本家　モレラ岐阜店", "address": "岐阜県本巣市三橋1100 モレラ 岐阜 2F", "lat": 35.45394392, "lon": 136.67271005, "category": "ちゃんぽん店", "category_id": "0100146", "time": ["10:00-21:00"], "star": 4.04, "review": 71}, {"name": "ぷん福まる", "address": "岐阜県本巣市三橋1100", "lat": 35.4592688, "lon": 136.6747657, "category": "ラーメン店", "category_id": "0100097", "time": [], "star": 0.0, "review": 0}, {"name": "ラーメントントン", "address": "岐阜県本巣市上真桑2251-1", "lat": 35.4483228, "lon": 136.6730663, "category": "ラーメン店", "category_id": "0100097", "time": [], "star": 0.0, "review": 0}, {"name": "ミスタードーナツ モレラ岐阜", "address": "岐阜県本巣市三橋1100", "lat": 35.4546332, "lon": 136.6725646, "category": "ドーナツ店", "category_id": "0100701", "time": [], "star": 4.01, "review": 209}, {"name": "岐阜夢餃子製作所", "address": "岐阜県本巣市三橋2-29", "lat": 35.450903937878, "lon": 136.67525328422, "category": "餃子店", "category_id": "0102733", "time": ["11:30-21:30"], "star": 2.83, "review": 2}], "飲食店": [{"name": "淡路島珈琲", "address": "岐阜県本巣市見延1414-29", "lat": 35.455497553298, "lon": 136.67272978485, "category": "カフェ・喫茶", "category_id": "0100344", "time": [], "star": 0.0, "review": 0}, {"name": "モレラ岐阜", "address": "岐阜県本巣市三橋1100", "lat": 35.45480943, "lon": 136.6727317, "category": "ショッピングセンター・モール", "category_id": "0200537", "time": ["10:00-21:00"], "star": 4.25, "review": 446}, {"name": "mille-cha", "address": "岐阜県本巣市早野140-1", "lat": 35.45206934, "lon": 136.66379876, "category": "飲食店", "category_id": "0102732", "time": ["09:30-15:00"], "star": 4.0, "review": 4}, {"name": "銀たつ", "address": "岐阜県本巣市早野36", "lat": 35.4512918, "lon": 136.6667528, "category": "居酒屋", "category_id": "0101495", "time": [], "star": 4.88, "review": 3}, {"name": "ミスタードーナツ モレラ岐阜", "address": "岐阜県本巣市三橋1100", "lat": 35.4546332, "lon": 136.6725646, "category": "ドーナツ店", "category_id": "0100701", "time": [], "star": 4.01, "review": 209}, {"name": "大戸屋 モレラ岐阜店", "address": "岐阜県本巣市三橋1100 モレラ岐阜 1F", "lat": 35.4545055, "lon": 136.6725257, "category": "定食屋", "category_id": "0101441", "time": ["11:00-22:00"], "star": 4.02, "review": 130}, {"name": "米粉たい焼き 和虹", "address": "岐阜県本巣市早野875-6", "lat": 35.451948097876, "lon": 136.67060374424, "category": "飲食店", "category_id": "0102732", "time": ["09:00-17:00"], "star": 4.0, "review": 1}, {"name": "サンマルクカフェ モレラ岐阜店", "address": "岐阜県本巣市三橋1100", "lat": 35.4544388, "lon": 136.6725007, "category": "カフェ・喫茶", "category_id": "0100344", "time": ["10:00-21:00"], "star": 3.95, "review": 115}, {"name": "珈琲屋らんぷ モレラ岐阜店", "address": "岐阜県本巣市三橋1100 モレラ岐阜 1F ホワイトゲート東", "lat": 35.4539223, "lon": 136.672738, "category": "コーヒー店", "category_id": "0100496", "time": ["07:00-22:00"], "star": 3.95, "review": 72}, {"name": "米粉カフェ cocoro", "address": "岐阜県本巣市三橋字糸貫川通1044-19", "lat": 35.457798291049, "lon": 136.67633082535, "category": "カフェ・喫茶", "category_id": "0100344", "time": ["11:00-21:00"], "star": 3.89, "review": 13}, {"name": "麺屋えいと", "address": "岐阜県本巣市三橋1096-12", "lat": 35.44777044, "lon": 136.67432832, "category": "飲食店", "category_id": "0102732", "time": ["11:00-15:00", "17:00-21:00"], "star": 4.44, "review": 10}, {"name": "サイゼリヤ モレラ岐阜店", "address": "岐阜県本巣市三橋1100 モレラ岐阜1Ｆ", "lat": 35.454333, "lon": 136.672849, "category": "ファミリーレストラン", "category_id": "0100788", "time": ["10:30-23:00"], "star": 3.96, "review": 91}, {"name": "五福源", "address": "岐阜県本巣市三橋1100-55", "lat": 35.45723296, "lon": 136.67571411, "category": "飲食店", "category_id": "0102732", "time": ["11:00-14:30", "17:00-23:00"], "star": 0.0, "review": 0}, {"name": "バーミヤン モレラ岐阜店", "address": "岐阜県本巣市三橋1100 モレラ岐阜 1F", "lat": 35.4554637, "lon": 136.6730117, "category": "ファミリーレストラン", "category_id": "0100788", "time": ["11:00-22:00"], "star": 3.4, "review": 7}, {"name": "岐阜谷汲 炭焼うなぎ 和亭", "address": "岐阜県本巣市三橋1100-55", "lat": 35.457212407874, "lon": 136.67574683429, "category": "うなぎ料理店", "category_id": "0100035", "time": ["11:00-15:00", "17:00-20:30"], "star": 4.08, "review": 4}, {"name": "しゃぶ菜 モレラ岐阜", "address": "岐阜県本巣市三橋1100 モレラ岐阜1F(区画1194-2)", "lat": 35.4542902, "lon": 136.672786, "category": "しゃぶしゃぶ店", "category_id": "0100095", "time": ["11:00-22:00"], "star": 3.87, "review": 86}, {"name": "スターバックス コーヒー TSUTAYA BOOKSTORE モレラ岐阜店", "address": "岐阜県本巣市三橋1100モレラ岐阜2階", "lat": 35.456801, "lon": 136.672647, "category": "カフェ・喫茶", "category_id": "0100344", "time": ["10:00-21:00"], "star": 3.53, "review": 6}, {"name": "ヴィレッジヴァンガードダイナー こととやモレラ岐阜", "address": "岐阜県本巣市三橋 1100 モレラ岐阜1F", "lat": 35.454280853271484, "lon": 136.67532348632812, "category": "飲食店", "category_id": "0102732", "time": [], "star": 3.45, "review": 20}, {"name": "スターバックス コーヒー モレラ岐阜店", "address": "岐阜県本巣市三橋1100モレラ岐阜", "lat": 35.454889, "lon": 136.673461, "category": "コーヒー店", "category_id": "0100496", "time": ["10:00-21:00"], "star": 4.08, "review": 222}, {"name": "農家のカフェゴールドワン", "address": "岐阜県本巣市早野875-1", "lat": 35.45026467, "lon": 136.67137992, "category": "カフェ・喫茶", "category_id": "0100344", "time": [], "star": 4.5, "review": 0}], "カフェ": [{"name": "淡路島珈琲", "address": "岐阜県本巣市見延1414-29", "lat": 35.455497553298, "lon": 136.67272978485, "category": "カフェ・喫茶", "category_id": "0100344", "time": [], "star": 0.0, "review": 0}, {"name": "米粉カフェ cocoro", "address": "岐阜県本巣市三橋字糸貫川通1044-19", "lat": 35.457798291049, "lon": 136.67633082535, "category": "カフェ・喫茶", "category_id": "0100344", "time": ["11:00-21:00"], "star": 3.89, "review": 13}, {"name": "サンマルクカフェ モレラ岐阜店", "address": "岐阜県本巣市三橋1100", "lat": 35.4544388, "lon": 136.6725007, "category": "カフェ・喫茶", "category_id": "0100344", "time": ["10:00-21:00"], "star": 3.95, "review": 115}, {"name": "珈琲屋らんぷ モレラ岐阜店", "address": "岐阜県本巣市三橋1100 モレラ岐阜 1F ホワイトゲート東", "lat": 35.4539223, "lon": 136.672738, "category": "コーヒー店", "category_id": "0100496", "time": ["07:00-22:00"], "star": 3.95, "review": 72}, {"name": "スターバックス コーヒー TSUTAYA BOOKSTORE モレラ岐阜店", "address": "岐阜県本巣市三橋1100モレラ岐阜2階", "lat": 35.456801, "lon": 136.672647, "category": "カフェ・喫茶", "category_id": "0100344", "time": ["10:00-21:00"], "star": 3.53, "review": 6}, {"name": "もとまるカフェ&マルシェ", "address": "岐阜県本巣市随原201-1", "lat": 35.458063037869, "lon": 136.66189618431, "category": "カフェ・喫茶", "category_id": "0100344", "time": ["08:00-19:00"], "star": 3.15, "review": 2}, {"name": "スターバックス コーヒー モレラ岐阜店", "address": "岐阜県本巣市三橋1100モレラ岐阜", "lat": 35.454889, "lon": 136.673461, "category": "コーヒー店", "category_id": "0100496", "time": ["10:00-21:00"], "star": 4.08, "review": 222}, {"name": "ゴンチャ モレラ岐阜店", "address": "岐阜県本巣市三橋1100 モレラ岐阜 1F", "lat": 35.4560508, "lon": 136.672726, "category": "中国茶店", "category_id": "0100991", "time": ["10:00-21:00"], "star": 4.05, "review": 29}, {"name": "農家のカフェゴールドワン", "address": "岐阜県本巣市早野875-1", "lat": 35.45026467, "lon": 136.67137992, "category": "カフェ・喫茶", "category_id": "0100344", "time": [], "star": 4.5, "review": 0}, {"name": "ROUEN モレラ岐阜店", "address": "岐阜県本巣市三橋1100 モレラ岐阜 1F", "lat": 35.4573371, "lon": 136.675115, "category": "カフェ・喫茶", "category_id": "0100344", "time": [], "star": 0.0, "review": 0}, {"name": "オレンジファーム", "address": "岐阜県本巣市三橋2-19", "lat": 35.4499396, "lon": 136.67572309, "category": "洋食店", "category_id": "0100129", "time": ["08:00-22:00"], "star": 3.55, "review": 21}, {"name": "花", "address": "岐阜県本巣市早野36", "lat": 35.4512918, "lon": 136.6667528, "category": "カフェ・喫茶", "category_id": "0100344", "time": [], "star": 0.0, "review": 0}, {"name": "メッセージ", "address": "岐阜県本巣市三橋2-74", "lat": 35.45259891, "lon": 136.67546197, "category": "カフェ・喫茶", "category_id": "0100344", "time": ["07:00-17:00"], "star": 3.6, "review": 3}, {"name": "まるちゃん食堂", "address": "岐阜県本巣市上保1261-26", "lat": 35.462206717871, "lon": 136.67619645434, "category": "カフェ・喫茶", "category_id": "0100344", "time": ["08:00-22:00"], "star": 3.06, "review": 5}, {"name": "りーべ", "address": "岐阜県本巣市早野140-1 シャトレ糸貫 1F", "lat": 35.4520747, "lon": 136.6636762, "category": "カフェ・喫茶", "category_id": "0100344", "time": [], "star": 0.0, "review": 0}, {"name": "ミスタードーナツ モレラ岐阜", "address": "岐阜県本巣市三橋1100", "lat": 35.4546332, "lon": 136.6725646, "category": "ドーナツ店", "category_id": "0100701", "time": [], "star": 4.01, "review": 209}, {"name": "ハートブレッドアンティーク モレラ岐阜店", "address": "岐阜県本巣市三橋1100 モレラ岐阜1F", "lat": 35.45291421, "lon": 136.67194122, "category": "ベーカリー", "category_id": "0100522", "time": ["10:00-21:00"], "star": 3.89, "review": 141}, {"name": "伊吹", "address": "岐阜県本巣市三橋1100-12", "lat": 35.45594315, "lon": 136.67555831, "category": "カフェ・喫茶", "category_id": "0100344", "time": [], "star": 0.0, "review": 0}, {"name": "シャルマン", "address": "岐阜県本巣市早野140-1", "lat": 35.4520416, "lon": 136.6637697, "category": "カフェ・喫茶", "category_id": "0100344", "time": [], "star": 0.0, "review": 0}, {"name": "マクドナルド モレラ岐阜店", "address": "岐阜県本巣市三橋1100 モレラ岐阜 2F", "lat": 35.454504282694245, "lon": 136.67259753386818, "category": "ハンバーガー店", "category_id": "0100722", "time": ["10:00-21:00"], "star": 3.99, "review": 171}], "ドラッグストア": [{"name": "マツモトキヨシ 薬 モレラ岐阜店", "address": "岐阜県本巣市三橋1100", "lat": 35.4525641, "lon": 136.6718036, "category": "ドラッグストア", "category_id": "0200699", "time": ["10:00-21:00"], "star": 4.09, "review": 34}, {"name": "ドラッグストアコスモス 糸貫店", "address": "岐阜県本巣市三橋５丁目４５ ", "lat": 35.4494548, "lon": 136.675203, "category": "ドラッグストア", "category_id": "0200699", "time": ["10:00-21:00"], "star": 4.2, "review": 114}, {"name": "モレラ岐阜", "address": "岐阜県本巣市三橋1100", "lat": 35.45480943, "lon": 136.6727317, "category": "ショッピングセンター・モール", "category_id": "0200537", "time": ["10:00-21:00"], "star": 4.25, "review": 446}, {"name": "ロピア モレラ岐阜店", "address": "岐阜県本巣市三橋1100", "lat": 35.45239454863557, "lon": 136.67214823934043, "category": "スーパー", "category_id": "0200612", "time": ["10:00-20:00"], "star": 3.88, "review": 522}, {"name": "くすりのジョヴィチェーン タカダ薬局糸貫店", "address": "岐阜県本巣市三橋1101-150", "lat": 35.454097747802734, "lon": 136.67518615722656, "category": "調剤薬局", "category_id": "0202315", "time": [], "star": 0.0, "review": 0}, {"name": "みやび調剤薬局", "address": "岐阜県本巣市三橋3丁目64", "lat": 35.4495808, "lon": 136.67656687, "category": "調剤薬局", "category_id": "0202315", "time": [], "star": 2.17, "review": 1}], "ATM": [{"name": "大垣共立銀行 ATM モレラ岐阜", "address": "岐阜県本巣市三橋1100 1F", "lat": 35.4548504, "lon": 136.672257, "category": "ATM", "category_id": "0402785", "time": [], "star": 0.0, "review": 2}, {"name": "十六銀行 ATM モレラ岐阜", "address": "岐阜県本巣市三橋1100", "lat": 35.4552464, "lon": 136.672609, "category": "ATM", "category_id": "0402785", "time": [], "star": 0.0, "review": 1}, {"name": "ゆうちょ銀行 ATM モレラ岐阜内出張所", "address": "岐阜県本巣市三橋1100 1F ATMコーナー", "lat": 35.4547027, "lon": 136.6726646, "category": "ATM", "category_id": "0402785", "time": [], "star": 0.0, "review": 2}, {"name": "岐阜信用金庫 ATM モレラ岐阜共同", "address": "岐阜県本巣市三橋1100", "lat": 35.4544162, "lon": 136.67252, "category": "ATM", "category_id": "0402785", "time": [], "star": 0.0, "review": 2}, {"name": "JAバンク ATM ぎふ農業協同組合(JAぎふ)モレラ岐阜", "address": "岐阜県本巣市三橋1100 モレラ岐阜", "lat": 35.4548548, "lon": 136.672779, "category": "ATM", "category_id": "0402785", "time": [], "star": 0.0, "review": 1}, {"name": "JAバンク ぎふ農業協同組合(JAぎふ)糸貫支店", "address": "岐阜県本巣市見延1399-1", "lat": 35.4595595, "lon": 136.671783, "category": "銀行", "category_id": "0402596", "time": [], "star": 4.67, "review": 2}, {"name": "セブン銀行 モレラ岐阜", "address": "岐阜県本巣市三橋1100", "lat": 35.4525329, "lon": 136.672453, "category": "ATM", "category_id": "0402785", "time": ["10:00-21:00"], "star": 0.0, "review": 1}, {"name": "ゆうちょ銀行 三橋郵便局", "address": "岐阜県本巣市三橋糸貫川通1101-159", "lat": 35.4482017, "lon": 136.674123, "category": "銀行", "category_id": "0402596", "time": [], "star": 4.36, "review": 2}, {"name": "ゆうちょ銀行 糸貫郵便局", "address": "岐阜県本巣市見延566-1", "lat": 35.4626815, "lon": 136.667521, "category": "銀行", "category_id": "0402596", "time": [], "star": 4.33, "review": 2}, {"name": "ゆうちょ銀行 ATM 糸貫郵便局", "address": "岐阜県本巣市見延566-1", "lat": 35.4626815, "lon": 136.667521, "category": "ATM", "category_id": "0402785", "time": [], "star": 0.0, "review": 0}, {"name": "ゆうちょ銀行 ATM 三橋郵便局", "address": "岐阜県本巣市三橋糸貫川通1101-159", "lat": 35.4482017, "lon": 136.674123, "category": "ATM", "category_id": "0402785", "time": [], "star": 0.0, "review": 0}, {"name": "ローソン銀行 Sモレラ岐阜共同出張所", "address": "岐阜県本巣市三橋1100", "lat": 35.4549246, "lon": 136.673065, "category": "ATM", "category_id": "0402785", "time": ["07:00-23:00"], "star": 0.0, "review": 0}, {"name": "JAバンク ATM ぎふ農業協同組合(JAぎふ)糸貫支店", "address": "岐阜県本巣市見延1399-1", "lat": 35.4595595, "lon": 136.671783, "category": "ATM", "category_id": "0402785", "time": [], "star": 0.0, "review": 0}, {"name": "JAバンク ATM ぎふ農業協同組合(JAぎふ)農産物販売所", "address": "岐阜県本巣市三橋糸貫川通1044-5 糸貫農産物販売所出張所駐車場", "lat": 35.4577753, "lon": 136.676119, "category": "ATM", "category_id": "0402785", "time": [], "star": 0.0, "review": 0}, {"name": "宝くじ ATM 大垣共立銀行モレラ岐阜出張所", "address": "岐阜県本巣市三橋1100", "lat": 35.4540854, "lon": 136.672696, "category": "宝くじ売り場", "category_id": "0401442", "time": ["10:00-20:00"], "star": 0.0, "review": 1}, {"name": "ローソン銀行 本巣見延共同出張所", "address": "岐阜県本巣市見延927-6", "lat": 35.4600604, "lon": 136.664489, "category": "ATM", "category_id": "0402785", "time": ["00:00-24:00"], "star": 0.0, "review": 0}, {"name": "三橋郵便局", "address": "岐阜県本巣市三橋糸貫川通1101-159", "lat": 35.44820091, "lon": 136.6741228, "category": "郵便局", "category_id": "0400993", "time": ["09:00-17:00"], "star": 3.5, "review": 2}], "スーパーマーケット": [{"name": "ロピア モレラ岐阜店", "address": "岐阜県本巣市三橋1100", "lat": 35.45239454863557, "lon": 136.67214823934043, "category": "スーパー", "category_id": "0200612", "time": ["10:00-20:00"], "star": 3.88, "review": 522}, {"name": "北海道フーディスト 北海道うまいもの館 モレラ岐阜店", "address": "岐阜県本巣市三橋1100 モレラ岐阜", "lat": 35.4555311, "lon": 136.672919, "category": "スーパー", "category_id": "0200612", "time": ["10:00-21:00"], "star": 4.2, "review": 44}, {"name": "モレラ岐阜", "address": "岐阜県本巣市三橋1100", "lat": 35.45480943, "lon": 136.6727317, "category": "ショッピングセンター・モール", "category_id": "0200537", "time": ["10:00-21:00"], "star": 4.25, "review": 446}, {"name": "久世福商店 モレラ岐阜店", "address": "岐阜県本巣市三橋1100 モレラ岐阜 1F", "lat": 35.4552284, "lon": 136.67309, "category": "食料品店", "category_id": "0200122", "time": ["10:00-21:00"], "star": 3.82, "review": 35}, {"name": "カルディコーヒーファーム モレラ岐阜店", "address": "岐阜県本巣市三橋1100 モレラ岐阜 1F", "lat": 35.4545499, "lon": 136.6724952, "category": "コーヒー豆店", "category_id": "0200497", "time": ["10:00-21:00"], "star": 4.04, "review": 132}, {"name": "おかしのまちおか モレラ岐阜店", "address": "岐阜県本巣市三橋1100 モレラ岐阜 2F", "lat": 35.4550754, "lon": 136.67337, "category": "菓子店", "category_id": "0202304", "time": ["10:00-21:00"], "star": 4.28, "review": 128}, {"name": "マツモトキヨシ 薬 モレラ岐阜店", "address": "岐阜県本巣市三橋1100", "lat": 35.4525641, "lon": 136.6718036, "category": "ドラッグストア", "category_id": "0200699", "time": ["10:00-21:00"], "star": 4.09, "review": 34}, {"name": "おなかすいた farm モレラ岐阜店", "address": "岐阜県本巣市三橋1100", "lat": 35.4523669, "lon": 136.6724618, "category": "農産物直売所", "category_id": "0202873", "time": ["10:00-21:00"], "star": 4.05, "review": 72}, {"name": "おとうふ工房いしかわ とうふや豆蔵 モレラ岐阜店", "address": "岐阜県本巣市三橋1100 モレラ岐阜 1F", "lat": 35.4561655, "lon": 136.673861, "category": "豆腐店", "category_id": "0202421", "time": ["10:00-20:00"], "star": 4.34, "review": 178}, {"name": "ダイソー モレラ岐阜店", "address": "岐阜県本巣市三橋１１００-２２４０ モレラ岐阜２階", "lat": 35.45228589441952, "lon": 136.67244474385896, "category": "100円ショップ", "category_id": "0200001", "time": ["10:00-21:00"], "star": 4.16, "review": 141}, {"name": "ドラッグストアコスモス 糸貫店", "address": "岐阜県本巣市三橋５丁目４５ ", "lat": 35.4494548, "lon": 136.675203, "category": "ドラッグストア", "category_id": "0200699", "time": ["10:00-21:00"], "star": 4.2, "review": 114}]}, "top_restaurant": {"name": "銀たつ", "category": "居酒屋", "star": 4.88, "review": 3}}, {"name": "万場", "name_en": "Manba", "lat": 35.8336096, "lon": 136.8832317, "osm_id": 452815760, "operator": "長良川鉄道", "railway": "station", "wikidata": "Q6747170", "wikipedia_tag": "ja:万場駅", "lines": ["長良川鉄道越美南線"], "pref": "岐阜県", "wikipedia_text": "万場駅（まんばえき）は、岐阜県郡上市大和町万場にある、長良川鉄道越美南線の駅である。駅番号は30。", "wikipedia_image": "https://upload.wikimedia.org/wikipedia/commons/2/2d/Manbasta.JPG", "nearest_restaurant": {"name": "かつ弥", "lat": 35.8007084, "lon": 136.9070882, "address": "", "distance_m": 4244, "cuisine": ""}, "nearby_pois": {}}, {"name": "三柿野", "name_en": "Mikakino", "lat": 35.4001437, "lon": 136.8757888, "osm_id": 8107474014, "operator": "名古屋鉄道", "railway": "station", "wikidata": "Q6845663", "wikipedia_tag": "ja:三柿野駅", "lines": [], "pref": "岐阜県", "wikipedia_text": "三柿野駅（みかきのえき）は、岐阜県各務原市蘇原三柿野町にある名古屋鉄道各務原線の駅である。駅番号はKG06。川崎重工業航空宇宙システムカンパニー岐阜工場の最寄駅である。", "wikipedia_image": "https://upload.wikimedia.org/wikipedia/commons/f/f7/Mikakino_station-1.jpg", "nearest_convenience": {"name": "ファミリーマート", "lat": 35.4019955, "lon": 136.8865277, "address": "", "distance_m": 995, "brand": "FamilyMart"}, "nearest_restaurant": {"name": "吉野家", "lat": 35.4024498, "lon": 136.8849471, "address": "", "distance_m": 869, "cuisine": "beef_bowl"}, "nearby_pois": {"コンビニ": [{"name": "セブンイレブン 各務原鵜沼三ツ池町", "address": "岐阜県各務原市鵜沼三ツ池町1-3-1", "lat": 35.4065524, "lon": 136.882127, "category": "コンビニ", "category_id": "0200487", "time": ["00:00-24:00"], "star": 3.74, "review": 23}, {"name": "ファミリーマート 各務原三ツ池二丁目店", "address": "岐阜県各務原市鵜沼三ツ池町2-190", "lat": 35.4019892, "lon": 136.8865434, "category": "コンビニ", "category_id": "0200487", "time": ["00:00-24:00"], "star": 3.8, "review": 14}, {"name": "コパン 各務原", "address": "岐阜県各務原市各務西町4丁目303-5", "lat": 35.40711627, "lon": 136.88189642, "category": "ホテル", "category_id": "0300124", "time": [], "star": 4.18, "review": 11}], "ラーメン": [{"name": "SHIGE", "address": "岐阜県各務原市鵜沼川崎町2-67", "lat": 35.40207267, "lon": 136.87774036, "category": "ラーメン店", "category_id": "0100097", "time": ["11:30-13:30", "17:00-21:00"], "star": 3.98, "review": 27}, {"name": "中国料理 誠龍", "address": "岐阜県各務原市蘇原三柿野町2-8", "lat": 35.39976713, "lon": 136.86954789, "category": "中華料理店", "category_id": "0100990", "time": ["11:30-14:00", "17:00-23:30"], "star": 3.37, "review": 27}, {"name": "岐阜タンメン 各務原店", "address": "岐阜県各務原市鵜沼川崎町2-224", "lat": 35.40263074, "lon": 136.88172856, "category": "麺料理店", "category_id": "0101175", "time": ["11:00-27:00"], "star": 4.19, "review": 79}, {"name": "三本足 かがみ原店", "address": "岐阜県各務原市蘇原中央町3丁目166", "lat": 35.40738455, "lon": 136.88166588, "category": "四川料理店", "category_id": "0101331", "time": ["17:30-21:00"], "star": 3.89, "review": 23}, {"name": "どんきゅう 各務原店", "address": "岐阜県各務原市鵜沼三ツ池町1-27-1", "lat": 35.40619281, "lon": 136.88322827, "category": "うどん店", "category_id": "0100033", "time": ["11:00-21:00"], "star": 3.75, "review": 31}], "飲食店": [{"name": "焼肉なか 三ツ池店", "address": "岐阜県各務原市鵜沼三ツ池町2-148", "lat": 35.402385277975, "lon": 136.88475268359, "category": "焼肉店", "category_id": "0101963", "time": [], "star": 3.91, "review": 11}, {"name": "居酒屋たじま", "address": "岐阜県各務原市蘇原三柿野町 299番地の160", "lat": 35.400413513183594, "lon": 136.87579345703125, "category": "飲食店", "category_id": "0102732", "time": ["11:30-13:00", "17:00-22:00"], "star": 0.0, "review": 1}, {"name": "とりやす 川崎屋店", "address": "岐阜県各務原市鵜沼川崎町3-36", "lat": 35.4009964, "lon": 136.87727738, "category": "居酒屋", "category_id": "0101495", "time": ["16:30-23:00"], "star": 4.28, "review": 6}, {"name": "居酒屋 くつろぎ", "address": "岐阜県各務原市蘇原栄町2-30", "lat": 35.4054091, "lon": 136.868344, "category": "居酒屋", "category_id": "0101495", "time": [], "star": 0.0, "review": 0}, {"name": "和風ビストロ るり色", "address": "岐阜県各務原市鵜沼川崎町2-45-2", "lat": 35.40237375, "lon": 136.87784534, "category": "居酒屋", "category_id": "0101495", "time": ["11:30-14:00", "17:00-23:00"], "star": 3.96, "review": 8}, {"name": "シュバルツバルト", "address": "岐阜県各務原市蘇原東島町4丁目59-1", "lat": 35.40896061, "lon": 136.87738485, "category": "カフェ・喫茶", "category_id": "0100344", "time": [], "star": 4.29, "review": 12}, {"name": "TAKU", "address": "岐阜県各務原市蘇原栄町2-29", "lat": 35.405486747968, "lon": 136.86792072363, "category": "カフェ・喫茶", "category_id": "0100344", "time": ["11:00-14:00", "17:00-21:00"], "star": 3.81, "review": 10}, {"name": "三柿園", "address": "岐阜県各務原市蘇原三柿野町299-128", "lat": 35.40069336, "lon": 136.87632859, "category": "焼肉店", "category_id": "0101963", "time": ["17:00-23:00"], "star": 4.02, "review": 7}, {"name": "居酒屋 本店 和どれ", "address": "岐阜県各務原市蘇原栄町1-35 丹羽ビル104", "lat": 35.40439127, "lon": 136.86929501, "category": "居酒屋", "category_id": "0101495", "time": ["18:00-24:00"], "star": 4.14, "review": 6}, {"name": "ウィングフィールド事業所", "address": "岐阜県各務原市蘇原興亜町 1-1 厚生棟1階社員食堂", "lat": 35.4040641784668, "lon": 136.87315368652344, "category": "飲食店", "category_id": "0102732", "time": [], "star": 0.0, "review": 0}, {"name": "彩華", "address": "岐阜県各務原市鵜沼川崎町2-91", "lat": 35.401736357974, "lon": 136.87789733359, "category": "居酒屋", "category_id": "0101495", "time": ["17:00-23:00"], "star": 3.0, "review": 2}, {"name": "Simba", "address": "岐阜県各務原市鵜沼三ツ池1-65-3", "lat": 35.40449162, "lon": 136.88221122, "category": "カフェ・喫茶", "category_id": "0100344", "time": ["07:30-20:00"], "star": 4.07, "review": 19}, {"name": "三柿野飯店", "address": "岐阜県各務原市鵜沼川崎町2丁目89", "lat": 35.40198019, "lon": 136.87798728, "category": "中華料理店", "category_id": "0100990", "time": ["11:30-13:00", "17:00-21:00"], "star": 0.0, "review": 1}, {"name": "もりた", "address": "岐阜県各務原市蘇原瑞雲町1-13", "lat": 35.40374366, "lon": 136.87081183, "category": "居酒屋", "category_id": "0101495", "time": ["17:00-21:00"], "star": 4.5, "review": 3}, {"name": "中国料理 誠龍", "address": "岐阜県各務原市蘇原三柿野町2-8", "lat": 35.39976713, "lon": 136.86954789, "category": "中華料理店", "category_id": "0100990", "time": ["11:30-14:00", "17:00-23:30"], "star": 3.37, "review": 27}, {"name": "クチーナ・シエナ", "address": "岐阜県各務原市蘇原東栄町2-138 大堀ビル 2F", "lat": 35.40783626797, "lon": 136.87716674365, "category": "イタリア料理店", "category_id": "0100263", "time": ["11:30-14:30", "18:00-23:00"], "star": 3.81, "review": 13}, {"name": "リゾートダイニング マハロMAHARO", "address": "岐阜県各務原市鵜沼三ツ池町1-151", "lat": 35.40285046, "lon": 136.88278817, "category": "ハワイ料理店", "category_id": "0100719", "time": ["11:30-15:00", "18:00-24:00"], "star": 3.95, "review": 24}, {"name": "SHIGE", "address": "岐阜県各務原市鵜沼川崎町2-67", "lat": 35.40207267, "lon": 136.87774036, "category": "ラーメン店", "category_id": "0100097", "time": ["11:30-13:30", "17:00-21:00"], "star": 3.98, "review": 27}, {"name": "さかい珈琲 各務原ヒルズ店", "address": "岐阜県各務原市蘇原東島町４-４５ 各務原ヒルズ１Ｆ", "lat": 35.4083521, "lon": 136.87779123, "category": "カフェ・喫茶", "category_id": "0100344", "time": ["08:00-19:30"], "star": 3.97, "review": 69}, {"name": "ニューたじま", "address": "岐阜県各務原市蘇原三柿野町299-160", "lat": 35.40043171, "lon": 136.87574893, "category": "ビジネスホテル", "category_id": "0300758", "time": ["11:30-13:00", "17:00-22:00"], "star": 3.81, "review": 7}], "カフェ": [{"name": "Simba", "address": "岐阜県各務原市鵜沼三ツ池1-65-3", "lat": 35.40449162, "lon": 136.88221122, "category": "カフェ・喫茶", "category_id": "0100344", "time": ["07:30-20:00"], "star": 4.07, "review": 19}, {"name": "シュバルツバルト", "address": "岐阜県各務原市蘇原東島町4丁目59-1", "lat": 35.40896061, "lon": 136.87738485, "category": "カフェ・喫茶", "category_id": "0100344", "time": [], "star": 4.29, "review": 12}, {"name": "さかい珈琲 各務原ヒルズ店", "address": "岐阜県各務原市蘇原東島町４-４５ 各務原ヒルズ１Ｆ", "lat": 35.4083521, "lon": 136.87779123, "category": "カフェ・喫茶", "category_id": "0100344", "time": ["08:00-19:30"], "star": 3.97, "review": 69}, {"name": "TAKU", "address": "岐阜県各務原市蘇原栄町2-29", "lat": 35.405486747968, "lon": 136.86792072363, "category": "カフェ・喫茶", "category_id": "0100344", "time": ["11:00-14:00", "17:00-21:00"], "star": 3.81, "review": 10}, {"name": "カフェ ラ ヒロ", "address": "岐阜県各務原市蘇原東島町4-39-1 アベニュー東島 1F", "lat": 35.408951597969, "lon": 136.87799606366, "category": "イタリア料理店", "category_id": "0100263", "time": ["11:00-16:00", "18:00-23:00"], "star": 3.87, "review": 18}, {"name": "カフェレストタク", "address": "岐阜県各務原市蘇原栄町2丁目29", "lat": 35.40547243, "lon": 136.86792288, "category": "カフェ・喫茶", "category_id": "0100344", "time": [], "star": 0.0, "review": 0}, {"name": "モア", "address": "岐阜県各務原市蘇原栄町1-35", "lat": 35.404391487969, "lon": 136.86929771362, "category": "カフェ・喫茶", "category_id": "0100344", "time": [], "star": 3.68, "review": 4}, {"name": "カラオケ喫茶レクサス", "address": "岐阜県各務原市鵜沼川崎町3丁目190", "lat": 35.401951, "lon": 136.880453, "category": "カフェ・喫茶", "category_id": "0100344", "time": [], "star": 0.0, "review": 0}, {"name": "リゾートダイニング マハロMAHARO", "address": "岐阜県各務原市鵜沼三ツ池町1-151", "lat": 35.40285046, "lon": 136.88278817, "category": "ハワイ料理店", "category_id": "0100719", "time": ["11:30-15:00", "18:00-24:00"], "star": 3.95, "review": 24}, {"name": "炭火焼肉屋さかい 各務原店", "address": "岐阜県各務原市蘇原東栄町2-130", "lat": 35.40812984, "lon": 136.87562201, "category": "焼肉店", "category_id": "0101963", "time": ["17:00-23:00"], "star": 4.02, "review": 96}, {"name": "株式会社メルカート", "address": "岐阜県各務原市蘇原栄町2丁目10-1", "lat": 35.40494476, "lon": 136.86869838, "category": "レストラン", "category_id": "0100111", "time": [], "star": 0.0, "review": 0}, {"name": "Bistro de corazon", "address": "岐阜県各務原市蘇原菊園町1-87", "lat": 35.40435675, "lon": 136.86780932, "category": "フランス料理店", "category_id": "0100264", "time": ["11:30-14:00", "18:00-22:30"], "star": 4.03, "review": 20}], "ドラッグストア": [{"name": "スギ薬局 各務原東店", "address": "岐阜県各務原市蘇原瑞雲町4-11", "lat": 35.4073409, "lon": 136.8701726, "category": "ドラッグストア", "category_id": "0200699", "time": ["09:00-22:00"], "star": 4.13, "review": 8}, {"name": "Ｖ・drug 蘇原店", "address": "岐阜県各務原市蘇原東栄町2-92-1", "lat": 35.40822148, "lon": 136.87499429, "category": "ドラッグストア", "category_id": "0200699", "time": [], "star": 4.13, "review": 154}, {"name": "ユニスマイル薬局 蘇原店", "address": "岐阜県各務原市蘇原東栄町2-100-2 ", "lat": 35.40825759, "lon": 136.87526092, "category": "医療・薬・保険衛生関連", "category_id": "0401237", "time": ["09:00-19:00"], "star": 4.5, "review": 0}, {"name": "Ｖ・drug 蘇原薬局", "address": "岐阜県各務原市蘇原東栄町2-92-1", "lat": 35.40822148, "lon": 136.87499429, "category": "調剤薬局", "category_id": "0202315", "time": [], "star": 4.0, "review": 4}, {"name": "たんぽぽ薬局 蘇原店", "address": "岐阜県各務原市蘇原栄町二丁目8番", "lat": 35.40479115, "lon": 136.86810344, "category": "調剤薬局", "category_id": "0202315", "time": ["09:00-18:30"], "star": 0.0, "review": 0}, {"name": "スギ薬局調剤各務原東店", "address": "岐阜県各務原市蘇原瑞雲町4丁目11", "lat": 35.40730339, "lon": 136.87017536, "category": "調剤薬局", "category_id": "0202315", "time": ["09:00-22:00"], "star": 3.0, "review": 0}, {"name": "ペリカン薬局", "address": "岐阜県各務原市蘇原興亜町4丁目6-24", "lat": 35.40725029, "lon": 136.87719189, "category": "調剤薬局", "category_id": "0202315", "time": [], "star": 0.0, "review": 0}], "ATM": [{"name": "ゆうちょ銀行 各務原川崎郵便局", "address": "岐阜県各務原市鵜沼川崎町2-167", "lat": 35.4021454, "lon": 136.879753, "category": "銀行", "category_id": "0402596", "time": [], "star": 4.5, "review": 2}, {"name": "ゆうちょ銀行 ATM 各務原川崎郵便局", "address": "岐阜県各務原市鵜沼川崎町2-167", "lat": 35.4021454, "lon": 136.879753, "category": "ATM", "category_id": "0402785", "time": [], "star": 0.0, "review": 0}, {"name": "ゆうちょ銀行 ATM ファミリーマート各務原三ツ池二丁目店内出張所", "address": "岐阜県各務原市鵜沼三ツ池町2-190", "lat": 35.40215, "lon": 136.886492, "category": "ATM", "category_id": "0402785", "time": [], "star": 0.0, "review": 0}, {"name": "セブン銀行 各務原鵜沼三ツ池町店", "address": "岐阜県各務原市鵜沼三ツ池町1-3-1", "lat": 35.4064439, "lon": 136.882373, "category": "ATM", "category_id": "0402785", "time": ["00:00-24:00"], "star": 0.0, "review": 0}, {"name": "各務原川崎郵便局", "address": "岐阜県各務原市鵜沼川崎町2-167", "lat": 35.4021446, "lon": 136.8797524, "category": "郵便局", "category_id": "0400993", "time": ["09:00-17:00"], "star": 3.5, "review": 5}], "スーパーマーケット": [{"name": "Ｖ・drug 蘇原店", "address": "岐阜県各務原市蘇原東栄町2-92-1", "lat": 35.40822148, "lon": 136.87499429, "category": "ドラッグストア", "category_id": "0200699", "time": [], "star": 4.13, "review": 154}]}, "top_restaurant": {"name": "もりた", "category": "居酒屋", "star": 4.5, "review": 3}}, {"name": "上万場", "name_en": "Kami-Manba", "lat": 35.8444404, "lon": 136.8767728, "osm_id": 452816403, "operator": "長良川鉄道", "railway": "station", "wikidata": "Q6358114", "wikipedia_tag": "ja:上万場駅", "lines": ["長良川鉄道越美南線"], "pref": "岐阜県", "wikipedia_text": "上万場駅（かみまんばえき）は、岐阜県郡上市大和町万場にある、長良川鉄道越美南線の駅である。駅番号は31。", "wikipedia_image": "https://upload.wikimedia.org/wikipedia/commons/7/76/Kamimanbasta.jpg", "nearest_restaurant": {"name": "源助さん", "lat": 35.8814777, "lon": 136.8547262, "address": "", "distance_m": 4573, "cuisine": ""}, "nearby_pois": {"コンビニ": [{"name": "ファミリーマート 郡上中津屋店", "address": "岐阜県郡上市白鳥町中津屋704-1", "lat": 35.8492974, "lon": 136.8781538, "category": "コンビニ", "category_id": "0200487", "time": ["00:00-24:00"], "star": 4.0, "review": 8}], "飲食店": [{"name": "停車場", "address": "岐阜県郡上市白鳥町中津屋668-3", "lat": 35.8495738, "lon": 136.87796047, "category": "創作料理店", "category_id": "0101193", "time": ["08:00-14:30", "17:00-22:00"], "star": 3.61, "review": 12}, {"name": "四季の味旬", "address": "岐阜県郡上市白鳥町中津屋852-1", "lat": 35.85212905, "lon": 136.87701439, "category": "和食店", "category_id": "0100126", "time": [], "star": 3.1, "review": 2}, {"name": "ふる里", "address": "岐阜県郡上市白鳥町中津屋913-1", "lat": 35.8521581, "lon": 136.8737589, "category": "定食屋", "category_id": "0101441", "time": [], "star": 0.0, "review": 0}], "ATM": [{"name": "ゆうちょ銀行 ATM ファミリーマート郡上中津屋店内出張所", "address": "岐阜県郡上市白鳥町中津屋704-1", "lat": 35.8493068, "lon": 136.878059, "category": "ATM", "category_id": "0402785", "time": [], "star": 0.0, "review": 0}]}, "top_restaurant": {"name": "停車場", "category": "創作料理店", "star": 3.61, "review": 12}}, {"name": "上呂", "name_en": "Joro", "lat": 35.910732, "lon": 137.2047097, "osm_id": 265830360, "operator": "", "railway": "station", "wikidata": "Q5358767", "wikipedia_tag": "ja:上呂駅", "lines": ["高山本線"], "pref": "岐阜県", "wikipedia_text": "上呂駅（じょうろえき）は、岐阜県下呂市萩原町上呂にある、東海旅客鉄道（JR東海）高山本線の駅。", "wikipedia_image": "https://upload.wikimedia.org/wikipedia/commons/7/7c/Joro_station.jpg", "nearest_restaurant": {"name": "", "lat": 35.8856701, "lon": 137.1742593, "address": "", "distance_m": 3910, "cuisine": "japanese"}, "nearby_pois": {"コンビニ": [{"name": "ローソン 下呂上呂", "address": "岐阜県下呂市萩原町上呂1480", "lat": 35.9037595, "lon": 137.2044983, "category": "コンビニ", "category_id": "0200487", "time": ["00:00-24:00"], "star": 3.77, "review": 8}], "ラーメン": [{"name": "暖屋 ラーメン", "address": "岐阜県下呂市萩原町上呂1478", "lat": 35.903713347759, "lon": 137.20454322843, "category": "ラーメン店", "category_id": "0100097", "time": ["11:00-21:00"], "star": 3.49, "review": 13}, {"name": "レストイン いちい", "address": "岐阜県下呂市萩原町上呂1478", "lat": 35.90415806, "lon": 137.20432772, "category": "レストラン", "category_id": "0100111", "time": [], "star": 3.8, "review": 3}], "飲食店": [{"name": "大安食堂", "address": "岐阜県下呂市萩原町上呂876", "lat": 35.90766678, "lon": 137.2037824, "category": "飲食店", "category_id": "0102732", "time": ["09:00-21:30"], "star": 4.33, "review": 80}, {"name": "はるなみ食堂", "address": "岐阜県下呂市萩原町上呂1484", "lat": 35.903572707759, "lon": 137.20452897843, "category": "定食屋", "category_id": "0101441", "time": ["11:00-14:30", "17:00-22:30"], "star": 4.0, "review": 1}, {"name": "レストイン いちい", "address": "岐阜県下呂市萩原町上呂1478", "lat": 35.90415806, "lon": 137.20432772, "category": "レストラン", "category_id": "0100111", "time": [], "star": 3.8, "review": 3}, {"name": "麻々", "address": "岐阜県下呂市萩原町尾崎38-1", "lat": 35.910409667754, "lon": 137.2020359185, "category": "カフェ・喫茶", "category_id": "0100344", "time": [], "star": 0.0, "review": 0}, {"name": "牛一", "address": "岐阜県下呂市萩原町上呂921", "lat": 35.90608142, "lon": 137.20374828, "category": "焼肉店", "category_id": "0101963", "time": ["11:00-20:00"], "star": 4.01, "review": 25}, {"name": "ひばり飯店", "address": "岐阜県下呂市萩原町上呂228-1", "lat": 35.91480475, "lon": 137.20396662, "category": "中華料理店", "category_id": "0100990", "time": [], "star": 4.5, "review": 2}, {"name": "暖屋 ラーメン", "address": "岐阜県下呂市萩原町上呂1478", "lat": 35.903713347759, "lon": 137.20454322843, "category": "ラーメン店", "category_id": "0100097", "time": ["11:00-21:00"], "star": 3.49, "review": 13}, {"name": "やきにく大使", "address": "岐阜県下呂市萩原町上呂1478 ドライブイン いちい内", "lat": 35.90315125, "lon": 137.20486769, "category": "焼肉店", "category_id": "0101963", "time": ["17:00-22:30"], "star": 3.86, "review": 3}, {"name": "10base-T BAR", "address": "岐阜県下呂市萩原町上呂1489番地", "lat": 35.90315125, "lon": 137.20465938, "category": "飲食店", "category_id": "0102732", "time": [], "star": 0.0, "review": 0}, {"name": "レストイン いちい", "address": "岐阜県下呂市萩原町上呂1478", "lat": 35.904177627759, "lon": 137.20439957843, "category": "定食屋", "category_id": "0101441", "time": ["09:00-16:00"], "star": 3.4, "review": 2}, {"name": "みのり", "address": "岐阜県下呂市萩原町上呂927-1", "lat": 35.9043444, "lon": 137.2063428, "category": "カフェ・喫茶", "category_id": "0100344", "time": [], "star": 0.0, "review": 0}], "カフェ": [{"name": "麻々", "address": "岐阜県下呂市萩原町尾崎38-1", "lat": 35.910409667754, "lon": 137.2020359185, "category": "カフェ・喫茶", "category_id": "0100344", "time": [], "star": 0.0, "review": 0}, {"name": "みのり", "address": "岐阜県下呂市萩原町上呂927-1", "lat": 35.9043444, "lon": 137.2063428, "category": "カフェ・喫茶", "category_id": "0100344", "time": [], "star": 0.0, "review": 0}], "ドラッグストア": [{"name": "ゲンキー 萩原上呂店", "address": "岐阜県下呂市萩原町上呂823", "lat": 35.9089783, "lon": 137.2033205, "category": "ドラッグストア", "category_id": "0200699", "time": ["09:00-21:00"], "star": 3.4, "review": 11}, {"name": "キシダ薬店", "address": "岐阜県下呂市萩原町尾崎216-2", "lat": 35.91403342, "lon": 137.20256552, "category": "薬店", "category_id": "0202316", "time": [], "star": 0.0, "review": 0}], "ATM": [{"name": "ゆうちょ銀行 ATM 上呂郵便局", "address": "岐阜県下呂市萩原町上呂952-1", "lat": 35.9063118, "lon": 137.204266, "category": "ATM", "category_id": "0402785", "time": [], "star": 0.0, "review": 0}, {"name": "JAバンク ATM 飛騨農業協同組合(JAひだ)浅水支店", "address": "岐阜県下呂市萩原町尾崎9-6", "lat": 35.9107487, "lon": 137.201346, "category": "ATM", "category_id": "0402785", "time": [], "star": 0.0, "review": 0}, {"name": "JAバンク 飛騨農業協同組合(JAひだ)浅水支店", "address": "岐阜県下呂市萩原町尾崎9-6", "lat": 35.9107487, "lon": 137.201346, "category": "銀行", "category_id": "0402596", "time": [], "star": 0.0, "review": 0}, {"name": "ゆうちょ銀行 上呂郵便局", "address": "岐阜県下呂市萩原町上呂952-1", "lat": 35.9063118, "lon": 137.204266, "category": "銀行", "category_id": "0402596", "time": [], "star": 0.0, "review": 0}, {"name": "ローソン銀行 下呂上呂共同出張所", "address": "岐阜県下呂市萩原町上呂1480", "lat": 35.9037849, "lon": 137.204516, "category": "ATM", "category_id": "0402785", "time": ["00:00-24:00"], "star": 0.0, "review": 0}]}, "top_restaurant": {"name": "ひばり飯店", "category": "中華料理店", "star": 4.5, "review": 2}}, {"name": "上枝", "name_en": "Hozue", "lat": 36.1802604, "lon": 137.2456319, "osm_id": 265829538, "operator": "", "railway": "station", "wikidata": "Q5358338", "wikipedia_tag": "ja:上枝駅", "lines": ["高山本線"], "pref": "岐阜県", "wikipedia_text": "上枝駅（ほずええき）は、岐阜県高山市下切町にある、東海旅客鉄道（JR東海）高山本線の駅である。", "wikipedia_image": "https://upload.wikimedia.org/wikipedia/commons/4/49/%E4%B8%8A%E6%9E%9D%E9%A7%85.JPG", "nearest_convenience": {"name": "セブン-イレブン", "lat": 36.1568723, "lon": 137.2442389, "address": "", "distance_m": 2604, "brand": "7-ELEVEN"}, "nearest_restaurant": {"name": "国八食堂", "lat": 36.187165, "lon": 137.254382, "address": "", "distance_m": 1098, "cuisine": ""}, "nearby_pois": {"コンビニ": [{"name": "セブンイレブン 高山下切町", "address": "岐阜県高山市下切町1405", "lat": 36.1853378, "lon": 137.2539217, "category": "コンビニ", "category_id": "0200487", "time": ["00:00-24:00"], "star": 4.45, "review": 12}], "飲食店": [{"name": "せんべいcafe空色", "address": "岐阜県高山市下切町417番地3", "lat": 36.1825267436, "lon": 137.24675687311, "category": "カフェ・喫茶", "category_id": "0100344", "time": ["10:00-13:00"], "star": 0.0, "review": 0}, {"name": "長八食堂", "address": "岐阜県高山市下切町1359-1", "lat": 36.18424766, "lon": 137.25259659, "category": "飲食店", "category_id": "0102732", "time": ["11:00-15:00"], "star": 3.56, "review": 9}, {"name": "TimTimキッチン", "address": "岐阜県高山市下切町 294-6", "lat": 36.1818853587, "lon": 137.249147264, "category": "飲食店", "category_id": "0102732", "time": [], "star": 0.0, "review": 0}, {"name": "株式会社つばさキッチン", "address": "岐阜県高山市下切町1191-1", "lat": 36.17461401, "lon": 137.24836968, "category": "飲食店", "category_id": "0102732", "time": [], "star": 0.0, "review": 0}, {"name": "アザレヤ", "address": "岐阜県高山市下切町1162-7", "lat": 36.1714443, "lon": 137.2464966, "category": "カフェ・喫茶", "category_id": "0100344", "time": [], "star": 0.0, "review": 0}], "カフェ": [{"name": "せんべいcafe空色", "address": "岐阜県高山市下切町417番地3", "lat": 36.1825267436, "lon": 137.24675687311, "category": "カフェ・喫茶", "category_id": "0100344", "time": ["10:00-13:00"], "star": 0.0, "review": 0}, {"name": "アザレヤ", "address": "岐阜県高山市下切町1162-7", "lat": 36.1714443, "lon": 137.2464966, "category": "カフェ・喫茶", "category_id": "0100344", "time": [], "star": 0.0, "review": 0}], "ATM": [{"name": "ゆうちょ銀行 ATM 高山上枝駅前郵便局", "address": "岐阜県高山市下切町192-1", "lat": 36.1807049, "lon": 137.246677, "category": "ATM", "category_id": "0402785", "time": [], "star": 0.0, "review": 0}, {"name": "ゆうちょ銀行 高山上枝駅前郵便局", "address": "岐阜県高山市下切町192-1", "lat": 36.1807049, "lon": 137.246677, "category": "銀行", "category_id": "0402596", "time": [], "star": 0.0, "review": 0}, {"name": "セブン銀行 高山下切町店", "address": "岐阜県高山市下切町1405", "lat": 36.1855301, "lon": 137.253971, "category": "ATM", "category_id": "0402785", "time": ["00:00-24:00"], "star": 0.0, "review": 0}]}, "top_restaurant": {"name": "長八食堂", "category": "飲食店", "star": 3.56, "review": 9}}, {"name": "上麻生", "name_en": "Kamiaso", "lat": 35.5413606, "lon": 137.1189163, "osm_id": 265832653, "operator": "", "railway": "station", "wikidata": "Q5359088", "wikipedia_tag": "ja:上麻生駅", "lines": ["高山本線"], "pref": "岐阜県", "wikipedia_text": "上麻生駅（かみあそうえき）は、岐阜県加茂郡七宗町上麻生にある、東海旅客鉄道（JR東海）高山本線の駅である。", "wikipedia_image": "https://upload.wikimedia.org/wikipedia/commons/3/3b/Kamiaso_Stn2008-1.jpg", "nearby_pois": {"ラーメン": [{"name": "飛水商店", "address": "岐阜県加茂郡七宗町川並647-2", "lat": 35.53758918, "lon": 137.11790572, "category": "ラーメン店", "category_id": "0100097", "time": ["11:00-14:00", "17:00-21:00"], "star": 3.66, "review": 12}], "飲食店": [{"name": "ゆうゆう", "address": "岐阜県加茂郡七宗町中麻生1287-1", "lat": 35.53891753, "lon": 137.1149032, "category": "カフェ・喫茶", "category_id": "0100344", "time": ["07:30-17:00"], "star": 4.15, "review": 10}, {"name": "しやくなげ", "address": "岐阜県加茂郡七宗町上麻生2273-1", "lat": 35.541765, "lon": 137.1187584, "category": "カフェ・喫茶", "category_id": "0100344", "time": [], "star": 0.0, "review": 0}, {"name": "たつみや", "address": "岐阜県加茂郡七宗町川並653-1", "lat": 35.53724423, "lon": 137.11812432, "category": "焼肉店", "category_id": "0101963", "time": ["11:30-14:00", "16:00-21:00"], "star": 4.25, "review": 27}, {"name": "龍神そば", "address": "岐阜県加茂郡七宗町中麻生1176-3 道の駅ロックガーデン内", "lat": 35.5336533, "lon": 137.1148734, "category": "蕎麦店", "category_id": "0100034", "time": [], "star": 4.25, "review": 2}, {"name": "飛水商店", "address": "岐阜県加茂郡七宗町川並647-2", "lat": 35.53758918, "lon": 137.11790572, "category": "ラーメン店", "category_id": "0100097", "time": ["11:00-14:00", "17:00-21:00"], "star": 3.66, "review": 12}, {"name": "道の駅 ロック・ガーデン ひちそう", "address": "岐阜県加茂郡七宗町大字中麻生1169-3", "lat": 35.5339326, "lon": 137.1143615, "category": "道の駅", "category_id": "0302504", "time": ["09:00-17:00"], "star": 3.73, "review": 54}], "カフェ": [{"name": "ゆうゆう", "address": "岐阜県加茂郡七宗町中麻生1287-1", "lat": 35.53891753, "lon": 137.1149032, "category": "カフェ・喫茶", "category_id": "0100344", "time": ["07:30-17:00"], "star": 4.15, "review": 10}, {"name": "しやくなげ", "address": "岐阜県加茂郡七宗町上麻生2273-1", "lat": 35.541765, "lon": 137.1187584, "category": "カフェ・喫茶", "category_id": "0100344", "time": [], "star": 0.0, "review": 0}, {"name": "道の駅 ロック・ガーデン ひちそう", "address": "岐阜県加茂郡七宗町大字中麻生1169-3", "lat": 35.5339326, "lon": 137.1143615, "category": "道の駅", "category_id": "0302504", "time": ["09:00-17:00"], "star": 3.73, "review": 54}, {"name": "ロック・ガーデンひちそう/ロックタウンプラザ", "address": "岐阜県加茂郡七宗町中麻生1169-1", "lat": 35.534050142282, "lon": 137.11437134384, "category": "", "category_id": "", "time": ["09:00-17:00"], "star": 3.88, "review": 68}], "ドラッグストア": [{"name": "Ｖ・drug 七宗薬局", "address": "岐阜県加茂郡七宗町上麻生字渡合2161-1", "lat": 35.54178729, "lon": 137.11822183, "category": "調剤薬局", "category_id": "0202315", "time": [], "star": 0.0, "review": 0}], "ATM": [{"name": "ゆうちょ銀行 ATM 七宗郵便局", "address": "岐阜県加茂郡七宗町上麻生2507-2", "lat": 35.5420032, "lon": 137.117951, "category": "ATM", "category_id": "0402785", "time": [], "star": 0.0, "review": 0}, {"name": "ゆうちょ銀行 七宗郵便局", "address": "岐阜県加茂郡七宗町上麻生2507-2", "lat": 35.5420032, "lon": 137.117951, "category": "銀行", "category_id": "0402596", "time": [], "star": 0.0, "review": 0}, {"name": "JAバンク ATM めぐみの農業協同組合(JAめぐみの)上麻生営業所", "address": "岐阜県加茂郡七宗町上麻生2134-1", "lat": 35.5425318, "lon": 137.121299, "category": "ATM", "category_id": "0402785", "time": [], "star": 0.0, "review": 0}]}, "top_restaurant": {"name": "たつみや", "category": "焼肉店", "star": 4.25, "review": 27}}, {"name": "下呂", "name_en": "Gero", "lat": 35.8058151, "lon": 137.2395509, "osm_id": 265832445, "operator": "", "railway": "station", "wikidata": "Q873111", "wikipedia_tag": "ja:下呂駅", "lines": ["ひだ", "高山本線"], "pref": "岐阜県", "wikipedia_text": "下呂駅（げろえき）は、岐阜県下呂市幸田にある、東海旅客鉄道（JR東海）高山本線の駅である。駅番号はCG16。特急「ひだ」の全列車が停車する。\n2016年3月現在、高山本線のキハ75形による運用は岐阜駅から当駅までで、当駅 - 高山駅・猪谷駅間の普通列車は、キハ25形のみの運用となる。\nまた、青空フリーパスの高山本線の北端である。", "wikipedia_image": "https://upload.wikimedia.org/wikipedia/commons/6/6e/Gero-Sta001.JPG", "nearest_convenience": {"name": "デイリーヤマザキ下呂温泉店", "lat": 35.8073037, "lon": 137.2398755, "address": "岐阜下呂市幸田1188−4", "distance_m": 168, "brand": ""}, "nearest_restaurant": {"name": "マルコ", "lat": 35.8054135, "lon": 137.2391823, "address": "", "distance_m": 56, "cuisine": ""}, "nearby_pois": {"コンビニ": [{"name": "デイリーヤマザキ 下呂温泉店", "address": "岐阜県下呂市幸田1188-4", "lat": 35.8073614, "lon": 137.239914, "category": "コンビニ", "category_id": "0200487", "time": ["00:00-24:00"], "star": 3.54, "review": 19}, {"name": "ローソン 下呂温泉", "address": "岐阜県下呂市湯之島801-1", "lat": 35.8083058, "lon": 137.2426276, "category": "コンビニ", "category_id": "0200487", "time": ["00:00-24:00"], "star": 4.11, "review": 19}, {"name": "ファミリーマート 下呂市役所前店", "address": "岐阜県下呂市森971-39", "lat": 35.8053896, "lon": 137.2444553, "category": "コンビニ", "category_id": "0200487", "time": ["00:00-24:00"], "star": 3.74, "review": 11}, {"name": "デイリーヤマザキ 下呂森店", "address": "岐阜県下呂市森793-1", "lat": 35.8022595, "lon": 137.2474606, "category": "コンビニ", "category_id": "0200487", "time": ["00:00-24:00"], "star": 4.18, "review": 5}, {"name": "下呂温泉木曽屋", "address": "岐阜県下呂市森971-1", "lat": 35.8052285, "lon": 137.2443859, "category": "温泉旅館", "category_id": "0301918", "time": [], "star": 3.98, "review": 59}, {"name": "下呂ロイヤルホテル雅亭", "address": "岐阜県下呂市湯之島758-15", "lat": 35.8088891, "lon": 137.243558, "category": "ホテル", "category_id": "0300124", "time": ["00:00-24:00"], "star": 4.13, "review": 65}, {"name": "飛騨交通観光サービス", "address": "岐阜県下呂市森859-47", "lat": 35.80340877, "lon": 137.24572861, "category": "旅行代理店", "category_id": "0301674", "time": ["08:00-18:00"], "star": 4.5, "review": 0}], "ラーメン": [{"name": "木の実", "address": "岐阜県下呂市幸田1168-2", "lat": 35.806333972021, "lon": 137.24021577634, "category": "ラーメン店", "category_id": "0100097", "time": [], "star": 3.63, "review": 9}, {"name": "豆天狗 下呂温泉店", "address": "岐阜県下呂市湯之島801-2", "lat": 35.808477287832, "lon": 137.24289310744, "category": "ラーメン店", "category_id": "0100097", "time": ["11:00-16:00"], "star": 3.68, "review": 36}, {"name": "お好み和食ほうらい 下呂温泉 望川館", "address": "岐阜県下呂市湯之島190-1", "lat": 35.811664151235, "lon": 137.23789459755, "category": "ラーメン店", "category_id": "0100097", "time": [], "star": 0.0, "review": 0}, {"name": "篝火", "address": "岐阜県下呂市湯之島645 湯之島館", "lat": 35.812048067829, "lon": 137.24202703748, "category": "居酒屋", "category_id": "0101495", "time": ["20:00-23:00"], "star": 3.2, "review": 1}, {"name": "麺匠 やまろ", "address": "岐阜県下呂市森131", "lat": 35.802802407835, "lon": 137.24372785738, "category": "ラーメン店", "category_id": "0100097", "time": ["11:00-15:00", "18:00-21:00"], "star": 3.21, "review": 17}, {"name": "飛騨屋", "address": "岐阜県下呂市湯之島866", "lat": 35.8092796, "lon": 137.24196875, "category": "飲食店", "category_id": "0102732", "time": ["11:00-17:00"], "star": 3.79, "review": 32}, {"name": "めん屋 とりしょう 下呂店", "address": "岐阜県下呂市森1116-3", "lat": 35.80872531, "lon": 137.24453297, "category": "ラーメン店", "category_id": "0100097", "time": ["11:00-15:00"], "star": 4.0, "review": 1}, {"name": "龍遊里", "address": "岐阜県下呂市幸田1268 水明館館内", "lat": 35.805226747833, "lon": 137.24144271741, "category": "中華料理店", "category_id": "0100990", "time": ["17:00-21:00", "21:30-24:00"], "star": 4.3, "review": 19}, {"name": "桃庵", "address": "岐阜県下呂市湯之島237-6", "lat": 35.81182783, "lon": 137.2385598, "category": "中華料理店", "category_id": "0100990", "time": ["18:00-24:00"], "star": 4.15, "review": 29}, {"name": "らーめんこのみ", "address": "岐阜県下呂市幸田1168-2", "lat": 35.80633789, "lon": 137.24022457, "category": "ラーメン店", "category_id": "0100097", "time": [], "star": 0.0, "review": 1}, {"name": "更科", "address": "岐阜県下呂市湯之島915-2", "lat": 35.81064994, "lon": 137.239895, "category": "蕎麦店", "category_id": "0100034", "time": ["11:00-13:30", "17:30-24:00"], "star": 3.45, "review": 12}, {"name": "麺類の中畑", "address": "岐阜県下呂市森813-1", "lat": 35.80295653, "lon": 137.24556803, "category": "飲食店", "category_id": "0102732", "time": ["10:00-19:30"], "star": 3.6, "review": 2}, {"name": "桔梗屋支店", "address": "岐阜県下呂市森1032-5", "lat": 35.80709013, "lon": 137.24265042, "category": "蕎麦店", "category_id": "0100034", "time": ["10:30-20:00"], "star": 3.19, "review": 22}, {"name": "お食事処 しずなみ", "address": "岐阜県下呂市湯之島215-1", "lat": 35.81199919, "lon": 137.23822454, "category": "定食屋", "category_id": "0101441", "time": ["11:00-14:00", "16:30-23:00"], "star": 3.42, "review": 13}, {"name": "お食事処宴蔵", "address": "岐阜県下呂市森971-59", "lat": 35.805413692691, "lon": 137.24444106816, "category": "和食店", "category_id": "0100126", "time": ["11:00-15:00", "17:00-22:30"], "star": 3.92, "review": 24}, {"name": "居酒屋 レンガ横丁", "address": "岐阜県下呂市幸田1811下呂温泉ホテルくさかべアルメリア本館 1Fロビー奥", "lat": 35.808551, "lon": 137.234962, "category": "居酒屋", "category_id": "0101495", "time": ["18:00-23:30"], "star": 3.47, "review": 10}, {"name": "へいあん楽", "address": "岐阜県下呂市森1225-1", "lat": 35.80882148, "lon": 137.24646251, "category": "飲食店", "category_id": "0102732", "time": ["11:30-14:00", "17:00-23:00"], "star": 3.84, "review": 16}], "飲食店": [{"name": "おしゃべり", "address": "岐阜県下呂市幸田1078", "lat": 35.807532370194, "lon": 137.23848704345, "category": "カフェ・喫茶", "category_id": "0100344", "time": [], "star": 0.0, "review": 1}, {"name": "和モダンレストラン 花梨", "address": "岐阜県下呂市幸田1550 つるつるの湯下呂温泉 みのり荘 3F", "lat": 35.806019837831, "lon": 137.23752298742, "category": "レストラン", "category_id": "0100111", "time": ["11:00-14:00", "18:00-19:00"], "star": 4.0, "review": 0}, {"name": "カフェ・ド・オンセン", "address": "岐阜県下呂市幸田1348-8 明治屋 2F", "lat": 35.804942283465, "lon": 137.23962429459, "category": "カフェ・喫茶", "category_id": "0100344", "time": ["08:30-17:30"], "star": 0.0, "review": 0}, {"name": "下呂温泉ソサエティ ラウンジ", "address": "岐阜県下呂市少ヶ野3-20 ダイヤモンド下呂温泉ソサエティ 1F", "lat": 35.802673017835, "lon": 137.24129036738, "category": "カフェ・喫茶", "category_id": "0100344", "time": ["07:30-22:00"], "star": 3.68, "review": 1}, {"name": "レストラン バーガンディ", "address": "岐阜県下呂市幸田1811 ホテルくさかべアルメリア", "lat": 35.808436037829, "lon": 137.23451758744, "category": "ビュッフェレストラン", "category_id": "0100764", "time": ["11:00-14:30", "17:00-20:30"], "star": 3.36, "review": 8}, {"name": "下呂温泉ソサエティ レストラン", "address": "岐阜県下呂市少ヶ野3-20 ダイヤモンド下呂温泉ソサエティ 2F", "lat": 35.802672987835, "lon": 137.24129164738, "category": "郷土料理店", "category_id": "0100075", "time": ["17:30-21:30"], "star": 4.3, "review": 1}, {"name": "ムーンライト", "address": "岐阜県下呂市湯之島645 湯乃島館内", "lat": 35.812013724692, "lon": 137.24204523875, "category": "バー", "category_id": "0100536", "time": ["20:00-23:00"], "star": 4.5, "review": 1}, {"name": "小料理 たかし", "address": "岐阜県下呂市森1108-8", "lat": 35.808603237832, "lon": 137.24398618744, "category": "和食店", "category_id": "0100126", "time": [], "star": 3.5, "review": 1}, {"name": "レストラン 遊雅", "address": "岐阜県下呂市湯之島758-15", "lat": 35.808923097832, "lon": 137.24375453744, "category": "牛肉料理店", "category_id": "0102960", "time": ["11:30-15:00"], "star": 3.0, "review": 3}, {"name": "つづみ食堂", "address": "岐阜県下呂市森白樺ホテル 1F1089-1", "lat": 35.808155689229, "lon": 137.24321077292, "category": "和食店", "category_id": "0100126", "time": [], "star": 0.0, "review": 0}, {"name": "バーデンバーデン", "address": "岐阜県下呂市幸田1268 水明館 1F", "lat": 35.80660398, "lon": 137.2404262, "category": "飲食店", "category_id": "0102732", "time": ["10:00-21:00"], "star": 4.41, "review": 40}, {"name": "レストランベルビュー", "address": "岐阜県下呂市幸田1811 ホテルくさかべアルメリア", "lat": 35.808624057829, "lon": 137.23428266745, "category": "会席・懐石料理店", "category_id": "0101064", "time": ["17:00-21:00"], "star": 3.34, "review": 10}, {"name": "篝火", "address": "岐阜県下呂市湯之島645 湯之島館", "lat": 35.812048067829, "lon": 137.24202703748, "category": "居酒屋", "category_id": "0101495", "time": ["20:00-23:00"], "star": 3.2, "review": 1}, {"name": "望川館 小座敷 観月", "address": "岐阜県下呂市湯之島198 望川館", "lat": 35.8116115365, "lon": 137.23769970292, "category": "和食店", "category_id": "0100126", "time": [], "star": 3.77, "review": 3}, {"name": "ダイニング常盤 水明館", "address": "岐阜県下呂市幸田1268", "lat": 35.805770452767, "lon": 137.24099317178, "category": "洋食店", "category_id": "0100129", "time": [], "star": 4.88, "review": 7}, {"name": "お好み和食ほうらい 下呂温泉 望川館", "address": "岐阜県下呂市湯之島190-1", "lat": 35.811664151235, "lon": 137.23789459755, "category": "ラーメン店", "category_id": "0100097", "time": [], "star": 0.0, "review": 0}, {"name": "下呂カリーパン", "address": "岐阜県下呂市湯之島547-7", "lat": 35.809697, "lon": 137.241467, "category": "飲食店", "category_id": "0102732", "time": [], "star": 4.21, "review": 12}, {"name": "おやつとらっく あげいん", "address": "岐阜県下呂市湯之島かえる神社内", "lat": 35.810991030138, "lon": 137.23920736884, "category": "ハンバーガー店", "category_id": "0100722", "time": [], "star": 0.0, "review": 0}, {"name": "マローネ", "address": "岐阜県下呂市幸田1268 水明館 1F", "lat": 35.80584304226, "lon": 137.24087276054, "category": "バー", "category_id": "0100536", "time": ["20:00-23:00"], "star": 3.91, "review": 8}, {"name": "エビアン", "address": "岐阜県下呂市幸田1268 水明館 1F", "lat": 35.805898037027, "lon": 137.24108438625, "category": "カフェ・喫茶", "category_id": "0100344", "time": ["09:00-21:00"], "star": 4.29, "review": 48}], "カフェ": [{"name": "おしゃべり", "address": "岐阜県下呂市幸田1078", "lat": 35.807532370194, "lon": 137.23848704345, "category": "カフェ・喫茶", "category_id": "0100344", "time": [], "star": 0.0, "review": 1}, {"name": "下呂温泉ソサエティ ラウンジ", "address": "岐阜県下呂市少ヶ野3-20 ダイヤモンド下呂温泉ソサエティ 1F", "lat": 35.802673017835, "lon": 137.24129036738, "category": "カフェ・喫茶", "category_id": "0100344", "time": ["07:30-22:00"], "star": 3.68, "review": 1}, {"name": "カフェ・ド・オンセン", "address": "岐阜県下呂市幸田1348-8 明治屋 2F", "lat": 35.804942283465, "lon": 137.23962429459, "category": "カフェ・喫茶", "category_id": "0100344", "time": ["08:30-17:30"], "star": 0.0, "review": 0}, {"name": "抹茶カフェ みどりいろ", "address": "岐阜県下呂市幸田1442-1", "lat": 35.807090017831, "lon": 137.23833462743, "category": "カフェ・喫茶", "category_id": "0100344", "time": ["09:00-16:30"], "star": 0.0, "review": 3}, {"name": "エビアン", "address": "岐阜県下呂市幸田1268 水明館 1F", "lat": 35.805898037027, "lon": 137.24108438625, "category": "カフェ・喫茶", "category_id": "0100344", "time": ["09:00-21:00"], "star": 4.29, "review": 48}, {"name": "ジーニョ", "address": "岐阜県下呂市森967-2", "lat": 35.80566199, "lon": 137.24367036, "category": "カフェ・喫茶", "category_id": "0100344", "time": ["09:00-14:00", "17:00-21:00"], "star": 4.26, "review": 9}, {"name": "草想", "address": "岐阜県下呂市幸田1151-2 サンワールドビル 2F", "lat": 35.80750884, "lon": 137.23932683, "category": "カフェ・喫茶", "category_id": "0100344", "time": ["08:00-16:00"], "star": 4.25, "review": 2}, {"name": "マルコ喫茶食事", "address": "岐阜県下呂市幸田1374", "lat": 35.80540043, "lon": 137.2391111, "category": "カフェ・喫茶", "category_id": "0100344", "time": ["09:00-16:30"], "star": 3.51, "review": 13}, {"name": "カフェ ド ワカミ", "address": "岐阜県下呂市湯之島851", "lat": 35.80960149, "lon": 137.24129546, "category": "カフェ・喫茶", "category_id": "0100344", "time": ["08:30-18:00"], "star": 4.02, "review": 9}, {"name": "喫茶 富喜屋", "address": "岐阜県下呂市幸田1185", "lat": 35.807169187831, "lon": 137.24007108743, "category": "カフェ・喫茶", "category_id": "0100344", "time": ["08:00-16:00"], "star": 3.67, "review": 9}, {"name": "西尾商店", "address": "岐阜県下呂市幸田1391", "lat": 35.805277797573, "lon": 137.23930597224, "category": "カフェ・喫茶", "category_id": "0100344", "time": ["08:00-17:00"], "star": 3.97, "review": 3}, {"name": "よしまる", "address": "岐阜県下呂市幸田1394-9", "lat": 35.80522266, "lon": 137.23914528, "category": "カフェ・喫茶", "category_id": "0100344", "time": [], "star": 0.0, "review": 0}, {"name": "喫茶ニシオ", "address": "岐阜県下呂市幸田1391", "lat": 35.80527545, "lon": 137.2393072, "category": "カフェ・喫茶", "category_id": "0100344", "time": [], "star": 0.0, "review": 0}, {"name": "萬古庵", "address": "岐阜県下呂市森2369 下呂温泉 合掌村内", "lat": 35.807822266138714, "lon": 137.2502898008418, "category": "カフェ・喫茶", "category_id": "0100344", "time": ["08:30-17:00"], "star": 4.08, "review": 18}, {"name": "水明館 売店", "address": "岐阜県下呂市幸田1268", "lat": 35.80579610532, "lon": 137.24101497312, "category": "土産物店", "category_id": "0200202", "time": ["07:00-22:00"], "star": 4.56, "review": 2}, {"name": "ムサシ", "address": "岐阜県下呂市森2506-4", "lat": 35.80901847, "lon": 137.24834592, "category": "カフェ・喫茶", "category_id": "0100344", "time": [], "star": 3.67, "review": 11}, {"name": "モリ", "address": "岐阜県下呂市幸田1174-1", "lat": 35.8060083, "lon": 137.2403389, "category": "カフェ・喫茶", "category_id": "0100344", "time": [], "star": 0.0, "review": 0}, {"name": "じゅん", "address": "岐阜県下呂市森1045-3", "lat": 35.8063989, "lon": 137.2435325, "category": "カフェ・喫茶", "category_id": "0100344", "time": [], "star": 0.0, "review": 0}, {"name": "あるぶる", "address": "岐阜県下呂市湯之島238-5", "lat": 35.811881523433, "lon": 137.23860489309, "category": "カフェ・喫茶", "category_id": "0100344", "time": [], "star": 3.2, "review": 1}, {"name": "ブラン・デュエトワール", "address": "岐阜県下呂市湯之島789", "lat": 35.80904825, "lon": 137.24248009, "category": "レストラン", "category_id": "0100111", "time": [], "star": 3.91, "review": 5}], "ドラッグストア": [{"name": "Ｖ・drug 下呂店", "address": "岐阜県下呂市森字折坂854-9", "lat": 35.80411753, "lon": 137.24574964, "category": "ドラッグストア", "category_id": "0200699", "time": ["09:00-22:00"], "star": 4.09, "review": 27}, {"name": "奥田又右衛門膏本舗　直営店", "address": "岐阜県下呂市森28", "lat": 35.80128167, "lon": 137.24522203, "category": "ドラッグストア", "category_id": "0200699", "time": ["09:00-17:00"], "star": 0.0, "review": 0}, {"name": "薬のリーフ", "address": "岐阜県下呂市幸田1332-9", "lat": 35.804443359375, "lon": 137.24014282226562, "category": "薬店", "category_id": "0202316", "time": [], "star": 0.0, "review": 0}, {"name": "イマエダ薬局", "address": "岐阜県下呂市湯之島857-1", "lat": 35.8095065, "lon": 137.2414885, "category": "調剤薬局", "category_id": "0202315", "time": [], "star": 4.0, "review": 0}, {"name": "齋藤薬局", "address": "岐阜県下呂市森979-37", "lat": 35.80460073, "lon": 137.24396369, "category": "薬局・薬店関連", "category_id": "0202317", "time": [], "star": 0.0, "review": 0}], "ATM": [{"name": "十六銀行 ATM 下呂支店", "address": "岐阜県下呂市森979-1", "lat": 35.8049908, "lon": 137.243879, "category": "ATM", "category_id": "0402785", "time": [], "star": 0.0, "review": 0}, {"name": "ゆうちょ銀行 ATM 下呂郵便局", "address": "岐阜県下呂市森961-14", "lat": 35.8055185, "lon": 137.243822, "category": "ATM", "category_id": "0402785", "time": [], "star": 0.0, "review": 0}, {"name": "信用組合 ATM 益田信用組合 下呂市役所下呂庁舎共同ATM", "address": "岐阜県下呂市森960", "lat": 35.805883, "lon": 137.244063, "category": "ATM", "category_id": "0402785", "time": [], "star": 0.0, "review": 0}, {"name": "十六銀行 下呂支店", "address": "岐阜県下呂市森979-1", "lat": 35.8050173, "lon": 137.2439192, "category": "銀行", "category_id": "0402596", "time": ["09:00-15:00"], "star": 0.0, "review": 0}, {"name": "ゆうちょ銀行 ATM ファミリーマート下呂市役所前店内出張所", "address": "岐阜県下呂市森971-39", "lat": 35.8053699, "lon": 137.244488, "category": "ATM", "category_id": "0402785", "time": [], "star": 0.0, "review": 0}, {"name": "JAバンク ATM 飛騨農業協同組合(JAひだ)下呂市役所", "address": "岐阜県下呂市森960 下呂市下呂庁舎玄関", "lat": 35.8057592, "lon": 137.244107, "category": "ATM", "category_id": "0402785", "time": [], "star": 0.0, "review": 0}, {"name": "ローソン銀行 下呂温泉共同出張所", "address": "岐阜県下呂市湯之島801-1", "lat": 35.8082859, "lon": 137.242611, "category": "ATM", "category_id": "0402785", "time": ["00:00-24:00"], "star": 4.0, "review": 0}, {"name": "ゆうちょ銀行 下呂郵便局", "address": "岐阜県下呂市森961-14", "lat": 35.8055185, "lon": 137.243822, "category": "銀行", "category_id": "0402596", "time": [], "star": 0.0, "review": 0}, {"name": "JAバンク ATM 飛騨農業協同組合(JAひだ)下呂支店", "address": "岐阜県下呂市森800-1", "lat": 35.8025744, "lon": 137.246356, "category": "ATM", "category_id": "0402785", "time": [], "star": 0.0, "review": 0}, {"name": "高山信用金庫 下呂支店", "address": "岐阜県下呂市森1064-24", "lat": 35.8070088, "lon": 137.2429582, "category": "信用金庫", "category_id": "0401098", "time": ["09:00-15:00"], "star": 0.0, "review": 0}, {"name": "信用組合 益田信用組合 本店", "address": "岐阜県下呂市森690-1", "lat": 35.80183173, "lon": 137.24787728, "category": "信用組合", "category_id": "0401097", "time": [], "star": 0.0, "review": 0}, {"name": "JAバンク 飛騨農業協同組合(JAひだ)下呂支店", "address": "岐阜県下呂市森800-1", "lat": 35.8025744, "lon": 137.246356, "category": "銀行", "category_id": "0402596", "time": [], "star": 0.0, "review": 0}, {"name": "信用組合 益田信用組合 六ツ見出張所", "address": "岐阜県下呂市森65-1", "lat": 35.8023113, "lon": 137.244144, "category": "信用組合", "category_id": "0401097", "time": [], "star": 0.0, "review": 0}], "銭湯 温泉": [{"name": "下呂温泉 小川屋", "address": "岐阜県下呂市湯之島570", "lat": 35.80862079, "lon": 137.2419417, "category": "日帰り入浴", "category_id": "0401679", "time": ["12:00-19:00"], "star": 4.17, "review": 358}, {"name": "下呂温泉 幸乃湯", "address": "岐阜県下呂市幸田1144", "lat": 35.808364025, "lon": 137.239008497, "category": "日帰り入浴", "category_id": "0401679", "time": ["13:00-21:00"], "star": 3.95, "review": 25}, {"name": "下呂温泉 白鷺の湯", "address": "岐阜県下呂市湯之島856-1", "lat": 35.809264025, "lon": 137.241433238, "category": "日帰り入浴", "category_id": "0401679", "time": ["10:00-20:45"], "star": 4.18, "review": 40}, {"name": "クアガーデン露天風呂", "address": "岐阜県下呂市湯之島894-2", "lat": 35.81013138, "lon": 137.23978142, "category": "日帰り入浴", "category_id": "0401679", "time": ["08:00-20:45"], "star": 4.18, "review": 35}, {"name": "下呂温泉 水明館", "address": "岐阜県下呂市幸田1268", "lat": 35.80585891, "lon": 137.2410052, "category": "温泉旅館", "category_id": "0301918", "time": [], "star": 4.24, "review": 686}, {"name": "大江戸温泉物語 下呂別館", "address": "岐阜県下呂市湯之島535 ", "lat": 35.810375, "lon": 137.2408027, "category": "ホテル", "category_id": "0300124", "time": ["00:00-24:00"], "star": 3.78, "review": 179}, {"name": "大江戸温泉物語Premium 下呂本館", "address": "岐阜県下呂市幸田1605", "lat": 35.80643413, "lon": 137.2367459, "category": "ホテル", "category_id": "0300124", "time": [], "star": 4.13, "review": 125}, {"name": "日帰り入浴 下呂温泉 水明館", "address": "岐阜県下呂市幸田1268", "lat": 35.80585891, "lon": 137.2410052, "category": "日帰り入浴", "category_id": "0401679", "time": ["11:00-14:00"], "star": 0.0, "review": 0}, {"name": "下呂温泉 ホテルくさかべアルメリア", "address": "岐阜県下呂市幸田1811", "lat": 35.80839147, "lon": 137.2347518, "category": "温泉旅館", "category_id": "0301918", "time": [], "star": 4.08, "review": 337}, {"name": "日帰り入浴 大江戸温泉物語Premium 下呂本館", "address": "岐阜県下呂市幸田1605", "lat": 35.80643413, "lon": 137.2367459, "category": "日帰り入浴", "category_id": "0401679", "time": ["07:00-10:00", "15:00-24:00"], "star": 0.0, "review": 0}, {"name": "日帰り入浴 下呂温泉ソサエティ", "address": "岐阜県下呂市少ヶ野3-20", "lat": 35.8027119, "lon": 137.2412613, "category": "日帰り入浴", "category_id": "0401679", "time": [], "star": 0.0, "review": 0}, {"name": "日帰り入浴 大江戸温泉物語 下呂別館", "address": "岐阜県下呂市湯之島535", "lat": 35.8104, "lon": 137.2407999, "category": "日帰り入浴", "category_id": "0401679", "time": ["07:00-10:00", "15:00-24:00"], "star": 0.0, "review": 0}, {"name": "日帰り入浴 下呂温泉 なごみの宿 木曽屋", "address": "岐阜県下呂市森971-1", "lat": 35.8052285, "lon": 137.2443859, "category": "日帰り入浴", "category_id": "0401679", "time": ["15:00-23:00"], "star": 0.0, "review": 0}, {"name": "日帰り入浴 下呂温泉 アートな館 紗々羅", "address": "岐阜県下呂市森1412-1", "lat": 35.8061117, "lon": 137.2447191, "category": "日帰り入浴", "category_id": "0401679", "time": [], "star": 0.0, "review": 0}, {"name": "日帰り入浴 吉泉館 竹翠亭", "address": "岐阜県下呂市幸田1098", "lat": 35.8083112, "lon": 137.2382836, "category": "日帰り入浴", "category_id": "0401679", "time": ["12:00-14:00", "18:00-20:00"], "star": 0.0, "review": 0}, {"name": "日帰り入浴 下呂温泉 冨岳", "address": "岐阜県下呂市湯之島898", "lat": 35.8103611, "lon": 137.2398833, "category": "日帰り入浴", "category_id": "0401679", "time": ["18:00-20:00"], "star": 0.0, "review": 0}, {"name": "日帰り入浴 下呂温泉 山形屋", "address": "岐阜県下呂市湯之島260-1", "lat": 35.8107749, "lon": 137.238814, "category": "日帰り入浴", "category_id": "0401679", "time": ["12:00-18:00"], "star": 0.0, "review": 0}, {"name": "日帰り入浴 下呂温泉 望川館", "address": "岐阜県下呂市湯之島190-1", "lat": 35.8116109, "lon": 137.2377335, "category": "日帰り入浴", "category_id": "0401679", "time": ["18:00-20:00"], "star": 0.0, "review": 0}, {"name": "日帰り入浴 ゆらぎの里 ひだ山荘", "address": "岐阜県下呂市湯之島683番地1", "lat": 35.81061063, "lon": 137.24367022, "category": "日帰り入浴", "category_id": "0401679", "time": ["15:00-20:00"], "star": 0.0, "review": 0}, {"name": "日帰り入浴 菊半旅館", "address": "岐阜県下呂市湯之島281", "lat": 35.8110582, "lon": 137.2394028, "category": "日帰り入浴", "category_id": "0401679", "time": ["17:30-21:00"], "star": 0.0, "review": 0}], "スーパーマーケット": [{"name": "全日食チェーン 下呂魚介", "address": "岐阜県下呂市森979-28", "lat": 35.80470628, "lon": 137.24417895, "category": "スーパー", "category_id": "0200612", "time": ["10:00-19:00"], "star": 4.45, "review": 7}, {"name": "Ｖ・drug 下呂店", "address": "岐阜県下呂市森字折坂854-9", "lat": 35.80411753, "lon": 137.24574964, "category": "ドラッグストア", "category_id": "0200699", "time": ["09:00-22:00"], "star": 4.09, "review": 27}]}, "top_restaurant": {"name": "ダイニング常盤 水明館", "category": "洋食店", "star": 4.88, "review": 7}}, {"name": "下油井", "name_en": "Shimo-Yui", "lat": 35.6334528, "lon": 137.1831146, "osm_id": 265830339, "operator": "", "railway": "station", "wikidata": "Q7497027", "wikipedia_tag": "ja:下油井駅", "lines": ["高山本線"], "pref": "岐阜県", "wikipedia_text": "下油井駅（しもゆいえき）は、岐阜県加茂郡白川町白山にある、東海旅客鉄道（JR東海）高山本線の駅。", "wikipedia_image": "https://upload.wikimedia.org/wikipedia/commons/e/ee/%E4%B8%8B%E6%B2%B9%E4%BA%95%E9%A7%85.JPG", "nearest_convenience": {"name": "デイリーヤマザキ", "lat": 35.6529322, "lon": 137.1545231, "address": "", "distance_m": 3371, "brand": "Daily YAMAZAKI"}, "nearest_restaurant": {"name": "レストランひざん", "lat": 35.6611274, "lon": 137.1559006, "address": "", "distance_m": 3939, "cuisine": ""}, "nearby_pois": {"飲食店": [{"name": "ブルート", "address": "岐阜県加茂郡白川町坂ノ東87-5", "lat": 35.6379225, "lon": 137.1841958, "category": "カフェ・喫茶", "category_id": "0100344", "time": [], "star": 0.0, "review": 0}, {"name": "ともづれ", "address": "岐阜県加茂郡白川町坂ノ東81-1", "lat": 35.6381475, "lon": 137.1842652, "category": "カフェ・喫茶", "category_id": "0100344", "time": [], "star": 0.0, "review": 0}], "カフェ": [{"name": "ともづれ", "address": "岐阜県加茂郡白川町坂ノ東81-1", "lat": 35.6381475, "lon": 137.1842652, "category": "カフェ・喫茶", "category_id": "0100344", "time": [], "star": 0.0, "review": 0}, {"name": "ブルート", "address": "岐阜県加茂郡白川町坂ノ東87-5", "lat": 35.6379225, "lon": 137.1841958, "category": "カフェ・喫茶", "category_id": "0100344", "time": [], "star": 0.0, "review": 0}], "ATM": [{"name": "ゆうちょ銀行 ATM 白川下油井郵便局", "address": "岐阜県加茂郡白川町白山1491-1", "lat": 35.6301558, "lon": 137.183024, "category": "ATM", "category_id": "0402785", "time": [], "star": 0.0, "review": 0}, {"name": "ゆうちょ銀行 白川下油井郵便局", "address": "岐阜県加茂郡白川町白山1491-1", "lat": 35.6301558, "lon": 137.183024, "category": "銀行", "category_id": "0402596", "time": [], "star": 0.0, "review": 0}]}}, {"name": "下麻生", "name_en": "Shimoasō", "lat": 35.5150121, "lon": 137.0870977, "osm_id": 265831278, "operator": "", "railway": "station", "wikidata": "Q5358646", "wikipedia_tag": "ja:下麻生駅", "lines": ["高山本線"], "pref": "岐阜県", "wikipedia_text": "下麻生駅（しもあそうえき）は、岐阜県加茂郡川辺町上川辺にある東海旅客鉄道（JR東海）高山本線の駅。", "wikipedia_image": "https://upload.wikimedia.org/wikipedia/commons/b/b3/Shimoaso.jpg", "nearby_pois": {"コンビニ": [{"name": "セブンイレブン 川辺町北", "address": "岐阜県加茂郡川辺町上川辺831-1", "lat": 35.5100703, "lon": 137.0837926, "category": "コンビニ", "category_id": "0200487", "time": ["00:00-24:00"], "star": 3.88, "review": 16}, {"name": "ファミリーマート 加茂上川辺店", "address": "岐阜県加茂郡川辺町上川辺下松田1138-1", "lat": 35.5090315, "lon": 137.0818761, "category": "コンビニ", "category_id": "0200487", "time": ["00:00-24:00"], "star": 3.95, "review": 18}], "ラーメン": [{"name": "四季紅 川辺店", "address": "岐阜県加茂郡川辺町上川辺287-7", "lat": 35.51411862, "lon": 137.08717893, "category": "飲食店", "category_id": "0102732", "time": ["11:00-14:30", "17:00-24:00"], "star": 3.31, "review": 17}], "飲食店": [{"name": "山々料理 せんべ", "address": "岐阜県加茂郡川辺町下麻生2150", "lat": 35.518236577967, "lon": 137.09030410461, "category": "創作料理店", "category_id": "0101193", "time": ["17:00-23:00"], "star": 3.8, "review": 1}, {"name": "四季紅 川辺店", "address": "岐阜県加茂郡川辺町上川辺287-7", "lat": 35.51411862, "lon": 137.08717893, "category": "飲食店", "category_id": "0102732", "time": ["11:00-14:30", "17:00-24:00"], "star": 3.31, "review": 17}, {"name": "旬采香房 陽だまり", "address": "岐阜県加茂郡川辺町下麻生153", "lat": 35.520877334358, "lon": 137.09319166754, "category": "和食店", "category_id": "0100126", "time": [], "star": 0.0, "review": 0}, {"name": "line side cafe", "address": "岐阜県加茂郡川辺町下麻生2151", "lat": 35.518314257967, "lon": 137.09031172461, "category": "カフェ・喫茶", "category_id": "0100344", "time": ["11:00-17:00"], "star": 4.41, "review": 11}, {"name": "たつみ亭", "address": "岐阜県加茂郡 川辺町上川辺303-1", "lat": 35.51462855, "lon": 137.08769252, "category": "和食店", "category_id": "0100126", "time": [], "star": 0.0, "review": 1}, {"name": "SENBE", "address": "岐阜県加茂郡川辺町下麻生 2150", "lat": 35.518218994140625, "lon": 137.09010314941406, "category": "飲食店", "category_id": "0102732", "time": [], "star": 0.0, "review": 0}, {"name": "古民家カフェ 九兵衛", "address": "岐阜県加茂郡川辺町下麻生2098", "lat": 35.52032393, "lon": 137.09172122, "category": "定食屋", "category_id": "0101441", "time": ["10:00-16:00"], "star": 3.53, "review": 9}, {"name": "山法師", "address": "岐阜県加茂郡川辺町下麻生153", "lat": 35.52088894, "lon": 137.09326662, "category": "蕎麦店", "category_id": "0100034", "time": ["11:00-15:00"], "star": 3.99, "review": 30}, {"name": "Cafe'rest SHUGETSU", "address": "岐阜県加茂郡川辺町上川辺1170", "lat": 35.50786912, "lon": 137.08167672, "category": "カフェ・喫茶", "category_id": "0100344", "time": ["07:30-15:00"], "star": 3.81, "review": 5}, {"name": "エピスコーヒー", "address": "岐阜県加茂郡川辺町下麻生 156", "lat": 35.51852799, "lon": 137.09094187, "category": "飲食店", "category_id": "0102732", "time": [], "star": 0.0, "review": 0}, {"name": "Epice Coffee", "address": "岐阜県加茂郡川辺町下麻生156", "lat": 35.520752417967, "lon": 137.09348023464, "category": "カフェ・喫茶", "category_id": "0100344", "time": ["10:30-15:00"], "star": 3.75, "review": 2}, {"name": "なにわ寿司", "address": "岐阜県加茂郡川辺町上川辺247-6", "lat": 35.5151415, "lon": 137.08606542, "category": "寿司店", "category_id": "0100101", "time": [], "star": 0.0, "review": 2}, {"name": "ボンベイパレスレストラン", "address": "岐阜県加茂郡川辺町上川辺713-1", "lat": 35.510493437165, "lon": 137.08330478338, "category": "インド料理店", "category_id": "0100282", "time": ["11:00-15:00", "17:00-22:00"], "star": 3.96, "review": 12}, {"name": "うな勝", "address": "岐阜県加茂郡川辺町下麻生136", "lat": 35.52033561, "lon": 137.09213868, "category": "うなぎ料理店", "category_id": "0100035", "time": ["11:00-14:00", "17:00-20:00"], "star": 3.79, "review": 12}, {"name": "丸志ん食堂", "address": "岐阜県加茂郡川辺町上川辺81-2", "lat": 35.5162089, "lon": 137.0896175, "category": "定食屋", "category_id": "0101441", "time": [], "star": 0.0, "review": 0}, {"name": "金泉酒蔵 平和錦酒造", "address": "岐阜県加茂郡川辺町下麻生2121", "lat": 35.519794167967, "lon": 137.09113730463, "category": "日本酒バー", "category_id": "0101683", "time": ["09:00-17:00"], "star": 3.8, "review": 11}], "カフェ": [{"name": "line side cafe", "address": "岐阜県加茂郡川辺町下麻生2151", "lat": 35.518314257967, "lon": 137.09031172461, "category": "カフェ・喫茶", "category_id": "0100344", "time": ["11:00-17:00"], "star": 4.41, "review": 11}, {"name": "Cafe'rest SHUGETSU", "address": "岐阜県加茂郡川辺町上川辺1170", "lat": 35.50786912, "lon": 137.08167672, "category": "カフェ・喫茶", "category_id": "0100344", "time": ["07:30-15:00"], "star": 3.81, "review": 5}, {"name": "Epice Coffee", "address": "岐阜県加茂郡川辺町下麻生156", "lat": 35.520752417967, "lon": 137.09348023464, "category": "カフェ・喫茶", "category_id": "0100344", "time": ["10:30-15:00"], "star": 3.75, "review": 2}, {"name": "古民家カフェ 九兵衛", "address": "岐阜県加茂郡川辺町下麻生2098", "lat": 35.52032393, "lon": 137.09172122, "category": "定食屋", "category_id": "0101441", "time": ["10:00-16:00"], "star": 3.53, "review": 9}, {"name": "ケアハウス第2飛騨川", "address": "岐阜県加茂郡川辺町上川辺930-1", "lat": 35.5126046, "lon": 137.08034457, "category": "ケアハウス", "category_id": "0400456", "time": [], "star": 0.0, "review": 0}], "ドラッグストア": [{"name": "ゲンキー 川辺店", "address": "岐阜県加茂郡川辺町上川辺下松田1120-2", "lat": 35.5083982, "lon": 137.0809012, "category": "ドラッグストア", "category_id": "0200699", "time": ["09:00-21:00"], "star": 3.64, "review": 49}], "ATM": [{"name": "ゆうちょ銀行 ATM 川辺麻生郵便局", "address": "岐阜県加茂郡川辺町下麻生下夕町55-2", "lat": 35.5185333, "lon": 137.090951, "category": "ATM", "category_id": "0402785", "time": [], "star": 0.0, "review": 0}, {"name": "ゆうちょ銀行 川辺麻生郵便局", "address": "岐阜県加茂郡川辺町下麻生下夕町55-2", "lat": 35.5185333, "lon": 137.090951, "category": "銀行", "category_id": "0402596", "time": [], "star": 0.0, "review": 0}, {"name": "セブン銀行 川辺町北店", "address": "岐阜県加茂郡川辺町上川辺831-1", "lat": 35.5100352, "lon": 137.083673, "category": "ATM", "category_id": "0402785", "time": ["00:00-24:00"], "star": 0.0, "review": 0}, {"name": "ゆうちょ銀行 ATM ファミリーマート加茂上川辺店内出張所", "address": "岐阜県加茂郡川辺町上川辺下松田1138-1", "lat": 35.5090271, "lon": 137.082058, "category": "ATM", "category_id": "0402785", "time": [], "star": 0.0, "review": 0}], "スーパーマーケット": [{"name": "ゲンキー 川辺店", "address": "岐阜県加茂郡川辺町上川辺下松田1120-2", "lat": 35.5083982, "lon": 137.0809012, "category": "ドラッグストア", "category_id": "0200699", "time": ["09:00-21:00"], "star": 3.64, "review": 49}]}, "top_restaurant": {"name": "line side cafe", "category": "カフェ・喫茶", "star": 4.41, "review": 11}}, {"name": "中川辺", "name_en": "Nakakawabe", "lat": 35.4874239, "lon": 137.0652094, "osm_id": 265832820, "operator": "", "railway": "station", "wikidata": "Q5358732", "wikipedia_tag": "ja:中川辺駅", "lines": ["高山本線"], "pref": "岐阜県", "wikipedia_text": "中川辺駅（なかかわべえき）は、岐阜県加茂郡川辺町中川辺にある、東海旅客鉄道（JR東海）高山本線の駅である。", "wikipedia_image": "https://upload.wikimedia.org/wikipedia/commons/f/f2/JR_Nakakawabe_station_2021-10_ac.jpg", "nearest_convenience": {"name": "ファミリーマート", "lat": 35.4528909, "lon": 137.0804191, "address": "", "distance_m": 4079, "brand": "FamilyMart"}, "nearest_restaurant": {"name": "", "lat": 35.4765911, "lon": 137.0367765, "address": "", "distance_m": 2842, "cuisine": ""}, "nearby_pois": {"コンビニ": [{"name": "ピアゴ川辺店", "address": "岐阜県加茂郡川辺町西栃井字東小島371番地の1", "lat": 35.48283885175314, "lon": 137.06423996373218, "category": "スーパー", "category_id": "0200612", "time": ["09:00-21:00"], "star": 3.66, "review": 43}], "飲食店": [{"name": "カネ美食品 川辺店", "address": "岐阜県加茂郡川辺町西栃井371-1 ピアゴ川辺店", "lat": 35.482832177981, "lon": 137.06423356427, "category": "寿司店", "category_id": "0100101", "time": ["09:00-20:00"], "star": 0.0, "review": 0}, {"name": "サンシャイン", "address": "岐阜県加茂郡川辺町中川辺497-12", "lat": 35.48580187, "lon": 137.06492274, "category": "カフェ・喫茶", "category_id": "0100344", "time": ["06:59-18:31"], "star": 3.64, "review": 6}, {"name": "川辺いちごファーム", "address": "岐阜県加茂郡川辺町中川辺277-2", "lat": 35.48512518802015, "lon": 137.06084436085717, "category": "飲食店", "category_id": "0102732", "time": ["10:00-15:00"], "star": 3.96, "review": 12}, {"name": "cafe Luce", "address": "岐阜県加茂郡川辺町中川辺161-1", "lat": 35.48595909, "lon": 137.06544242, "category": "カフェ・喫茶", "category_id": "0100344", "time": ["07:00-20:00"], "star": 3.45, "review": 10}, {"name": "ランシング", "address": "岐阜県加茂郡川辺町中川辺597-2", "lat": 35.48875041, "lon": 137.06573517, "category": "カフェ・喫茶", "category_id": "0100344", "time": [], "star": 4.13, "review": 6}, {"name": "居酒屋 みやた", "address": "岐阜県加茂郡川辺町中川辺119-1", "lat": 35.48558193, "lon": 137.06709286, "category": "居酒屋", "category_id": "0101495", "time": ["17:30-23:30"], "star": 4.75, "review": 1}, {"name": "アトラン", "address": "岐阜県加茂郡川辺町中川辺1481-1", "lat": 35.48736427, "lon": 137.07005011, "category": "カフェ・喫茶", "category_id": "0100344", "time": ["07:30-15:00"], "star": 4.0, "review": 3}, {"name": "お食事処 木ざわ", "address": "岐阜県加茂郡川辺町中川辺63-1", "lat": 35.48606439, "lon": 137.06770808, "category": "和食店", "category_id": "0100126", "time": ["11:00-14:00", "17:00-23:00"], "star": 3.53, "review": 8}, {"name": "割烹 魚勘", "address": "岐阜県加茂郡川辺町中川辺86-2", "lat": 35.48540614, "lon": 137.06804473, "category": "和食店", "category_id": "0100126", "time": [], "star": 4.0, "review": 2}, {"name": "まよねーず亭", "address": "岐阜県加茂郡川辺町中川辺606-17", "lat": 35.48782691, "lon": 137.06548519, "category": "お好み焼き店", "category_id": "0100046", "time": ["11:00-14:00", "17:00-22:00"], "star": 3.77, "review": 11}, {"name": "マッシュルームカフェ", "address": "岐阜県加茂郡川辺町西栃井1812-2", "lat": 35.483765227978, "lon": 137.05616555429, "category": "カフェ・喫茶", "category_id": "0100344", "time": [], "star": 4.0, "review": 21}, {"name": "まるパン ばーば", "address": "岐阜県加茂郡川辺町西栃井1274-11", "lat": 35.48222591, "lon": 137.06554495, "category": "ベーカリー", "category_id": "0100522", "time": ["09:00-17:00"], "star": 4.35, "review": 56}, {"name": "ルーラル", "address": "岐阜県加茂郡川辺町西栃井377-3", "lat": 35.48218174, "lon": 137.06496528, "category": "カフェ・喫茶", "category_id": "0100344", "time": ["07:30-18:00"], "star": 3.5, "review": 2}, {"name": "料理旅館 かつや", "address": "岐阜県加茂郡川辺町中川辺63-1", "lat": 35.48610744, "lon": 137.06769808, "category": "旅館", "category_id": "0301676", "time": [], "star": 4.0, "review": 2}, {"name": "KAOMI 川辺町", "address": "岐阜県加茂郡川辺町比久見 28-2", "lat": 35.48749542236328, "lon": 137.07505798339844, "category": "飲食店", "category_id": "0102732", "time": ["09:00-16:00"], "star": 0.0, "review": 2}, {"name": "サンリバー", "address": "岐阜県加茂郡川辺町西栃井371-1", "lat": 35.4829703, "lon": 137.0641406, "category": "カフェ・喫茶", "category_id": "0100344", "time": [], "star": 0.0, "review": 0}, {"name": "本多珈琲", "address": "岐阜県加茂郡 川辺町西栃井1612-1", "lat": 35.48357353, "lon": 137.07021712, "category": "カフェ・喫茶", "category_id": "0100344", "time": [], "star": 0.0, "review": 0}, {"name": "広栄寿司", "address": "岐阜県加茂郡川辺町西栃井1259-6", "lat": 35.4819399, "lon": 137.0655406, "category": "寿司店", "category_id": "0100101", "time": [], "star": 0.0, "review": 0}], "カフェ": [{"name": "cafe Luce", "address": "岐阜県加茂郡川辺町中川辺161-1", "lat": 35.48595909, "lon": 137.06544242, "category": "カフェ・喫茶", "category_id": "0100344", "time": ["07:00-20:00"], "star": 3.45, "review": 10}, {"name": "サンシャイン", "address": "岐阜県加茂郡川辺町中川辺497-12", "lat": 35.48580187, "lon": 137.06492274, "category": "カフェ・喫茶", "category_id": "0100344", "time": ["06:59-18:31"], "star": 3.64, "review": 6}, {"name": "マッシュルームカフェ", "address": "岐阜県加茂郡川辺町西栃井1812-2", "lat": 35.483765227978, "lon": 137.05616555429, "category": "カフェ・喫茶", "category_id": "0100344", "time": [], "star": 4.0, "review": 21}, {"name": "ランシング", "address": "岐阜県加茂郡川辺町中川辺597-2", "lat": 35.48875041, "lon": 137.06573517, "category": "カフェ・喫茶", "category_id": "0100344", "time": [], "star": 4.13, "review": 6}, {"name": "アトラン", "address": "岐阜県加茂郡川辺町中川辺1481-1", "lat": 35.48736427, "lon": 137.07005011, "category": "カフェ・喫茶", "category_id": "0100344", "time": ["07:30-15:00"], "star": 4.0, "review": 3}, {"name": "ルーラル", "address": "岐阜県加茂郡川辺町西栃井377-3", "lat": 35.48218174, "lon": 137.06496528, "category": "カフェ・喫茶", "category_id": "0100344", "time": ["07:30-18:00"], "star": 3.5, "review": 2}, {"name": "まるパン ばーば", "address": "岐阜県加茂郡川辺町西栃井1274-11", "lat": 35.48222591, "lon": 137.06554495, "category": "ベーカリー", "category_id": "0100522", "time": ["09:00-17:00"], "star": 4.35, "review": 56}, {"name": "本多珈琲", "address": "岐阜県加茂郡 川辺町西栃井1612-1", "lat": 35.48357353, "lon": 137.07021712, "category": "カフェ・喫茶", "category_id": "0100344", "time": [], "star": 0.0, "review": 0}, {"name": "サンリバー", "address": "岐阜県加茂郡川辺町西栃井371-1", "lat": 35.4829703, "lon": 137.0641406, "category": "カフェ・喫茶", "category_id": "0100344", "time": [], "star": 0.0, "review": 0}, {"name": "ベーカリー&カフェ ブーランコ", "address": "岐阜県加茂郡川辺町西栃井東小島371-1 ピアゴ川辺店 1F", "lat": 35.4828196, "lon": 137.0644072, "category": "ベーカリー", "category_id": "0100522", "time": [], "star": 3.9, "review": 8}], "ドラッグストア": [{"name": "スギ薬局 川辺店", "address": "岐阜県加茂郡川辺町西栃井459", "lat": 35.4812171, "lon": 137.062683, "category": "ドラッグストア", "category_id": "0200699", "time": [], "star": 3.75, "review": 7}, {"name": "スギ薬局川辺店", "address": "岐阜県加茂郡川辺町西栃井459", "lat": 35.481201, "lon": 137.0626613, "category": "ドラッグストア", "category_id": "0200699", "time": ["09:00-21:00"], "star": 4.17, "review": 5}, {"name": "スギドラッグ 川辺店", "address": "岐阜県加茂郡川辺町西栃井459番地", "lat": 35.481152, "lon": 137.062636, "category": "ドラッグストア", "category_id": "0200699", "time": [], "star": 4.0, "review": 1}, {"name": "若井薬局", "address": "岐阜県加茂郡川辺町中川辺55", "lat": 35.48674625, "lon": 137.06770669, "category": "調剤薬局", "category_id": "0202315", "time": [], "star": 0.0, "review": 0}, {"name": "プラスワン薬局", "address": "岐阜県加茂郡 川辺町西栃井371-1", "lat": 35.48292541503906, "lon": 137.06422424316406, "category": "調剤薬局", "category_id": "0202315", "time": [], "star": 0.0, "review": 0}, {"name": "美加登調剤薬局", "address": "岐阜県加茂郡川辺町石神257-3", "lat": 35.49514326, "lon": 137.06795358, "category": "調剤薬局", "category_id": "0202315", "time": [], "star": 0.0, "review": 0}], "ATM": [{"name": "十六銀行 ATM 川辺町", "address": "岐阜県加茂郡川辺町西栃井377-4", "lat": 35.4823195, "lon": 137.065056, "category": "ATM", "category_id": "0402785", "time": [], "star": 0.0, "review": 0}, {"name": "大垣共立銀行 ATM 川辺支店", "address": "岐阜県加茂郡川辺町中川辺37-3", "lat": 35.4873459, "lon": 137.067758, "category": "ATM", "category_id": "0402785", "time": [], "star": 0.0, "review": 0}, {"name": "大垣共立銀行 川辺支店", "address": "岐阜県加茂郡川辺町中川辺37-3", "lat": 35.4873837, "lon": 137.0677747, "category": "銀行", "category_id": "0402596", "time": ["09:00-15:00"], "star": 0.0, "review": 0}, {"name": "ゆうちょ銀行 ATM 川辺郵便局", "address": "岐阜県加茂郡川辺町中川辺1515-1", "lat": 35.4866259, "lon": 137.069923, "category": "ATM", "category_id": "0402785", "time": [], "star": 0.0, "review": 0}, {"name": "JAバンク めぐみの農業協同組合(JAめぐみの)ひすい支店", "address": "岐阜県加茂郡川辺町中川辺517-5", "lat": 35.486851, "lon": 137.065786, "category": "銀行", "category_id": "0402596", "time": [], "star": 0.0, "review": 0}, {"name": "大垣共立銀行 ATM ピアゴ川辺店", "address": "岐阜県加茂郡川辺町西栃井字東小島371-1", "lat": 35.4828628, "lon": 137.064944, "category": "ATM", "category_id": "0402785", "time": [], "star": 0.0, "review": 0}, {"name": "JAバンク ATM めぐみの農業協同組合(JAめぐみの)ひすい支店", "address": "岐阜県加茂郡川辺町中川辺517-5", "lat": 35.4868655, "lon": 137.065787, "category": "ATM", "category_id": "0402785", "time": [], "star": 0.0, "review": 0}, {"name": "東濃信用金庫 川辺支店", "address": "岐阜県加茂郡川辺町中川辺50-5", "lat": 35.4858061, "lon": 137.068308, "category": "信用金庫", "category_id": "0401098", "time": ["09:00-15:00"], "star": 0.0, "review": 0}, {"name": "ゆうちょ銀行 川辺郵便局", "address": "岐阜県加茂郡川辺町中川辺1515-1", "lat": 35.4866259, "lon": 137.069923, "category": "銀行", "category_id": "0402596", "time": ["09:00-16:00"], "star": 0.0, "review": 0}, {"name": "宝くじ ATM 大垣共立銀行川辺支店", "address": "岐阜県加茂郡川辺町中川辺37-3", "lat": 35.4873583, "lon": 137.067787, "category": "宝くじ売り場", "category_id": "0401442", "time": ["08:00-20:00"], "star": 0.0, "review": 0}, {"name": "宝くじ ATM 大垣共立銀行ピアゴ川辺店出張所", "address": "岐阜県加茂郡川辺町西栃井字東小島371-1", "lat": 35.4796464, "lon": 137.067946, "category": "宝くじ売り場", "category_id": "0401442", "time": ["08:00-20:00"], "star": 0.0, "review": 0}], "スーパーマーケット": [{"name": "ピアゴ川辺店", "address": "岐阜県加茂郡川辺町西栃井字東小島371番地の1", "lat": 35.48283885175314, "lon": 137.06423996373218, "category": "スーパー", "category_id": "0200612", "time": ["09:00-21:00"], "star": 3.66, "review": 43}, {"name": "セリア ピアゴ川辺店", "address": "岐阜県加茂郡川辺町西栃井字東小島371-1 ピアゴ川辺店 2F", "lat": 35.4827869, "lon": 137.064175, "category": "100円ショップ", "category_id": "0200001", "time": [], "star": 3.65, "review": 28}]}, "top_restaurant": {"name": "居酒屋 みやた", "category": "居酒屋", "star": 4.75, "review": 1}}, {"name": "中津川", "name_en": "Nakatsugawa", "lat": 35.500617, "lon": 137.502847, "osm_id": 6036031705, "operator": "", "railway": "station", "wikidata": "Q5359511", "wikipedia_tag": "ja:中津川駅", "lines": [], "pref": "岐阜県", "nearby_bus_stops": [{"name": "中津川駅前", "lat": 35.5008484, "lon": 137.5038538, "distance_m": 95, "operator": ""}, {"name": "淀川", "lat": 35.498106, "lon": 137.506475, "distance_m": 431, "operator": ""}], "wikipedia_text": "中津川駅（なかつがわえき）は、岐阜県中津川市太田町にある、東海旅客鉄道（JR東海）中央本線の駅である。駅番号はCF19。\n2022年3月のダイヤ改正以降、特急「しなの」をのぞき当駅で運転系統が分離されている。詳細は「中央線 (名古屋地区)」を参照。", "wikipedia_image": "https://upload.wikimedia.org/wikipedia/commons/f/ff/JR_Nakatsugawa_Station_2021-10_ac.jpg", "nearest_convenience": {"name": "セブン-イレブン", "lat": 35.4988206, "lon": 137.5028645, "address": "", "distance_m": 200, "brand": "7-ELEVEN"}, "nearest_restaurant": {"name": "大容堂", "lat": 35.5000489, "lon": 137.5031793, "address": "", "distance_m": 70, "cuisine": ""},