[{"name": "うらがわら", "name_en": "Uragawara", "lat": 37.1591343, "lon": 138.4193146, "osm_id": 359793977, "operator": "", "railway": "station", "wikidata": "Q7899560", "wikipedia_tag": "ja:うらがわら駅", "lines": ["ほくほく線"], "pref": "新潟県", "wikipedia_text": "うらがわら駅（うらがわらえき）は、新潟県上越市浦川原区顕聖寺にある北越急行ほくほく線の駅。", "wikipedia_image": "https://upload.wikimedia.org/wikipedia/commons/2/2f/Uragawara_20040718.jpg", "nearest_convenience": {"name": "セブン-イレブン", "lat": 37.1587947, "lon": 138.3922585, "address": "", "distance_m": 2398, "brand": "7-ELEVEN"}, "nearby_pois": {"ラーメン": [{"name": "ラーメンスナックサロン", "address": "新潟県上越市浦川原区顕聖寺196-3", "lat": 37.15759069, "lon": 138.42165351, "category": "ラーメン店", "category_id": "0100097", "time": [], "star": 0.0, "review": 0}], "飲食店": [{"name": "鮨処一気", "address": "新潟県上越市浦川原区横川422-2", "lat": 37.159770059283, "lon": 138.41134599337, "category": "寿司店", "category_id": "0100101", "time": [], "star": 0.0, "review": 0}, {"name": "秀", "address": "新潟県上越市浦川原区顕聖寺94-3", "lat": 37.15752377735, "lon": 138.42063670024, "category": "焼き鳥店", "category_id": "0101960", "time": ["11:00-13:30", "17:00-22:00"], "star": 3.78, "review": 6}, {"name": "割烹仕出し小山", "address": "新潟県上越市浦川原区有島14", "lat": 37.158289901184, "lon": 138.42503659118, "category": "和食店", "category_id": "0100126", "time": [], "star": 3.0, "review": 1}, {"name": "やきとり面川", "address": "新潟県上越市浦川原区長走868-3", "lat": 37.16088779, "lon": 138.40933766, "category": "レストラン", "category_id": "0100111", "time": [], "star": 0.0, "review": 0}, {"name": "ラーメンスナックサロン", "address": "新潟県上越市浦川原区顕聖寺196-3", "lat": 37.15759069, "lon": 138.42165351, "category": "ラーメン店", "category_id": "0100097", "time": [], "star": 0.0, "review": 0}, {"name": "潮", "address": "新潟県上越市浦川原区横川40-1", "lat": 37.1582786, "lon": 138.4151485, "category": "肉料理店", "category_id": "0100212", "time": [], "star": 0.0, "review": 0}, {"name": "割烹わたや", "address": "新潟県上越市浦川原区釜淵53-2", "lat": 37.15873182, "lon": 138.42802495, "category": "割烹・小料理屋", "category_id": "0101190", "time": [], "star": 0.0, "review": 0}], "ドラッグストア": [{"name": "ヤマオカ調剤薬局", "address": "新潟県上越市浦川原区有島66", "lat": 37.15844711, "lon": 138.42706198, "category": "調剤薬局", "category_id": "0202315", "time": [], "star": 0.0, "review": 0}], "ATM": [{"name": "ゆうちょ銀行 ATM 浦川原郵便局", "address": "新潟県上越市浦川原区釜淵1", "lat": 37.1591365, "lon": 138.42729, "category": "ATM", "category_id": "0402785", "time": [], "star": 0.0, "review": 0}, {"name": "JAバンク ATM えちご上越農業協同組合(JAえちご上越)浦川原支店", "address": "新潟県上越市浦川原区顕聖寺195-1", "lat": 37.1580105, "lon": 138.421422, "category": "ATM", "category_id": "0402785", "time": [], "star": 0.0, "review": 0}, {"name": "JAバンク えちご上越農業協同組合(JAえちご上越)浦川原支店", "address": "新潟県上越市浦川原区顕聖寺195-1", "lat": 37.1580486, "lon": 138.421436, "category": "銀行", "category_id": "0402596", "time": [], "star": 0.0, "review": 0}, {"name": "ゆうちょ銀行 浦川原郵便局", "address": "新潟県上越市浦川原区釜淵1", "lat": 37.1591365, "lon": 138.42729, "category": "銀行", "category_id": "0402596", "time": [], "star": 0.0, "review": 0}, {"name": "上越信用金庫 浦川原支店", "address": "新潟県上越市浦川原区有島69-2", "lat": 37.1590157, "lon": 138.4269822, "category": "信用金庫", "category_id": "0401098", "time": ["09:00-15:00"], "star": 0.0, "review": 0}, {"name": "JAえちご上越浦川原支店", "address": "新潟県上越市浦川原区顕聖寺195-1", "lat": 37.1580378, "lon": 138.4214271, "category": "農業協同組合", "category_id": "0502468", "time": ["09:00-15:00"], "star": 0.0, "review": 0}]}, "top_restaurant": {"name": "秀", "category": "焼き鳥店", "star": 3.78, "review": 6}}, {"name": "くびき", "name_en": "Kubiki", "lat": 37.1981878, "lon": 138.3616671, "osm_id": 359793286, "operator": "", "railway": "station", "wikidata": "Q6441253", "wikipedia_tag": "ja:くびき駅", "lines": ["ほくほく線"], "pref": "新潟県", "wikipedia_text": "くびき駅（くびきえき）は、新潟県上越市頸城区手島にある北越急行ほくほく線の駅。", "wikipedia_image": "https://upload.wikimedia.org/wikipedia/commons/3/37/Rail02000_%E3%81%8F%E3%81%B3%E3%81%8D%E9%A7%85.jpg", "nearest_convenience": {"name": "ローソン", "lat": 37.2260094, "lon": 138.3292896, "address": "", "distance_m": 4218, "brand": ""}, "nearest_restaurant": {"name": "ラーメンショップ", "lat": 37.2218261, "lon": 138.3220229, "address": "", "distance_m": 4386, "cuisine": ""}, "nearby_pois": {}}, {"name": "さつき野", "name_en": "Satsukino", "lat": 37.8132978, "lon": 139.1172452, "osm_id": 4358958787, "operator": "", "railway": "station", "wikidata": "Q7426493", "wikipedia_tag": "ja:さつき野駅", "lines": ["信越本線"], "pref": "新潟県", "nearby_bus_stops": [{"name": "北上二丁目", "lat": 37.812566, "lon": 139.1223701, "distance_m": 457, "operator": ""}, {"name": "川口", "lat": 37.8168221, "lon": 139.1206113, "distance_m": 491, "operator": ""}, {"name": "北上二丁目", "lat": 37.812395, "lon": 139.1228146, "distance_m": 499, "operator": ""}], "wikipedia_text": "さつき野駅（さつきのえき）は、新潟県新潟市秋葉区さつき野一丁目にある、東日本旅客鉄道（JR東日本）信越本線の駅である。", "wikipedia_image": "https://upload.wikimedia.org/wikipedia/commons/8/81/Satsukino_East_Exit_2019%2C07.jpg", "nearest_convenience": {"name": "デイリーヤマザキ", "lat": 37.7995768, "lon": 139.1215941, "address": "", "distance_m": 1573, "brand": "Daily YAMAZAKI"}, "nearest_restaurant": {"name": "小嶋屋総本店", "lat": 37.8085316, "lon": 139.1159356, "address": "", "distance_m": 542, "cuisine": "noodle"}, "nearby_pois": {"コンビニ": [{"name": "セブンイレブン 新潟さつき野", "address": "新潟県新潟市秋葉区さつき野4-16-7", "lat": 37.808912, "lon": 139.1161002, "category": "コンビニ", "category_id": "0200487", "time": ["00:00-24:00"], "star": 3.77, "review": 15}, {"name": "ファミリーマート 新津川口店", "address": "新潟県新潟市秋葉区川口468-1", "lat": 37.8147694, "lon": 139.109689, "category": "コンビニ", "category_id": "0200487", "time": ["00:00-24:00"], "star": 4.38, "review": 10}, {"name": "ダイレックス 新津店", "address": "新潟県新潟市秋葉区新津5188-5", "lat": 37.8056094, "lon": 139.1116868, "category": "ドラッグストア", "category_id": "0200699", "time": ["09:00-22:00"], "star": 4.51, "review": 27}, {"name": "ウオロク 新津店", "address": "新潟県新潟市秋葉区新津5163-3", "lat": 37.805254, "lon": 139.112634, "category": "スーパー", "category_id": "0200612", "time": ["09:00-22:00"], "star": 4.17, "review": 165}], "ラーメン": [{"name": "AKIHA麺屋 粋翔", "address": "新潟県新潟市秋葉区美善1-13-12", "lat": 37.80506134, "lon": 139.11565392, "category": "ラーメン店", "category_id": "0100097", "time": ["10:00-14:30", "16:45-20:30"], "star": 4.23, "review": 65}, {"name": "中華食道 真", "address": "新潟県新潟市秋葉区北上1-19-19", "lat": 37.81097299, "lon": 139.11878097, "category": "中華料理店", "category_id": "0100990", "time": ["11:00-14:00", "17:30-21:00"], "star": 3.98, "review": 50}, {"name": "三宝亭 レストラン三宝 新津店", "address": "新潟県新潟市秋葉区善道町576-1", "lat": 37.80623035, "lon": 139.11536105, "category": "ラーメン店", "category_id": "0100097", "time": ["11:00-21:30"], "star": 3.94, "review": 60}, {"name": "無尽蔵 にいつ家", "address": "新潟県新潟市秋葉区善道町555", "lat": 37.80564236, "lon": 139.11535832, "category": "ラーメン店", "category_id": "0100097", "time": ["11:00-22:00"], "star": 4.01, "review": 47}, {"name": "かごや", "address": "新潟県新潟市秋葉区北上1-32-12", "lat": 37.81412756, "lon": 139.11727521, "category": "定食屋", "category_id": "0101441", "time": ["11:00-14:00", "17:00-20:00"], "star": 3.62, "review": 14}, {"name": "ラーメン福", "address": "新潟県新潟市秋葉区北上3丁目3-3", "lat": 37.8096075, "lon": 139.1260706, "category": "ラーメン店", "category_id": "0100097", "time": [], "star": 4.0, "review": 2}, {"name": "たまや", "address": "新潟県新潟市秋葉区北上3丁目3-3", "lat": 37.8097839, "lon": 139.12616, "category": "ラーメン店", "category_id": "0100097", "time": [], "star": 0.0, "review": 0}], "飲食店": [{"name": "食彩 井蛙", "address": "新潟県新潟市秋葉区さつき野1-2-1", "lat": 37.812546455721, "lon": 139.11717426383, "category": "和食店", "category_id": "0100126", "time": [], "star": 4.2, "review": 5}, {"name": "かごや", "address": "新潟県新潟市秋葉区北上1-32-12", "lat": 37.81412756, "lon": 139.11727521, "category": "定食屋", "category_id": "0101441", "time": ["11:00-14:00", "17:00-20:00"], "star": 3.62, "review": 14}, {"name": "フォルトナ", "address": "新潟県新潟市秋葉区北上3-5-17", "lat": 37.810182991386, "lon": 139.12558866595, "category": "定食屋", "category_id": "0101441", "time": [], "star": 0.0, "review": 0}, {"name": "ルコラ", "address": "新潟県新潟市秋葉区さつき野2-10-26", "lat": 37.80967663, "lon": 139.11596876, "category": "イタリア料理店", "category_id": "0100263", "time": ["11:00-14:00", "17:30-21:00"], "star": 4.03, "review": 18}, {"name": "ティーカフェ ダッケ", "address": "新潟県新潟市秋葉区川口435-8", "lat": 37.81677532, "lon": 139.11724635, "category": "カフェ・喫茶", "category_id": "0100344", "time": ["10:00-18:30"], "star": 4.16, "review": 40}, {"name": "ぜんていのイタリアンVG 新津店", "address": "新潟県新潟市秋葉区さつき野4-20-38", "lat": 37.807386, "lon": 139.115496, "category": "イタリア料理店", "category_id": "0100263", "time": ["11:00-15:30", "17:00-22:00"], "star": 4.11, "review": 74}, {"name": "トマピー", "address": "新潟県新潟市秋葉区北上1-20-12", "lat": 37.8108641, "lon": 139.11852239, "category": "和食店", "category_id": "0100126", "time": ["11:00-17:00"], "star": 3.26, "review": 6}, {"name": "ぼやき", "address": "新潟県新潟市秋葉区川口165", "lat": 37.81805073, "lon": 139.11731456, "category": "カフェ・喫茶", "category_id": "0100344", "time": ["10:00-19:00"], "star": 4.03, "review": 3}, {"name": "小嶋屋総本店 新津店", "address": "新潟県新潟市秋葉区さつき野4-17-13", "lat": 37.8084776, "lon": 139.11590637, "category": "蕎麦店", "category_id": "0100034", "time": ["11:00-21:00"], "star": 4.11, "review": 53}, {"name": "中華食道 真", "address": "新潟県新潟市秋葉区北上1-19-19", "lat": 37.81097299, "lon": 139.11878097, "category": "中華料理店", "category_id": "0100990", "time": ["11:00-14:00", "17:30-21:00"], "star": 3.98, "review": 50}, {"name": "AKIHA麺屋 粋翔", "address": "新潟県新潟市秋葉区美善1-13-12", "lat": 37.80506134, "lon": 139.11565392, "category": "ラーメン店", "category_id": "0100097", "time": ["10:00-14:30", "16:45-20:30"], "star": 4.23, "review": 65}, {"name": "CYGNE", "address": "新潟県新潟市秋葉区さつき野3-1-1", "lat": 37.81134085, "lon": 139.11550002, "category": "ケーキ店", "category_id": "0100460", "time": ["09:30-19:30"], "star": 4.02, "review": 16}, {"name": "サムタイム珈琲屋", "address": "新潟県新潟市秋葉区さつき野4-14-24", "lat": 37.808474859108316, "lon": 139.1174074085004, "category": "カフェ・喫茶", "category_id": "0100344", "time": ["10:00-18:00"], "star": 3.0, "review": 1}, {"name": "焼肉きんぐ 新津店", "address": "新潟県新潟市秋葉区新津5165 ", "lat": 37.80499299, "lon": 139.1152145, "category": "焼肉店", "category_id": "0101963", "time": ["17:00-23:00"], "star": 4.33, "review": 45}, {"name": "ののや トマトラー麺 Lab", "address": "新潟県新潟市秋葉区北上字長沼2039", "lat": 37.809895901368, "lon": 139.12009641113, "category": "飲食店", "category_id": "0102732", "time": [], "star": 0.0, "review": 0}, {"name": "gelateria hitosaji", "address": "新潟県新潟市秋葉区美善2-4-6", "lat": 37.80528, "lon": 139.11582, "category": "飲食店", "category_id": "0102732", "time": ["11:00-17:00"], "star": 0.0, "review": 1}, {"name": "三宝亭 レストラン三宝 新津店", "address": "新潟県新潟市秋葉区善道町576-1", "lat": 37.80623035, "lon": 139.11536105, "category": "ラーメン店", "category_id": "0100097", "time": ["11:00-21:30"], "star": 3.94, "review": 60}, {"name": "無尽蔵 にいつ家", "address": "新潟県新潟市秋葉区善道町555", "lat": 37.80564236, "lon": 139.11535832, "category": "ラーメン店", "category_id": "0100097", "time": ["11:00-22:00"], "star": 4.01, "review": 47}, {"name": "居酒屋あすか", "address": "新潟県新潟市秋葉区さつき野1丁目2-1", "lat": 37.8134569, "lon": 139.1166462, "category": "焼き鳥店", "category_id": "0101960", "time": [], "star": 0.0, "review": 0}, {"name": "すき家 新津ウオロク前店", "address": "新潟県新潟市秋葉区善道555", "lat": 37.8052652, "lon": 139.1152339, "category": "牛丼店", "category_id": "0101974", "time": ["04:00-27:00"], "star": 4.18, "review": 31}], "カフェ": [{"name": "ティーカフェ ダッケ", "address": "新潟県新潟市秋葉区川口435-8", "lat": 37.81677532, "lon": 139.11724635, "category": "カフェ・喫茶", "category_id": "0100344", "time": ["10:00-18:30"], "star": 4.16, "review": 40}, {"name": "ぼやき", "address": "新潟県新潟市秋葉区川口165", "lat": 37.81805073, "lon": 139.11731456, "category": "カフェ・喫茶", "category_id": "0100344", "time": ["10:00-19:00"], "star": 4.03, "review": 3}, {"name": "CYGNE", "address": "新潟県新潟市秋葉区さつき野3-1-1", "lat": 37.81134085, "lon": 139.11550002, "category": "ケーキ店", "category_id": "0100460", "time": ["09:30-19:30"], "star": 4.02, "review": 16}, {"name": "サムタイム珈琲屋", "address": "新潟県新潟市秋葉区さつき野4-14-24", "lat": 37.808474859108316, "lon": 139.1174074085004, "category": "カフェ・喫茶", "category_id": "0100344", "time": ["10:00-18:00"], "star": 3.0, "review": 1}, {"name": "ぜんていのイタリアンVG 新津店", "address": "新潟県新潟市秋葉区さつき野4-20-38", "lat": 37.807386, "lon": 139.115496, "category": "イタリア料理店", "category_id": "0100263", "time": ["11:00-15:30", "17:00-22:00"], "star": 4.11, "review": 74}, {"name": "サーティワンアイスクリーム コモタウン新津店", "address": "新潟県新潟市秋葉区新津５１６３ー３ ", "lat": 37.80518, "lon": 139.11264, "category": "アイスクリーム店", "category_id": "0100226", "time": ["10:30-20:00"], "star": 3.95, "review": 34}], "ドラッグストア": [{"name": "ウエルシア新潟さつき野店", "address": "新潟県新潟市秋葉区さつき野1-1-36", "lat": 37.813773, "lon": 139.116577, "category": "ドラッグストア", "category_id": "0200699", "time": ["08:00-24:00"], "star": 3.87, "review": 23}, {"name": "ダイレックス 新津店", "address": "新潟県新潟市秋葉区新津5188-5", "lat": 37.8056094, "lon": 139.1116868, "category": "ドラッグストア", "category_id": "0200699", "time": ["09:00-22:00"], "star": 4.51, "review": 27}, {"name": "クスリのアオキ さつき野店", "address": "新潟県新潟市秋葉区さつき野4-20-1", "lat": 37.8077983, "lon": 139.1168586, "category": "ドラッグストア", "category_id": "0200699", "time": ["09:00-22:00"], "star": 4.09, "review": 30}, {"name": "ココカラファイン コモタウン新津店", "address": "新潟県新潟市秋葉区新津5163-3", "lat": 37.80512341, "lon": 139.1126396, "category": "ドラッグストア", "category_id": "0200699", "time": ["09:00-22:00"], "star": 3.63, "review": 8}, {"name": "ウエルシア新潟さつき野店 (調剤薬局)", "address": "新潟県新潟市秋葉区さつき野1-1-36ウエルシア新潟さつき野店内", "lat": 37.813773, "lon": 139.116577, "category": "調剤薬局", "category_id": "0202315", "time": ["09:30-19:30"], "star": 4.0, "review": 1}, {"name": "クスリのアオキ調剤 さつき野店", "address": "新潟県新潟市秋葉区さつき野4-20-1", "lat": 37.80776496, "lon": 139.11686389, "category": "調剤薬局", "category_id": "0202315", "time": ["09:00-18:00"], "star": 0.0, "review": 0}, {"name": "リオンドール 新津店", "address": "新潟県新潟市秋葉区さつき野4-20-8", "lat": 37.8073594, "lon": 139.1168614, "category": "スーパー", "category_id": "0200612", "time": ["08:00-22:00"], "star": 4.03, "review": 97}, {"name": "ウオロク 新津店", "address": "新潟県新潟市秋葉区新津5163-3", "lat": 37.805254, "lon": 139.112634, "category": "スーパー", "category_id": "0200612", "time": ["09:00-22:00"], "star": 4.17, "review": 165}], "ATM": [{"name": "セブン銀行 新潟さつき野店", "address": "新潟県新潟市秋葉区さつき野4-16-7", "lat": 37.8088431, "lon": 139.116185, "category": "ATM", "category_id": "0402785", "time": ["00:00-24:00"], "star": 0.0, "review": 0}, {"name": "ゆうちょ銀行 ATM スーパーセンターウオロク新津店内出張所", "address": "新潟県新潟市秋葉区新津字山谷北5613 ATMコーナー", "lat": 37.8063119, "lon": 139.114696, "category": "ATM", "category_id": "0402785", "time": [], "star": 3.0, "review": 1}, {"name": "ゆうちょ銀行 ATM ファミリーマート新津川口店内出張所", "address": "新潟県新潟市秋葉区川口468-1", "lat": 37.8147707, "lon": 139.109682, "category": "ATM", "category_id": "0402785", "time": [], "star": 0.0, "review": 0}, {"name": "ローソン銀行 リオン・ドール 新津店共同出張所", "address": "新潟県新潟市秋葉区さつき野4-20-8", "lat": 37.8073884, "lon": 139.116846, "category": "ATM", "category_id": "0402785", "time": ["08:00-22:00"], "star": 0.0, "review": 0}, {"name": "ウオロク 新津店", "address": "新潟県新潟市秋葉区新津5163-3", "lat": 37.805254, "lon": 139.112634, "category": "スーパー", "category_id": "0200612", "time": ["09:00-22:00"], "star": 4.17, "review": 165}], "スーパーマーケット": [{"name": "リオンドール 新津店", "address": "新潟県新潟市秋葉区さつき野4-20-8", "lat": 37.8073594, "lon": 139.1168614, "category": "スーパー", "category_id": "0200612", "time": ["08:00-22:00"], "star": 4.03, "review": 97}, {"name": "ウオロク 新津店", "address": "新潟県新潟市秋葉区新津5163-3", "lat": 37.805254, "lon": 139.112634, "category": "スーパー", "category_id": "0200612", "time": ["09:00-22:00"], "star": 4.17, "review": 165}, {"name": "ウエルシア新潟さつき野店", "address": "新潟県新潟市秋葉区さつき野1-1-36", "lat": 37.813773, "lon": 139.116577, "category": "ドラッグストア", "category_id": "0200699", "time": ["08:00-24:00"], "star": 3.87, "review": 23}, {"name": "クスリのアオキ さつき野店", "address": "新潟県新潟市秋葉区さつき野4-20-1", "lat": 37.8077983, "lon": 139.1168586, "category": "ドラッグストア", "category_id": "0200699", "time": ["09:00-22:00"], "star": 4.09, "review": 30}, {"name": "ココカラファイン コモタウン新津店", "address": "新潟県新潟市秋葉区新津5163-3", "lat": 37.80512341, "lon": 139.1126396, "category": "ドラッグストア", "category_id": "0200699", "time": ["09:00-22:00"], "star": 3.63, "review": 8}]}, "top_restaurant": {"name": "焼肉きんぐ 新津店", "category": "焼肉店", "star": 4.33, "review": 45}}, {"name": "しんざ", "name_en": "Shinza", "lat": 37.1397276, "lon": 138.7685891, "osm_id": 359793059, "operator": "", "railway": "station", "wikidata": "Q7497848", "wikipedia_tag": "ja:しんざ駅", "lines": ["ほくほく線"], "pref": "新潟県", "nearby_bus_stops": [{"name": "本町７丁目", "lat": 37.1412631, "lon": 138.7635019, "distance_m": 482, "operator": ""}, {"name": "本町７丁目", "lat": 37.1413408, "lon": 138.7634347, "distance_m": 491, "operator": ""}], "wikipedia_text": "しんざ駅（しんざえき）は、新潟県十日町市新座甲にある、北越急行ほくほく線の駅である。", "wikipedia_image": "https://upload.wikimedia.org/wikipedia/commons/e/e3/Shinza_Station_2017.jpg", "nearest_convenience": {"name": "セブン-イレブン", "lat": 37.1309478, "lon": 138.752206, "address": "十日町市高山329", "distance_m": 1750, "brand": "7-ELEVEN"}, "nearest_restaurant": {"name": "ユキマツリ", "lat": 37.1385077, "lon": 138.7616609, "address": "", "distance_m": 629, "cuisine": "regional"}, "nearby_pois": {"コンビニ": [{"name": "セブンイレブン 十日町本町", "address": "新潟県十日町市本町6の1-381-1", "lat": 37.1376937, "lon": 138.7626617, "category": "コンビニ", "category_id": "0200487", "time": ["00:00-24:00"], "star": 4.69, "review": 4}, {"name": "セブンイレブン 十日町西", "address": "新潟県十日町市下川原町20-1", "lat": 37.1417793, "lon": 138.7590703, "category": "コンビニ", "category_id": "0200487", "time": ["00:00-24:00"], "star": 4.67, "review": 19}], "ラーメン": [{"name": "山本食肉店", "address": "新潟県十日町市本町7-1", "lat": 37.14024354, "lon": 138.7664863, "category": "精肉店", "category_id": "0202152", "time": [], "star": 4.0, "review": 1}, {"name": "どさん 十日町117号店", "address": "新潟県十日町市卯692-1", "lat": 37.13849727, "lon": 138.76316945, "category": "ラーメン店", "category_id": "0100097", "time": ["11:00-13:30", "17:00-24:00"], "star": 3.39, "review": 8}, {"name": "ラーメン クマ", "address": "新潟県十日町市本町5", "lat": 37.135684617472, "lon": 138.76174755978, "category": "ラーメン店", "category_id": "0100097", "time": ["11:00-14:00", "17:30-22:30"], "star": 4.03, "review": 22}, {"name": "らーめん 大輝", "address": "新潟県十日町市四日町新田200-12", "lat": 37.14557752, "lon": 138.76319203, "category": "ラーメン店", "category_id": "0100097", "time": ["11:00-14:30", "16:30-20:00"], "star": 3.78, "review": 10}, {"name": "麺屋 さん八", "address": "新潟県十日町市寅甲190-7", "lat": 37.13603692, "lon": 138.75914157, "category": "ラーメン店", "category_id": "0100097", "time": ["11:30-22:00"], "star": 3.85, "review": 11}, {"name": "らーめんの家トモ", "address": "新潟県十日町市本町5丁目", "lat": 37.135801, "lon": 138.7617125, "category": "ラーメン店", "category_id": "0100097", "time": [], "star": 0.0, "review": 0}, {"name": "さつき惣菜", "address": "新潟県十日町市新座甲630-2", "lat": 37.14382534, "lon": 138.76774551, "category": "定食屋", "category_id": "0101441", "time": ["11:00-13:30", "17:00-20:30"], "star": 3.5, "review": 1}, {"name": "お食事処あじよし", "address": "新潟県十日町市宇都宮90-13", "lat": 37.1393721, "lon": 138.76096797, "category": "定食屋", "category_id": "0101441", "time": [], "star": 3.28, "review": 4}, {"name": "オガワヤ本店", "address": "新潟県十日町市本町4", "lat": 37.13394705, "lon": 138.76141417, "category": "レストラン", "category_id": "0100111", "time": ["11:00-20:30"], "star": 4.01, "review": 34}, {"name": "天山", "address": "新潟県十日町市南新田町1-5-5", "lat": 37.14367714, "lon": 138.76077482, "category": "中華料理店", "category_id": "0100990", "time": ["11:00-15:00", "17:00-22:00"], "star": 4.01, "review": 12}, {"name": "道の駅 クロス10十日町", "address": "新潟県十日町市本町6-71-26", "lat": 37.1384881, "lon": 138.7614174, "category": "道の駅", "category_id": "0302504", "time": ["09:00-18:00"], "star": 3.91, "review": 51}, {"name": "ZIKKA食堂", "address": "新潟県十日町市本町4丁目48", "lat": 37.13409035, "lon": 138.76090283, "category": "和食店", "category_id": "0100126", "time": [], "star": 3.67, "review": 3}, {"name": "よろず酒場 のみや", "address": "新潟県十日町市本町4丁目寅甲36", "lat": 37.133891, "lon": 138.7608432, "category": "居酒屋", "category_id": "0101495", "time": [], "star": 0.0, "review": 0}], "飲食店": [{"name": "越後妻有交流館キナーレ 明石の湯 大広間&cafe", "address": "新潟県十日町市本町6丁目", "lat": 37.139004991837, "lon": 138.76038820105, "category": "カフェ・喫茶", "category_id": "0100344", "time": [], "star": 4.2, "review": 5}, {"name": "しったん", "address": "新潟県十日町市新座甲396-4", "lat": 37.14165436747, "lon": 138.76495693984, "category": "韓国料理店", "category_id": "0100518", "time": ["11:30-14:30"], "star": 3.5, "review": 1}, {"name": "むらげん", "address": "新潟県十日町市本町6-1-251-3", "lat": 37.136592827472, "lon": 138.76213054979, "category": "カフェ・喫茶", "category_id": "0100344", "time": ["11:00-16:00"], "star": 3.87, "review": 3}, {"name": "焼鳥 けむりや", "address": "新潟県十日町市本町3-17-1", "lat": 37.133408737473, "lon": 138.76078049976, "category": "焼き鳥店", "category_id": "0101960", "time": ["17:30-24:00"], "star": 3.78, "review": 9}, {"name": "MonET コミュニティスペース", "address": "新潟県十日町市本町6 越後妻有里山現代美術館 MonET 1F", "lat": 37.138460937471, "lon": 138.76256469981, "category": "ハンバーガー店", "category_id": "0100722", "time": [], "star": 4.05, "review": 2}, {"name": "One day", "address": "新潟県十日町市本町4-67", "lat": 37.134912900598, "lon": 138.76111004049, "category": "バー", "category_id": "0100536", "time": [], "star": 0.0, "review": 0}, {"name": "お食事処なかむら", "address": "新潟県十日町市稲荷町1", "lat": 37.135944251316, "lon": 138.75988564417, "category": "居酒屋", "category_id": "0101495", "time": ["07:30-21:30"], "star": 3.25, "review": 4}, {"name": "居酒屋 牡丹", "address": "新潟県十日町市本町六の1-415", "lat": 37.138116461419, "lon": 138.76263274216, "category": "居酒屋", "category_id": "0101495", "time": [], "star": 0.0, "review": 0}, {"name": "いこて", "address": "新潟県十日町市本町5-39-6 十日町産業文化発信館いこて 1F", "lat": 37.135737336667, "lon": 138.76149149862, "category": "レストラン", "category_id": "0100111", "time": ["11:00-22:00"], "star": 4.2, "review": 48}, {"name": "花寿司", "address": "新潟県十日町市巳甲369-2", "lat": 37.131933477479, "lon": 138.77396899973, "category": "寿司店", "category_id": "0100101", "time": [], "star": 3.5, "review": 1}, {"name": "オガワヤ本店", "address": "新潟県十日町市本町4", "lat": 37.13394705, "lon": 138.76141417, "category": "レストラン", "category_id": "0100111", "time": ["11:00-20:30"], "star": 4.01, "review": 34}, {"name": "ジョークン", "address": "新潟県十日町市本町5丁目55-8", "lat": 37.13602532, "lon": 138.76154745, "category": "飲食店", "category_id": "0102732", "time": ["15:00-21:00"], "star": 4.5, "review": 1}, {"name": "やまもと食堂", "address": "新潟県十日町市本町7", "lat": 37.1422885, "lon": 138.76397315, "category": "定食屋", "category_id": "0101441", "time": ["11:00-14:00", "17:00-21:00"], "star": 4.12, "review": 12}, {"name": "タナカクマキチ.", "address": "新潟県十日町市若宮町372", "lat": 37.13337216, "lon": 138.76166471, "category": "創作料理店", "category_id": "0101193", "time": [], "star": 0.0, "review": 0}, {"name": "越後十日町小嶋屋本店", "address": "新潟県十日町市本町4丁目16番地1 ", "lat": 37.13432199, "lon": 138.7614425, "category": "蕎麦店", "category_id": "0100034", "time": ["11:00-20:00"], "star": 4.19, "review": 47}, {"name": "一献", "address": "新潟県十日町市卯126-12", "lat": 37.13492358, "lon": 138.76208742, "category": "レストラン", "category_id": "0100111", "time": [], "star": 3.9, "review": 3}, {"name": "たか橋", "address": "新潟県十日町市宇都宮35-3", "lat": 37.13637023, "lon": 138.76041117, "category": "レストラン", "category_id": "0100111", "time": ["17:00-22:30"], "star": 3.77, "review": 3}, {"name": "越後しなのがわバル", "address": "新潟県十日町市本町6-1-71-2", "lat": 37.139026529709, "lon": 138.75990989667, "category": "飲食店", "category_id": "0102732", "time": [], "star": 4.0, "review": 3}, {"name": "サロン MonET 喫茶", "address": "新潟県十日町市本町6 越後妻有里山現代美術館 MonET", "lat": 37.138936916178, "lon": 138.7598909116, "category": "カフェ・喫茶", "category_id": "0100344", "time": ["11:00-17:00"], "star": 4.0, "review": 3}, {"name": "酒菜海鮮 いち炉", "address": "新潟県十日町市昭和町4-162-4", "lat": 37.13538425, "lon": 138.75872968, "category": "飲食店", "category_id": "0102732", "time": ["17:30-24:00"], "star": 3.97, "review": 9}], "カフェ": [{"name": "越後妻有交流館キナーレ 明石の湯 大広間&cafe", "address": "新潟県十日町市本町6丁目", "lat": 37.139004991837, "lon": 138.76038820105, "category": "カフェ・喫茶", "category_id": "0100344", "time": [], "star": 4.2, "review": 5}, {"name": "むらげん", "address": "新潟県十日町市本町6-1-251-3", "lat": 37.136592827472, "lon": 138.76213054979, "category": "カフェ・喫茶", "category_id": "0100344", "time": ["11:00-16:00"], "star": 3.87, "review": 3}, {"name": "サロン MonET 喫茶", "address": "新潟県十日町市本町6 越後妻有里山現代美術館 MonET", "lat": 37.138936916178, "lon": 138.7598909116, "category": "カフェ・喫茶", "category_id": "0100344", "time": ["11:00-17:00"], "star": 4.0, "review": 3}, {"name": "いこて", "address": "新潟県十日町市本町5-39-6 十日町産業文化発信館いこて 1F", "lat": 37.135737336667, "lon": 138.76149149862, "category": "レストラン", "category_id": "0100111", "time": ["11:00-22:00"], "star": 4.2, "review": 48}, {"name": "クローブ", "address": "新潟県十日町市本町5 アーバンプラザ 1F", "lat": 37.135669757472, "lon": 138.76181232978, "category": "カフェ・喫茶", "category_id": "0100344", "time": ["11:30-22:30"], "star": 3.0, "review": 2}, {"name": "アトリエ珈琲ハウス", "address": "新潟県十日町市宇都宮87-14", "lat": 37.1388562, "lon": 138.7614485, "category": "カフェ・喫茶", "category_id": "0100344", "time": [], "star": 0.0, "review": 0}, {"name": "茶房 紅花", "address": "新潟県十日町市田中西町西", "lat": 37.133607313303, "lon": 138.76184642226, "category": "カフェ・喫茶", "category_id": "0100344", "time": ["11:00-19:00"], "star": 3.74, "review": 5}, {"name": "カフェ・トト", "address": "新潟県十日町市本町6の1丁目1", "lat": 37.1377485, "lon": 138.7626349, "category": "カフェ・喫茶", "category_id": "0100344", "time": [], "star": 0.0, "review": 0}, {"name": "つまり食堂", "address": "新潟県十日町市本町6-1-71-26 道の駅 クロステン十日町 1F", "lat": 37.13858722747, "lon": 138.76147842981, "category": "蕎麦店", "category_id": "0100034", "time": ["10:00-17:00"], "star": 3.39, "review": 12}, {"name": "越後しなのがわバル", "address": "新潟県十日町市本町6-1-71-2", "lat": 37.139026529709, "lon": 138.75990989667, "category": "飲食店", "category_id": "0102732", "time": [], "star": 4.0, "review": 3}, {"name": "KICHI", "address": "新潟県十日町市若宮町372", "lat": 37.133362636668, "lon": 138.76169509859, "category": "居酒屋", "category_id": "0101495", "time": ["12:00-24:00"], "star": 3.53, "review": 6}, {"name": "エプロンショップ&カフェ・プラム", "address": "新潟県十日町市若宮町64", "lat": 37.13328413, "lon": 138.76220393, "category": "衣料品店", "category_id": "0201401", "time": [], "star": 0.0, "review": 0}, {"name": "越後妻有里山現代美術館 MonET", "address": "新潟県十日町市本町6の１丁目71-2 越後妻有交流館", "lat": 37.13897962, "lon": 138.75993698, "category": "美術館", "category_id": "0302206", "time": ["10:00-17:00"], "star": 4.37, "review": 41}, {"name": "越後妻有交流館キナーレ", "address": "新潟県十日町市本町6の1丁目71-2", "lat": 37.1389624, "lon": 138.75995114, "category": "美術館", "category_id": "0302206", "time": [], "star": 4.53, "review": 17}, {"name": "美佐伝 みさ伝クロス店", "address": "新潟県十日町市本町六の1丁目71-26", "lat": 37.13844084, "lon": 138.76137852, "category": "茶葉販売店", "category_id": "0200048", "time": ["09:00-21:00"], "star": 0.0, "review": 0}], "ドラッグストア": [{"name": "島田薬局", "address": "新潟県十日町市駅通り24-2", "lat": 37.13350266, "lon": 138.76047677, "category": "調剤薬局", "category_id": "0202315", "time": [], "star": 0.0, "review": 0}, {"name": "四日町薬局", "address": "新潟県十日町市新座甲620-5", "lat": 37.14645942, "lon": 138.76550149, "category": "漢方", "category_id": "0201946", "time": [], "star": 0.0, "review": 0}], "ATM": [{"name": "ゆうちょ銀行 ATM 大井田希望の郷郵便局", "address": "新潟県十日町市四日町新田1074", "lat": 37.1457838, "lon": 138.768228, "category": "ATM", "category_id": "0402785", "time": [], "star": 0.0, "review": 0}, {"name": "ゆうちょ銀行 十日町郵便局", "address": "新潟県十日町市本町六の1-60-5", "lat": 37.1370124, "lon": 138.761695, "category": "銀行", "category_id": "0402596", "time": [], "star": 4.5, "review": 0}, {"name": "ゆうちょ銀行 ATM 十日町郵便局", "address": "新潟県十日町市本町六の1-60-5", "lat": 37.1370124, "lon": 138.761695, "category": "ATM", "category_id": "0402785", "time": [], "star": 0.0, "review": 0}, {"name": "セブン銀行 十日町本町店", "address": "新潟県十日町市本町6の1-381-1", "lat": 37.1377671, "lon": 138.762623, "category": "ATM", "category_id": "0402785", "time": ["00:00-24:00"], "star": 0.0, "review": 0}, {"name": "ゆうちょ銀行 大井田希望の郷郵便局", "address": "新潟県十日町市四日町新田1074", "lat": 37.1457838, "lon": 138.768228, "category": "銀行", "category_id": "0402596", "time": [], "star": 0.0, "review": 0}, {"name": "セブン銀行 十日町西店", "address": "新潟県十日町市下川原町20-1", "lat": 37.1417687, "lon": 138.759301, "category": "ATM", "category_id": "0402785", "time": ["00:00-24:00"], "star": 0.0, "review": 0}, {"name": "第四北越銀行 十日町中央支店", "address": "新潟県十日町市本町3丁目365-1", "lat": 37.1331444, "lon": 138.7611898, "category": "銀行", "category_id": "0402596", "time": [], "star": 0.0, "review": 0}], "銭湯 温泉": [{"name": "越後妻有交流館 明石の湯", "address": "新潟県十日町市本町6の１丁目71-2 越後妻有交流館", "lat": 37.13897962, "lon": 138.75993698, "category": "温泉", "category_id": "0401677", "time": ["11:00-21:00"], "star": 4.09, "review": 34}], "スーパーマーケット": [{"name": "全日食チェーン 丸喜食料品店", "address": "新潟県十日町市八幡田町寅甲480-2", "lat": 37.1404728, "lon": 138.759707, "category": "スーパー", "category_id": "0200612", "time": ["08:00-19:00"], "star": 0.0, "review": 0}, {"name": "Aコープ 大井田店", "address": "新潟県十日町市四日町1437", "lat": 37.1481895, "lon": 138.7658258, "category": "スーパー", "category_id": "0200612", "time": [], "star": 4.0, "review": 0}]}, "top_restaurant": {"name": "越後妻有交流館キナーレ", "category": "美術館", "star": 4.53, "review": 17}}, {"name": "ほくほく大島", "name_en": "Hokuhoku-Ōshima", "lat": 37.1469361, "lon": 138.5092691, "osm_id": 359793614, "operator": "", "railway": "station", "wikidata": "Q5878294", "wikipedia_tag": "ja:ほくほく大島駅", "lines": ["ほくほく線"], "pref": "新潟県", "wikipedia_text": "ほくほく大島駅（ほくほくおおしまえき）は、新潟県上越市大島区下達にある北越急行ほくほく線の駅。", "wikipedia_image": "https://upload.wikimedia.org/wikipedia/commons/0/08/Station_building%2C_Hokuhoku-oshima_Station.jpg", "nearest_restaurant": {"name": "イエローハウス", "lat": 37.1204383, "lon": 138.5424777, "address": "", "distance_m": 4165, "cuisine": ""}, "nearby_pois": {"飲食店": [{"name": "日本一うまいところてん", "address": "新潟県上越市大島区下達460-2", "lat": 37.14215699, "lon": 138.50812105, "category": "レストラン", "category_id": "0100111", "time": ["10:00-16:00"], "star": 4.08, "review": 21}, {"name": "やまざくら・会席", "address": "新潟県上越市大島区大平3874-1", "lat": 37.15304321, "lon": 138.51246715, "category": "割烹・小料理屋", "category_id": "0101190", "time": [], "star": 2.1, "review": 0}], "ATM": [{"name": "ゆうちょ銀行 ATM 大平郵便局", "address": "新潟県上越市大島区大平3855-1", "lat": 37.1536195, "lon": 138.512166, "category": "ATM", "category_id": "0402785", "time": [], "star": 0.0, "review": 0}, {"name": "ゆうちょ銀行 大平郵便局", "address": "新潟県上越市大島区大平3855-1", "lat": 37.1536195, "lon": 138.512166, "category": "銀行", "category_id": "0402596", "time": [], "star": 0.0, "review": 0}, {"name": "JAバンク ATM えちご上越農業協同組合(JAえちご上越)大島支店", "address": "新潟県上越市大島区岡3320-22", "lat": 37.154424, "lon": 138.511856, "category": "ATM", "category_id": "0402785", "time": [], "star": 0.0, "review": 0}, {"name": "JAバンク えちご上越農業協同組合(JAえちご上越)大島支店", "address": "新潟県上越市大島区岡3320-22", "lat": 37.1544059, "lon": 138.51182, "category": "銀行", "category_id": "0402596", "time": ["09:00-15:00"], "star": 0.0, "review": 0}], "スーパーマーケット": [{"name": "全日食チェーン やまざくら", "address": "新潟県上越市大島区大平3874-1", "lat": 37.15319738, "lon": 138.51239886, "category": "スーパー", "category_id": "0200612", "time": ["09:30-19:00"], "star": 2.33, "review": 2}]}, "top_restaurant": {"name": "日本一うまいところてん", "category": "レストラン", "star": 4.08, "review": 21}}, {"name": "まつだい", "name_en": "Matsudai", "lat": 37.132214, "lon": 138.6137313, "osm_id": 359793288, "operator": "北越急行", "railway": "station", "wikidata": "Q6788033", "wikipedia_tag": "ja:まつだい駅", "lines": ["ほくほく線"], "pref": "新潟県", "wikipedia_text": "まつだい駅（まつだいえき）は、新潟県十日町市松代にある、北越急行ほくほく線の駅である。駅舎は道の駅まつだいふるさと会館を併設している。", "wikipedia_image": "https://upload.wikimedia.org/wikipedia/commons/1/14/Matsudai_sta.jpg", "nearest_convenience": {"name": "ファミリーマート", "lat": 37.1326918, "lon": 138.6137881, "address": "", "distance_m": 53, "brand": "FamilyMart"}, "nearest_restaurant": {"name": "常春", "lat": 37.132621, "lon": 138.613786, "address": "", "distance_m": 46, "cuisine": "japanese"}, "nearby_pois": {"コンビニ": [{"name": "ファミリーマート 道の駅まつだい店", "address": "新潟県十日町市松代3816-1", "lat": 37.1325886, "lon": 138.6138924, "category": "コンビニ", "category_id": "0200487", "time": ["00:00-24:00"], "star": 3.96, "review": 15}, {"name": "セブンイレブン 中越松代", "address": "新潟県十日町市松代字梶名5958", "lat": 37.1327942, "lon": 138.6158977, "category": "コンビニ", "category_id": "0200487", "time": ["00:00-24:00"], "star": 4.17, "review": 20}], "ラーメン": [{"name": "松代そば善屋", "address": "新潟県十日町市松代3652-12", "lat": 37.133636137427, "lon": 138.61438679986, "category": "蕎麦店", "category_id": "0100034", "time": ["09:00-17:00"], "star": 3.83, "review": 3}, {"name": "柳麺28", "address": "新潟県十日町市松代3374-3", "lat": 37.13198299, "lon": 138.60975668, "category": "飲食店", "category_id": "0102732", "time": ["11:00-15:00", "17:00-19:00"], "star": 4.44, "review": 9}, {"name": "カプチーノ", "address": "新潟県十日町市松代3816-11", "lat": 37.13261082, "lon": 138.61515504, "category": "カフェ・喫茶", "category_id": "0100344", "time": [], "star": 4.0, "review": 1}, {"name": "あずま", "address": "新潟県十日町市松代5422-4", "lat": 37.12965713, "lon": 138.60679785, "category": "中華料理店", "category_id": "0100990", "time": ["11:30-14:00"], "star": 3.13, "review": 6}, {"name": "株式会社松代そば善屋", "address": "新潟県十日町市松代3652-12", "lat": 37.1336129, "lon": 138.61439371, "category": "蕎麦店", "category_id": "0100034", "time": [], "star": 0.0, "review": 0}], "飲食店": [{"name": "松代そば善屋", "address": "新潟県十日町市松代3652-12", "lat": 37.133636137427, "lon": 138.61438679986, "category": "蕎麦店", "category_id": "0100034", "time": ["09:00-17:00"], "star": 3.83, "review": 3}, {"name": "きくやキッチン", "address": "新潟県十日町市松代3816-1 道の駅 まつだいふるさと会館 2F", "lat": 37.132562895671, "lon": 138.61386153825, "category": "定食屋", "category_id": "0101441", "time": ["09:00-18:00"], "star": 3.54, "review": 14}, {"name": "柳麺28", "address": "新潟県十日町市松代3374-3", "lat": 37.13198299, "lon": 138.60975668, "category": "飲食店", "category_id": "0102732", "time": ["11:00-15:00", "17:00-19:00"], "star": 4.44, "review": 9}, {"name": "カプチーノ", "address": "新潟県十日町市松代3816-11", "lat": 37.13261082, "lon": 138.61515504, "category": "カフェ・喫茶", "category_id": "0100344", "time": [], "star": 4.0, "review": 1}, {"name": "小春食堂", "address": "新潟県十日町市松代3527-6", "lat": 37.13477022, "lon": 138.61289383, "category": "定食屋", "category_id": "0101441", "time": ["11:30-14:00", "17:30-21:00"], "star": 3.94, "review": 6}, {"name": "ヤマノイエ", "address": "新潟県十日町市松代3467-5", "lat": 37.134757827425, "lon": 138.61149575988, "category": "カフェ・喫茶", "category_id": "0100344", "time": ["11:30-18:00"], "star": 3.67, "review": 3}, {"name": "カールベンクス古民家カフェ 澁い -SHIBUI-", "address": "新潟県十日町市松代2074-1", "lat": 37.13454898805679, "lon": 138.609299180851, "category": "ビストロ", "category_id": "0100760", "time": ["11:00-16:00"], "star": 4.15, "review": 13}, {"name": "居酒屋とも八", "address": "新潟県十日町市松代3773-24", "lat": 37.13339297, "lon": 138.61630547, "category": "焼き鳥店", "category_id": "0101960", "time": [], "star": 4.33, "review": 5}, {"name": "はらた家", "address": "新潟県十日町市松代5958", "lat": 37.13275664, "lon": 138.6156236, "category": "とんかつ店", "category_id": "0100159", "time": ["11:00-14:00", "17:30-20:00"], "star": 3.29, "review": 13}, {"name": "越後まつだい里山食堂", "address": "新潟県十日町市松代3743-1 まつだい農舞台 2F", "lat": 37.131540837428, "lon": 138.61508290984, "category": "ビュッフェレストラン", "category_id": "0100764", "time": ["10:00-16:30"], "star": 4.23, "review": 29}, {"name": "株式会社松代そば善屋", "address": "新潟県十日町市松代3652-12", "lat": 37.1336129, "lon": 138.61439371, "category": "蕎麦店", "category_id": "0100034", "time": [], "star": 0.0, "review": 0}, {"name": "道の駅 まつだいふるさと会館", "address": "新潟県十日町市松代3816-1 道の駅 まつだいふるさと会館", "lat": 37.1326052, "lon": 138.6138813, "category": "道の駅", "category_id": "0302504", "time": ["11:00-14:00", "16:00-22:00"], "star": 3.55, "review": 25}, {"name": "あずま", "address": "新潟県十日町市松代5422-4", "lat": 37.12965713, "lon": 138.60679785, "category": "中華料理店", "category_id": "0100990", "time": ["11:30-14:00"], "star": 3.13, "review": 6}, {"name": "おたまじゃくし", "address": "新潟県十日町市松代3828-9", "lat": 37.13456199, "lon": 138.61614074, "category": "居酒屋", "category_id": "0101495", "time": [], "star": 0.0, "review": 0}, {"name": "はちぜん豆腐店", "address": "新潟県十日町市松代3299", "lat": 37.13431185, "lon": 138.60954193, "category": "豆腐料理店", "category_id": "0101925", "time": [], "star": 0.0, "review": 0}, {"name": "大衆割烹たかの", "address": "新潟県十日町市松代3653-5", "lat": 37.1342597, "lon": 138.6149636, "category": "会席・懐石料理店", "category_id": "0101064", "time": [], "star": 0.0, "review": 0}], "カフェ": [{"name": "カールベンクス古民家カフェ 澁い -SHIBUI-", "address": "新潟県十日町市松代2074-1", "lat": 37.13454898805679, "lon": 138.609299180851, "category": "ビストロ", "category_id": "0100760", "time": ["11:00-16:00"], "star": 4.15, "review": 13}, {"name": "カプチーノ", "address": "新潟県十日町市松代3816-11", "lat": 37.13261082, "lon": 138.61515504, "category": "カフェ・喫茶", "category_id": "0100344", "time": [], "star": 4.0, "review": 1}, {"name": "ヤマノイエ", "address": "新潟県十日町市松代3467-5", "lat": 37.134757827425, "lon": 138.61149575988, "category": "カフェ・喫茶", "category_id": "0100344", "time": ["11:30-18:00"], "star": 3.67, "review": 3}, {"name": "きくやキッチン", "address": "新潟県十日町市松代3816-1 道の駅 まつだいふるさと会館 2F", "lat": 37.132562895671, "lon": 138.61386153825, "category": "定食屋", "category_id": "0101441", "time": ["09:00-18:00"], "star": 3.54, "review": 14}, {"name": "山ノ家カフェ", "address": "新潟県十日町市松代3467-5", "lat": 37.13484878, "lon": 138.61140258, "category": "", "category_id": "", "time": [], "star": 0.0, "review": 0}], "ドラッグストア": [{"name": "エムケイ薬局 まつだい店", "address": "新潟県十日町市松代3649-1", "lat": 37.13437449, "lon": 138.61491642, "category": "調剤薬局", "category_id": "0202315", "time": [], "star": 0.0, "review": 0}, {"name": "松代調剤薬局", "address": "新潟県十日町市松代3620-1", "lat": 37.13458501, "lon": 138.61453006, "category": "調剤薬局", "category_id": "0202315", "time": [], "star": 0.0, "review": 0}], "ATM": [{"name": "ゆうちょ銀行 ATM ファミリーマート道の駅まつだい店内出張所", "address": "新潟県十日町市松代3816-1", "lat": 37.1326204, "lon": 138.613881, "category": "ATM", "category_id": "0402785", "time": [], "star": 0.0, "review": 0}, {"name": "ゆうちょ銀行 ATM 松代郵便局", "address": "新潟県十日町市松代3374-16", "lat": 37.131267, "lon": 138.609456, "category": "ATM", "category_id": "0402785", "time": [], "star": 0.0, "review": 0}, {"name": "セブン銀行 中越松代店", "address": "新潟県十日町市松代字梶名5958", "lat": 37.132789, "lon": 138.61587, "category": "ATM", "category_id": "0402785", "time": ["00:00-24:00"], "star": 0.0, "review": 0}, {"name": "JAバンク ATM 魚沼農業協同組合(JA魚沼)松代支店", "address": "新潟県十日町市松代2098-4", "lat": 37.1351492, "lon": 138.6086845, "category": "ATM", "category_id": "0402785", "time": [], "star": 0.0, "review": 0}, {"name": "第四北越銀行 松代支店", "address": "新潟県十日町市松代3255-3", "lat": 37.1330634, "lon": 138.6072236, "category": "銀行", "category_id": "0402596", "time": [], "star": 0.0, "review": 0}, {"name": "第四北越銀行 ATM 松代支店", "address": "新潟県十日町市松代3255-3", "lat": 37.1330603, "lon": 138.607219, "category": "ATM", "category_id": "0402785", "time": [], "star": 0.0, "review": 0}, {"name": "ゆうちょ銀行 松代郵便局", "address": "新潟県十日町市松代3374-16", "lat": 37.131267, "lon": 138.609456, "category": "銀行", "category_id": "0402596", "time": [], "star": 0.0, "review": 0}, {"name": "JAバンク 魚沼農業協同組合(JA魚沼)松代支店", "address": "新潟県十日町市松代2098-4", "lat": 37.1351437, "lon": 138.608742, "category": "銀行", "category_id": "0402596", "time": [], "star": 0.0, "review": 0}, {"name": "宝くじ ATM 第四北越銀行松代支店", "address": "新潟県十日町市松代3255-3", "lat": 37.1330816, "lon": 138.607158, "category": "宝くじ売り場", "category_id": "0401442", "time": ["08:00-19:00"], "star": 0.0, "review": 0}], "スーパーマーケット": [{"name": "全日食チェーン メルシー松代店", "address": "新潟県十日町市松代2098-4", "lat": 37.1350076, "lon": 138.6089789, "category": "スーパー", "category_id": "0200612", "time": ["09:00-19:00"], "star": 4.39, "review": 1}, {"name": "Aコープ松代店", "address": "新潟県十日町市松代2098-4", "lat": 37.1350187, "lon": 138.6089623, "category": "スーパー", "category_id": "0200612", "time": [], "star": 3.67, "review": 0}]}, "top_restaurant": {"name": "柳麺28", "category": "飲食店", "star": 4.44, "review": 9}}, {"name": "三川", "name_en": "Mikawa", "lat": 37.7087576, "lon": 139.3818032, "osm_id": 263068972, "operator": "", "railway": "station", "wikidata": "Q11355353", "wikipedia_tag": "ja:三川駅 (新潟県)", "lines": [], "pref": "新潟県", "wikipedia_text": "三川駅（みかわえき）\n\n三川駅 (北海道) - 北海道夕張郡由仁町にあるJR北海道室蘭本線の駅。\n三川駅 (新潟県) - 新潟県東蒲原郡阿賀町にあるJR東日本磐越西線の駅。\n備後三川駅 - 広島県世羅郡世羅町にあるJR西日本福塩線の駅。", "nearest_convenience": {"name": "ヤマザキショップみかわ中嶋店", "lat": 37.7079561, "lon": 139.3808801, "address": "", "distance_m": 121, "brand": ""}, "nearby_pois": {"コンビニ": [{"name": "ヤマザキショップみかわ中嶋店", "address": "新潟県東蒲原郡阿賀町白崎349", "lat": 37.7078634, "lon": 139.3808672, "category": "コンビニ", "category_id": "0200487", "time": [], "star": 4.0, "review": 1}], "ラーメン": [{"name": "居酒屋さかい", "address": "新潟県東蒲原郡阿賀町白崎654", "lat": 37.70988208, "lon": 139.38004914, "category": "ラーメン店", "category_id": "0100097", "time": [], "star": 3.0, "review": 1}], "飲食店": [{"name": "居酒屋さかい", "address": "新潟県東蒲原郡阿賀町白崎654", "lat": 37.70988208, "lon": 139.38004914, "category": "ラーメン店", "category_id": "0100097", "time": [], "star": 3.0, "review": 1}], "カフェ": [{"name": "リバーサイドカフェ白い舟", "address": "新潟県東蒲原郡阿賀町白崎4131", "lat": 37.70448904, "lon": 139.38009775, "category": "", "category_id": "", "time": [], "star": 0.0, "review": 0}], "ATM": [{"name": "ゆうちょ銀行 ATM 三川郵便局", "address": "新潟県東蒲原郡阿賀町白崎731", "lat": 37.7094336, "lon": 139.379925, "category": "ATM", "category_id": "0402785", "time": [], "star": 0.0, "review": 0}, {"name": "ゆうちょ銀行 三川郵便局", "address": "新潟県東蒲原郡阿賀町白崎731", "lat": 37.7094336, "lon": 139.379925, "category": "銀行", "category_id": "0402596", "time": [], "star": 0.0, "review": 0}]}, "top_restaurant": {"name": "居酒屋さかい", "category": "ラーメン店", "star": 3.0, "review": 1}}, {"name": "三条", "name_en": "Sanjo", "lat": 37.6211398, "lon": 138.960895, "osm_id": 264802208, "operator": "", "railway": "station", "wikidata": "Q16280707", "wikipedia_tag": "ja:三条駅 (新潟県)", "lines": ["信越本線"], "pref": "新潟県", "wikipedia_text": "三条駅（さんじょうえき）\n\n三条駅 (新潟県) - 新潟県三条市にあるJR東日本信越本線の駅。\n三条駅 (京都府) - 京都府京都市東山区の京阪電気鉄道京阪本線・鴨東線の駅。\n三条京阪駅 - 京阪電気鉄道の三条駅に接続する、京都市営地下鉄東西線の駅。\n京津三条駅 - かつて存在した京阪電気鉄道京津線の駅。京津線の一部区間廃止に伴い廃止。三条駅 (京都府) を参照。\n東山三条駅 - かつて存在した京阪電気鉄道京津線の駅。京津線京津三条 - 御陵間廃線により廃止。東山駅 (京都府) を参照。\n西大路三条駅 - 京都府京都市右京区にある京福電気鉄道嵐山本線の駅。旧称：三条口駅。\n三条駅 (香川県) - 香川県高松市にある高松琴平電気鉄道琴平線の駅。\n尾張三条駅 - 愛知県中島郡起町（現・一宮市）にあった名古屋鉄道起線の駅。", "nearest_convenience": {"name": "ローソン", "lat": 37.630723, "lon": 138.9509615, "address": "", "distance_m": 1379, "brand": "LAWSON"}, "nearest_restaurant": {"name": "へぎそば処むろしま", "lat": 37.6293597, "lon": 138.9634835, "address": "", "distance_m": 942, "cuisine": ""}, "nearby_pois": {"コンビニ": [{"name": "セブンイレブン 三条南四日町", "address": "新潟県三条市南四日町2-7-8", "lat": 37.6192532, "lon": 138.9557343, "category": "コンビニ", "category_id": "0200487", "time": ["00:00-24:00"], "star": 3.71, "review": 25}, {"name": "ファミリーマート 三条田島店", "address": "新潟県三条市田島2-10-10", "lat": 37.6244391, "lon": 138.9689631, "category": "コンビニ", "category_id": "0200487", "time": ["00:00-24:00"], "star": 4.61, "review": 16}, {"name": "ファミリーマート 三条新保店", "address": "新潟県三条市新保字橋元334", "lat": 37.6160233, "lon": 138.9621308, "category": "コンビニ", "category_id": "0200487", "time": ["00:00-24:00"], "star": 4.58, "review": 40}, {"name": "ローソン 三条新保", "address": "新潟県三条市新保144-1", "lat": 37.6131265, "lon": 138.9627059, "category": "コンビニ", "category_id": "0200487", "time": ["00:00-24:00"], "star": 4.29, "review": 24}, {"name": "ウオロク 東新保店", "address": "新潟県三条市東新保25-15", "lat": 37.6186924, "lon": 138.9608115, "category": "スーパー", "category_id": "0200612", "time": ["09:00-22:00"], "star": 4.01, "review": 146}, {"name": "原信ナルス 原信 四日町店", "address": "新潟県三条市南四日町4-4-7", "lat": 37.6152731, "lon": 138.9539625, "category": "スーパー", "category_id": "0200612", "time": ["09:00-24:00"], "star": 3.91, "review": 251}, {"name": "リオンドール 三条本町店", "address": "新潟県三条市本町3-7-6", "lat": 37.6285659, "lon": 138.9557061, "category": "スーパー", "category_id": "0200612", "time": ["08:00-20:00"], "star": 3.54, "review": 60}], "ラーメン": [{"name": "麺屋 長衛門", "address": "新潟県三条市東新保8-31", "lat": 37.61730479045893, "lon": 138.96237316523087, "category": "ラーメン店", "category_id": "0100097", "time": [], "star": 3.88, "review": 64}, {"name": "手揉み中華ちはや", "address": "新潟県三条市南新保4-7", "lat": 37.62217242, "lon": 138.95955648, "category": "ラーメン店", "category_id": "0100097", "time": ["11:00-15:00"], "star": 3.72, "review": 8}, {"name": "大黒亭 松屋小路店", "address": "新潟県三条市本町3-7-14", "lat": 37.62837037, "lon": 138.95606249, "category": "ラーメン店", "category_id": "0100097", "time": ["11:30-20:00"], "star": 3.84, "review": 23}, {"name": "やじろう", "address": "新潟県三条市本町2-7-28", "lat": 37.62959600789, "lon": 138.95721236091, "category": "居酒屋", "category_id": "0101495", "time": [], "star": 2.57, "review": 3}, {"name": "香蘭", "address": "新潟県三条市東新保2-54", "lat": 37.62432951, "lon": 138.96473773, "category": "ラーメン店", "category_id": "0100097", "time": [], "star": 3.05, "review": 4}, {"name": "大観楼", "address": "新潟県三条市南四日町3-6-25", "lat": 37.61725379, "lon": 138.95585548, "category": "中華料理店", "category_id": "0100990", "time": ["11:00-14:30", "17:00-22:00"], "star": 3.74, "review": 26}, {"name": "大黒亭 居島店", "address": "新潟県三条市居島2-26", "lat": 37.62986583, "lon": 138.95936312, "category": "ラーメン店", "category_id": "0100097", "time": ["11:30-18:30"], "star": 3.18, "review": 14}, {"name": "宝華食堂", "address": "新潟県三条市一ノ門1-7-5", "lat": 37.62711641, "lon": 138.96698458, "category": "中華料理店", "category_id": "0100990", "time": ["11:00-14:00", "16:30-21:00"], "star": 3.74, "review": 18}, {"name": "らーめんどっぽ", "address": "新潟県三条市本町1丁目1-2", "lat": 37.629336, "lon": 138.9581143, "category": "ラーメン店", "category_id": "0100097", "time": [], "star": 0.0, "review": 0}, {"name": "旅館 和食堂 みなとや", "address": "新潟県三条市南新保15-8", "lat": 37.62087845, "lon": 138.96003092, "category": "旅館", "category_id": "0301676", "time": [], "star": 3.7, "review": 3}, {"name": "歩", "address": "新潟県三条市南四日町1-13-33", "lat": 37.621956187225, "lon": 138.95601651456, "category": "居酒屋", "category_id": "0101495", "time": ["18:00-24:00"], "star": 4.44, "review": 9}, {"name": "BIANG BIANG CALLING", "address": "新潟県三条市神明町3-7", "lat": 37.629533917425, "lon": 138.96143623528, "category": "麺料理店", "category_id": "0101175", "time": ["11:00-18:00"], "star": 0.0, "review": 0}, {"name": "ときわ屋", "address": "新潟県三条市南四日町1-7-11", "lat": 37.622143994344, "lon": 138.9553323046, "category": "蕎麦店", "category_id": "0100034", "time": [], "star": 2.97, "review": 7}], "飲食店": [{"name": "韓一館", "address": "新潟県三条市本町2-7-13", "lat": 37.62967413, "lon": 138.95756419, "category": "焼肉店", "category_id": "0101963", "time": [], "star": 4.0, "review": 1}, {"name": "やじろう", "address": "新潟県三条市本町2-7-28", "lat": 37.62959600789, "lon": 138.95721236091, "category": "居酒屋", "category_id": "0101495", "time": [], "star": 2.57, "review": 3}, {"name": "菊寿司", "address": "新潟県三条市本町1-2-18", "lat": 37.628754157222, "lon": 138.95825783462, "category": "寿司店", "category_id": "0100101", "time": ["18:00-25:00"], "star": 0.0, "review": 0}, {"name": "純喫茶ゆり", "address": "新潟県三条市南新保2-17", "lat": 37.62307229, "lon": 138.95888931, "category": "カフェ・喫茶", "category_id": "0100344", "time": ["10:00-18:00"], "star": 3.86, "review": 8}, {"name": "歩", "address": "新潟県三条市南四日町1-13-33", "lat": 37.621956187225, "lon": 138.95601651456, "category": "居酒屋", "category_id": "0101495", "time": ["18:00-24:00"], "star": 4.44, "review": 9}, {"name": "スターバックス コーヒー 三条東新保店", "address": "新潟県三条市東新保9-16", "lat": 37.618172, "lon": 138.962386, "category": "コーヒー店", "category_id": "0100496", "time": ["08:00-22:00"], "star": 4.14, "review": 142}, {"name": "楓花", "address": "新潟県三条市本町2-5-1", "lat": 37.629673785227, "lon": 138.9579178543, "category": "和食店", "category_id": "0100126", "time": [], "star": 0.0, "review": 0}, {"name": "串ぼうず", "address": "新潟県三条市南四日町1-9-13", "lat": 37.622181574178356, "lon": 138.95677469549196, "category": "居酒屋", "category_id": "0101495", "time": ["16:00-24:00"], "star": 4.5, "review": 0}, {"name": "旅館和食堂みなとや", "address": "新潟県三条市南新保15-8", "lat": 37.62083053588867, "lon": 138.95999145507812, "category": "定食屋", "category_id": "0101441", "time": [], "star": 0.0, "review": 0}, {"name": "TREE", "address": "新潟県三条市仲之町2-15", "lat": 37.629461, "lon": 138.963404, "category": "カフェ・喫茶", "category_id": "0100344", "time": ["11:00-23:00"], "star": 3.95, "review": 60}, {"name": "Blanc・chateaux", "address": "新潟県三条市南新保4-24", "lat": 37.62138086, "lon": 138.9593607, "category": "フランス料理店", "category_id": "0100264", "time": ["11:30-14:30", "18:00-22:00"], "star": 3.57, "review": 9}, {"name": "旬鮮旬菜鮮", "address": "新潟県三条市北新保1丁目20-12", "lat": 37.62603996, "lon": 138.95947966, "category": "飲食店", "category_id": "0102732", "time": [], "star": 4.0, "review": 0}, {"name": "麺屋 長衛門", "address": "新潟県三条市東新保8-31", "lat": 37.61730479045893, "lon": 138.96237316523087, "category": "ラーメン店", "category_id": "0100097", "time": [], "star": 3.88, "review": 64}, {"name": "日本海ばん屋", "address": "新潟県三条市居島2-26-3", "lat": 37.62997442, "lon": 138.95929785, "category": "飲食店", "category_id": "0102732", "time": [], "star": 4.67, "review": 3}, {"name": "手揉み中華ちはや", "address": "新潟県三条市南新保4-7", "lat": 37.62217242, "lon": 138.95955648, "category": "ラーメン店", "category_id": "0100097", "time": ["11:00-15:00"], "star": 3.72, "review": 8}, {"name": "バード", "address": "新潟県三条市本町2-6-7", "lat": 37.62949529, "lon": 138.95826105, "category": "カフェ・喫茶", "category_id": "0100344", "time": ["17:30-26:00"], "star": 4.43, "review": 2}, {"name": "あき介", "address": "新潟県三条市北新保1-13-8", "lat": 37.62623016, "lon": 138.95798373, "category": "居酒屋", "category_id": "0101495", "time": ["17:00-22:30"], "star": 4.67, "review": 1}, {"name": "泉食堂マーポー亭", "address": "新潟県三条市本町1-5-11", "lat": 37.629199637222, "lon": 138.96051840463, "category": "飲食店", "category_id": "0102732", "time": ["11:30-14:00", "18:00-22:00"], "star": 3.6, "review": 4}, {"name": "cafe toujours", "address": "新潟県三条市神明町9-1", "lat": 37.629747217222, "lon": 138.96181705463, "category": "カフェ・喫茶", "category_id": "0100344", "time": ["11:00-22:00"], "star": 4.17, "review": 15}, {"name": "星野園", "address": "新潟県三条市林町1丁目5-41", "lat": 37.62909745, "lon": 138.96411261, "category": "カフェ・喫茶", "category_id": "0100344", "time": ["09:00-18:00"], "star": 2.88, "review": 1}], "カフェ": [{"name": "スターバックス コーヒー 三条東新保店", "address": "新潟県三条市東新保9-16", "lat": 37.618172, "lon": 138.962386, "category": "コーヒー店", "category_id": "0100496", "time": ["08:00-22:00"], "star": 4.14, "review": 142}, {"name": "純喫茶ゆり", "address": "新潟県三条市南新保2-17", "lat": 37.62307229, "lon": 138.95888931, "category": "カフェ・喫茶", "category_id": "0100344", "time": ["10:00-18:00"], "star": 3.86, "review": 8}, {"name": "cafe toujours", "address": "新潟県三条市神明町9-1", "lat": 37.629747217222, "lon": 138.96181705463, "category": "カフェ・喫茶", "category_id": "0100344", "time": ["11:00-22:00"], "star": 4.17, "review": 15}, {"name": "TREE", "address": "新潟県三条市仲之町2-15", "lat": 37.629461, "lon": 138.963404, "category": "カフェ・喫茶", "category_id": "0100344", "time": ["11:00-23:00"], "star": 3.95, "review": 60}, {"name": "バード", "address": "新潟県三条市本町2-6-7", "lat": 37.62949529, "lon": 138.95826105, "category": "カフェ・喫茶", "category_id": "0100344", "time": ["17:30-26:00"], "star": 4.43, "review": 2}, {"name": "SANJO BLANC", "address": "新潟県三条市本町2丁目13-9", "lat": 37.6285118, "lon": 138.9572293, "category": "カフェ・喫茶", "category_id": "0100344", "time": ["11:00-22:00"], "star": 4.25, "review": 3}, {"name": "カフェ・フルール", "address": "新潟県三条市林町1丁目2-8", "lat": 37.62832202, "lon": 138.96490782, "category": "カフェ・喫茶", "category_id": "0100344", "time": ["13:00-18:00"], "star": 4.0, "review": 1}, {"name": "星野園", "address": "新潟県三条市林町1丁目5-41", "lat": 37.62909745, "lon": 138.96411261, "category": "カフェ・喫茶", "category_id": "0100344", "time": ["09:00-18:00"], "star": 2.88, "review": 1}, {"name": "ワンズマインドカフェ", "address": "新潟県三条市本町1丁目1-23", "lat": 37.6288733, "lon": 138.9578121, "category": "カフェ・喫茶", "category_id": "0100344", "time": [], "star": 0.0, "review": 0}, {"name": "喫茶シンカイ", "address": "新潟県三条市本町2丁目13-9", "lat": 37.62854177, "lon": 138.95722428, "category": "カフェ・喫茶", "category_id": "0100344", "time": [], "star": 0.0, "review": 0}, {"name": "山田屋茶舗", "address": "新潟県三条市本町1丁目3-26", "lat": 37.62870623, "lon": 138.95839746, "category": "日本茶店", "category_id": "0101681", "time": [], "star": 4.0, "review": 1}, {"name": "花音", "address": "新潟県三条市本町1丁目9-6", "lat": 37.628368, "lon": 138.958346, "category": "カフェ・喫茶", "category_id": "0100344", "time": [], "star": 0.0, "review": 0}, {"name": "ベジテーブル", "address": "新潟県三条市本町1-3-17", "lat": 37.62864598, "lon": 138.95897684, "category": "オーガニックレストラン", "category_id": "0100316", "time": ["11:00-16:00", "18:00-21:00"], "star": 3.35, "review": 5}, {"name": "茶店こまち", "address": "新潟県三条市神明町2-1", "lat": 37.629896, "lon": 138.960724, "category": "カフェ・喫茶", "category_id": "0100344", "time": [], "star": 0.0, "review": 0}, {"name": "ボードゲームカフェ&ショップ ASOBO's", "address": "新潟県三条市神明町7-5b 3F", "lat": 37.62932, "lon": 138.96298, "category": "アミューズメント施設", "category_id": "0300252", "time": ["15:00-22:00"], "star": 0.0, "review": 0}, {"name": "インディーズロックカフェ", "address": "新潟県三条市本町1丁目1-23", "lat": 37.628879, "lon": 138.957866, "category": "カフェ・喫茶", "category_id": "0100344", "time": [], "star": 0.0, "review": 0}, {"name": "SANJOPUBLISHING", "address": "新潟県三条市本町2丁目13-1", "lat": 37.62853703, "lon": 138.95664769, "category": "飲食店", "category_id": "0102732", "time": ["11:00-22:00"], "star": 0.0, "review": 0}, {"name": "Arce", "address": "新潟県三条市本町1丁目1-31", "lat": 37.62928947, "lon": 138.95793138, "category": "バー", "category_id": "0100536", "time": ["20:00-24:00"], "star": 0.0, "review": 0}, {"name": "遊亀楼魚兵", "address": "新潟県三条市一ノ門1丁目2-17", "lat": 37.62870784, "lon": 138.96636319, "category": "会席・懐石料理店", "category_id": "0101064", "time": ["08:00-22:00"], "star": 3.77, "review": 14}], "ドラッグストア": [{"name": "マツモトキヨシ ドラッグストア 三条東新保店", "address": "新潟県三条市東新保9-15", "lat": 37.6189063, "lon": 138.9618086, "category": "ドラッグストア", "category_id": "0200699", "time": ["09:00-21:00"], "star": 4.26, "review": 22}, {"name": "クスリのアオキ 南四日町店", "address": "新潟県三条市南四日町1-11-32", "lat": 37.6213142, "lon": 138.9577867, "category": "ドラッグストア", "category_id": "0200699", "time": ["09:00-22:00"], "star": 4.21, "review": 22}, {"name": "ツルハドラッグ 三条東新保店", "address": "新潟県三条市東新保8番6号", "lat": 37.61791472, "lon": 138.96160029, "category": "ドラッグストア", "category_id": "0200699", "time": ["09:00-22:00"], "star": 4.22, "review": 49}, {"name": "ウエルシア三条新保店", "address": "新潟県三条市新保147-1", "lat": 37.613273, "lon": 138.963607, "category": "ドラッグストア", "category_id": "0200699", "time": ["09:00-24:00"], "star": 4.53, "review": 25}, {"name": "ダイレックス 三条四日町店", "address": "新潟県三条市南四日町4-2-10", "lat": 37.6165619, "lon": 138.9547707, "category": "ドラッグストア", "category_id": "0200699", "time": ["09:00-22:00"], "star": 0.0, "review": 0}, {"name": "ウオロク 東新保店", "address": "新潟県三条市東新保25-15", "lat": 37.6186924, "lon": 138.9608115, "category": "スーパー", "category_id": "0200612", "time": ["09:00-22:00"], "star": 4.01, "review": 146}, {"name": "ココカラファインクスリのコダマ 三条四日町店", "address": "新潟県三条市南四日町4丁目8-9号", "lat": 37.6148642, "lon": 138.9529947, "category": "ドラッグストア", "category_id": "0200699", "time": [], "star": 0.0, "review": 0}, {"name": "エムケイ薬局 よっかまち店", "address": "新潟県三条市西四日町1-3-15", "lat": 37.62503987, "lon": 138.95249476, "category": "調剤薬局", "category_id": "0202315", "time": [], "star": 0.0, "review": 0}, {"name": "ポラリス調剤薬局", "address": "新潟県三条市南四日町4ー3ー11", "lat": 37.61534817, "lon": 138.9549179, "category": "調剤薬局", "category_id": "0202315", "time": ["09:00-18:00"], "star": 0.0, "review": 0}, {"name": "一位三薬局", "address": "新潟県三条市南新保1-14", "lat": 37.62408624, "lon": 138.95865214, "category": "調剤薬局", "category_id": "0202315", "time": [], "star": 0.0, "review": 0}, {"name": "みなみ調剤薬局三条店", "address": "新潟県三条市本町2丁目8-19", "lat": 37.62913417, "lon": 138.95649685, "category": "調剤薬局", "category_id": "0202315", "time": ["09:00-18:15"], "star": 0.0, "review": 0}, {"name": "株式会社田口薬局", "address": "新潟県三条市本町2丁目8-14", "lat": 37.62885754, "lon": 138.95639214, "category": "調剤薬局", "category_id": "0202315", "time": [], "star": 0.0, "review": 0}], "ATM": [{"name": "第四北越銀行 ATM ウオロク東新保店", "address": "新潟県三条市東新保25-15", "lat": 37.618753, "lon": 138.960732, "category": "ATM", "category_id": "0402785", "time": [], "star": 0.0, "review": 0}, {"name": "第四北越銀行 三条東支店", "address": "新潟県三条市神明町1-1", "lat": 37.6298686, "lon": 138.9596278, "category": "銀行", "category_id": "0402596", "time": ["09:00-15:00"], "star": 4.33, "review": 2}, {"name": "ゆうちょ銀行 三条四日町郵便局", "address": "新潟県三条市北四日町6-5", "lat": 37.6246907, "lon": 138.955787, "category": "銀行", "category_id": "0402596", "time": [], "star": 4.56, "review": 0}, {"name": "第四北越銀行 三条支店", "address": "新潟県三条市神明町1-1", "lat": 37.6298158, "lon": 138.9596723, "category": "銀行", "category_id": "0402596", "time": ["09:00-15:00"], "star": 0.0, "review": 0}, {"name": "第四北越銀行 ATM よっかまちショッピングセンター", "address": "新潟県三条市南四日町4-352-1 よっかまちショッピングセンター", "lat": 37.6153836, "lon": 138.953919, "category": "ATM", "category_id": "0402785", "time": [], "star": 0.0, "review": 0}, {"name": "ゆうちょ銀行 ATM ファミリーマート三条新保店内出張所", "address": "新潟県三条市新保字橋元334", "lat": 37.6160902, "lon": 138.962147, "category": "ATM", "category_id": "0402785", "time": [], "star": 0.0, "review": 0}, {"name": "大光銀行 三条支店", "address": "新潟県三条市本町3-6-25", "lat": 37.6290825, "lon": 138.9557783, "category": "銀行", "category_id": "0402596", "time": ["09:00-15:00"], "star": 3.0, "review": 0}, {"name": "第四北越銀行 ATM 三条支店", "address": "新潟県三条市神明町1-1", "lat": 37.6296069, "lon": 138.959658, "category": "ATM", "category_id": "0402785", "time": [], "star": 0.0, "review": 0}, {"name": "セブン銀行 三条南四日町店", "address": "新潟県三条市南四日町2-7-8", "lat": 37.6193155, "lon": 138.955759, "category": "ATM", "category_id": "0402785", "time": ["00:00-24:00"], "star": 0.0, "review": 0}, {"name": "ゆうちょ銀行 ATM 三条四日町郵便局", "address": "新潟県三条市北四日町6-5", "lat": 37.6246907, "lon": 138.955787, "category": "ATM", "category_id": "0402785", "time": [], "star": 0.0, "review": 0}, {"name": "大光銀行 ATM 三条支店", "address": "新潟県三条市本町3-6-25", "lat": 37.629102, "lon": 138.955792, "category": "ATM", "category_id": "0402785", "time": [], "star": 0.0, "review": 0}, {"name": "株式会社第四北越銀行 県央コンサルティングプラザ", "address": "新潟県三条市神明町1-1", "lat": 37.62977719, "lon": 138.95985016, "category": "銀行", "category_id": "0402596", "time": [], "star": 0.0, "review": 0}, {"name": "ゆうちょ銀行 三条一ノ木戸郵便局", "address": "新潟県三条市仲之町2-17", "lat": 37.6296362, "lon": 138.963265, "category": "銀行", "category_id": "0402596", "time": [], "star": 4.0, "review": 0}, {"name": "銀行ATM イーネット ファミリーマート三条田島 共同出張所", "address": "新潟県三条市田島2-10-10 ", "lat": 37.62441684, "lon": 138.96895196, "category": "ATM", "category_id": "0402785", "time": ["00:00-24:00"], "star": 0.0, "review": 0}, {"name": "JAバンク ATM えちご中越農業協同組合(JAえちご中越)本成寺プラザ店", "address": "新潟県三条市新保139-1", "lat": 37.6123002, "lon": 138.962541, "category": "ATM", "category_id": "0402785", "time": [], "star": 0.0, "review": 0}, {"name": "ゆうちょ銀行 三条本町一郵便局", "address": "新潟県三条市本町1-1-24", "lat": 37.6289342, "lon": 138.957887, "category": "銀行", "category_id": "0402596", "time": [], "star": 3.0, "review": 0}, {"name": "第四北越銀行 三条南支店", "address": "新潟県三条市神明町1-1", "lat": 37.6296979, "lon": 138.959641, "category": "銀行", "category_id": "0402596", "time": [], "star": 0.0, "review": 0}, {"name": "ゆうちょ銀行 ATM 三条一ノ木戸郵便局", "address": "新潟県三条市仲之町2-17", "lat": 37.6296362, "lon": 138.963265, "category": "ATM", "category_id": "0402785", "time": [], "star": 0.0, "review": 0}, {"name": "三条信用金庫 四日町支店", "address": "新潟県三条市四日町3-15", "lat": 37.6241832, "lon": 138.9562285, "category": "信用金庫", "category_id": "0401098", "time": [], "star": 0.0, "review": 0}, {"name": "ゆうちょ銀行 ATM 三条本町一郵便局", "address": "新潟県三条市本町1-1-24", "lat": 37.628932, "lon": 138.957821, "category": "ATM", "category_id": "0402785", "time": [], "star": 0.0, "review": 0}], "銭湯 温泉": [{"name": "宮島の湯", "address": "新潟県三条市田島2丁目12-2", "lat": 37.62535028, "lon": 138.96754403, "category": "銭湯", "category_id": "0400578", "time": ["15:00-22:00"], "star": 3.92, "review": 5}], "スーパーマーケット": [{"name": "ウオロク 東新保店", "address": "新潟県三条市東新保25-15", "lat": 37.6186924, "lon": 138.9608115, "category": "スーパー", "category_id": "0200612", "time": ["09:00-22:00"], "star": 4.01, "review": 146}, {"name": "原信ナルス 原信 四日町店", "address": "新潟県三条市南四日町4-4-7", "lat": 37.6152731, "lon": 138.9539625, "category": "スーパー", "category_id": "0200612", "time": ["09:00-24:00"], "star": 3.91, "review": 251}, {"name": "リオンドール 三条本町店", "address": "新潟県三条市本町3-7-6", "lat": 37.6285659, "lon": 138.9557061, "category": "スーパー", "category_id": "0200612", "time": ["08:00-20:00"], "star": 3.54, "review": 60}, {"name": "マツモトキヨシ ドラッグストア 三条東新保店", "address": "新潟県三条市東新保9-15", "lat": 37.6189063, "lon": 138.9618086, "category": "ドラッグストア", "category_id": "0200699", "time": ["09:00-21:00"], "star": 4.26, "review": 22}, {"name": "セリア ウオロク東新保店", "address": "新潟県三条市東新保9-14 ウオロク東新保", "lat": 37.6188618, "lon": 138.9621696, "category": "100円ショップ", "category_id": "0200001", "time": [], "star": 4.29, "review": 54}, {"name": "よっかまちショッピングセンター", "address": "新潟県三条市南四日町4丁目4-7", "lat": 37.6153787, "lon": 138.9539347, "category": "ショッピングセンター・モール", "category_id": "0200537", "time": [], "star": 3.67, "review": 3}]}, "top_restaurant": {"name": "日本海ばん屋", "category": "飲食店", "star": 4.67, "review": 3}}, {"name": "上下浜", "name_en": "Jogehama", "lat": 37.2522757, "lon": 138.3615978, "osm_id": 7255080073, "operator": "", "railway": "station", "wikidata": "Q6322194", "wikipedia_tag": "ja:上下浜駅", "lines": ["信越本線"], "pref": "新潟県", "wikipedia_text": "上下浜駅（じょうげはまえき）は、新潟県上越市柿崎区にある、東日本旅客鉄道（JR東日本）信越本線の駅である。", "wikipedia_image": "https://upload.wikimedia.org/wikipedia/commons/9/9c/JR_Shin-etsu_Line_Jogehama_Station_building.jpg", "nearest_convenience": {"name": "ローソン", "lat": 37.2669144, "lon": 138.3811908, "address": "", "distance_m": 2378, "brand": ""}, "nearest_restaurant": {"name": "ラーメンショップ", "lat": 37.2218261, "lon": 138.3220229, "address": "", "distance_m": 4872, "cuisine": ""}, "nearby_pois": {"ラーメン": [{"name": "食事処 なべや", "address": "新潟県上越市柿崎区上下浜572", "lat": 37.25213776, "lon": 138.35985788, "category": "ラーメン店", "category_id": "0100097", "time": ["11:00-14:30", "17:00-21:00"], "star": 3.89, "review": 22}, {"name": "お食事処神明坂", "address": "新潟県上越市柿崎区上下浜1075-5", "lat": 37.24939044, "lon": 138.35618493, "category": "定食屋", "category_id": "0101441", "time": [], "star": 2.8, "review": 7}], "飲食店": [{"name": "肴菜や", "address": "新潟県上越市柿崎区上下浜555-11", "lat": 37.2525822, "lon": 138.36121859, "category": "飲食店", "category_id": "0102732", "time": ["11:30-14:00", "17:30-24:00"], "star": 4.12, "review": 12}, {"name": "食事処 なべや", "address": "新潟県上越市柿崎区上下浜572", "lat": 37.25213776, "lon": 138.35985788, "category": "ラーメン店", "category_id": "0100097", "time": ["11:00-14:30", "17:00-21:00"], "star": 3.89, "review": 22}, {"name": "佐渡見亭", "address": "新潟県上越市柿崎区上下浜426", "lat": 37.2535914, "lon": 138.35753694, "category": "居酒屋", "category_id": "0101495", "time": [], "star": 3.58, "review": 4}, {"name": "FORBLE", "address": "新潟県上越市柿崎区上下浜388-3", "lat": 37.25213315, "lon": 138.35530411, "category": "飲食店", "category_id": "0102732", "time": [], "star": 0.0, "review": 0}, {"name": "コーヒーサロンくびきの", "address": "新潟県上越市柿崎区上下浜974-4", "lat": 37.2491174, "lon": 138.36328098, "category": "コーヒー店", "category_id": "0100496", "time": [], "star": 4.0, "review": 1}, {"name": "帰雁荘", "address": "新潟県上越市柿崎区坂田新田892-4", "lat": 37.24912913, "lon": 138.36519248, "category": "和食店", "category_id": "0100126", "time": ["11:30-13:30", "17:00-22:00"], "star": 3.5, "review": 1}, {"name": "お食事処神明坂", "address": "新潟県上越市柿崎区上下浜1075-5", "lat": 37.24939044, "lon": 138.35618493, "category": "定食屋", "category_id": "0101441", "time": [], "star": 2.8, "review": 7}, {"name": "浜人hamando", "address": "新潟県上越市柿崎区上下浜426", "lat": 37.25350558, "lon": 138.35760499, "category": "居酒屋", "category_id": "0101495", "time": ["18:00-23:00"], "star": 0.0, "review": 0}, {"name": "旬食彩・割烹 橋立", "address": "新潟県上越市柿崎区上下浜906-2", "lat": 37.247814727276, "lon": 138.36951960119, "category": "会席・懐石料理店", "category_id": "0101064", "time": ["11:00-14:00", "17:00-22:00"], "star": 4.13, "review": 12}, {"name": "海月", "address": "新潟県上越市柿崎区上下浜262 マリンホテルハマナス内", "lat": 37.251211677268, "lon": 138.35208777123, "category": "シーフード・海鮮料理店", "category_id": "0100542", "time": ["11:30-14:30", "17:00-21:00"], "star": 3.03, "review": 10}, {"name": "マリンホテルハマナス", "address": "新潟県上越市柿崎区上下浜262", "lat": 37.2512331, "lon": 138.3521222, "category": "ホテル", "category_id": "0300124", "time": ["00:00-24:00"], "star": 4.23, "review": 12}, {"name": "スナックるる(流流)", "address": "新潟県上越市柿崎区上下浜1665", "lat": 37.248513, "lon": 138.352752, "category": "居酒屋", "category_id": "0101495", "time": [], "star": 0.0, "review": 0}], "カフェ": [{"name": "コーヒーサロンくびきの", "address": "新潟県上越市柿崎区上下浜974-4", "lat": 37.2491174, "lon": 138.36328098, "category": "コーヒー店", "category_id": "0100496", "time": [], "star": 4.0, "review": 1}, {"name": "旬食彩・割烹 橋立", "address": "新潟県上越市柿崎区上下浜906-2", "lat": 37.247814727276, "lon": 138.36951960119, "category": "会席・懐石料理店", "category_id": "0101064", "time": ["11:00-14:00", "17:00-22:00"], "star": 4.13, "review": 12}], "ATM": [{"name": "ゆうちょ銀行 ATM 上下浜郵便局", "address": "新潟県上越市柿崎区上下浜771-1", "lat": 37.2520436, "lon": 138.356155, "category": "ATM", "category_id": "0402785", "time": [], "star": 0.0, "review": 0}, {"name": "ゆうちょ銀行 上下浜郵便局", "address": "新潟県上越市柿崎区上下浜771-1", "lat": 37.2520436, "lon": 138.356155, "category": "銀行", "category_id": "0402596", "time": [], "star": 0.0, "review": 0}], "銭湯 温泉": [{"name": "日帰り入浴 マリンホテルハマナス", "address": "新潟県上越市柿崎区上下浜262", "lat": 37.2512331, "lon": 138.3521222, "category": "日帰り入浴", "category_id": "0401679", "time": ["11:00-16:00"], "star": 0.0, "review": 0}]}, "top_restaurant": {"name": "マリンホテルハマナス", "category": "ホテル", "star": 4.23, "review": 12}}, {"name": "上境", "name_en": "Kami-Sakai", "lat": 36.9380083, "lon": 138.4190544, "osm_id": 1095690282, "operator": "", "railway": "station", "wikidata": "Q6358498", "wikipedia_tag": "ja:上境駅", "lines": [], "pref": "新潟県", "wikipedia_text": "上境駅（かみさかいえき）は、長野県飯山市大字一山にある、東日本旅客鉄道（JR東日本）飯山線の駅である。", "wikipedia_image": "https://upload.wikimedia.org/wikipedia/commons/4/4c/JR_Iiyama_Line_Kami-Sakai_Station_building.jpg", "nearest_convenience": {"name": "ヤマザキショップ", "lat": 36.9437708, "lon": 138.4343055, "address": "", "distance_m": 1499, "brand": "Yamazaki Shop"}, "nearest_restaurant": {"name": "", "lat": 36.9421104, "lon": 138.4298104, "address": "", "distance_m": 1059, "cuisine": ""}, "nearby_pois": {"ラーメン": [{"name": "いいやま湯滝温泉 食堂", "address": "長野県飯山市一山字川押1898", "lat": 36.935469489207, "lon": 138.41872971139, "category": "定食屋", "category_id": "0101441", "time": [], "star": 4.67, "review": 3}], "飲食店": [{"name": "いいやま湯滝温泉 食堂", "address": "長野県飯山市一山字川押1898", "lat": 36.935469489207, "lon": 138.41872971139, "category": "定食屋", "category_id": "0101441", "time": [], "star": 4.67, "review": 3}, {"name": "いいやま湯滝温泉", "address": "長野県飯山市大字一山1898", "lat": 36.9355271, "lon": 138.4188202, "category": "日帰り入浴", "category_id": "0401679", "time": ["10:00-21:00"], "star": 4.11, "review": 47}], "銭湯 温泉": [{"name": "いいやま湯滝温泉", "address": "長野県飯山市大字一山1898", "lat": 36.9355271, "lon": 138.4188202, "category": "日帰り入浴", "category_id": "0401679", "time": ["10:00-21:00"], "star": 4.11, "review": 47}]}, "top_restaurant": {"name": "いいやま湯滝温泉 食堂", "category": "定食屋", "star": 4.67, "review": 3}}, {"name": "上所", "name_en": "Kamitokoro", "lat": 37.9069596, "lon": 139.0452418, "osm_id": 12528951672, "operator": "", "railway": "station", "wikidata": "Q110268723", "wikipedia_tag": "ja:上所駅", "lines": ["JR越後線"], "pref": "新潟県", "nearby_bus_stops": [{"name": "南高校前", "lat": 37.9081926, "lon": 139.0451049, "distance_m": 138, "operator": ""}, {"name": "南高校前", "lat": 37.9092666, "lon": 139.0450446, "distance_m": 257, "operator": ""}, {"name": "南高校前", "lat": 37.9091111, "lon": 139.0433105, "distance_m": 293, "operator": ""}, {"name": "幸町", "lat": 37.9090564, "lon": 139.0474641, "distance_m": 304, "operator": ""}, {"name": "鳥屋野十字路", "lat": 37.9044193, "lon": 139.047598, "distance_m": 350, "operator": ""}], "wikipedia_text": "上所駅（かみところえき）は、新潟市中央区下所島にある、東日本旅客鉄道（JR東日本）越後線の駅である。", "wikipedia_image": "https://upload.wikimedia.org/wikipedia/commons/7/7e/%E4%B8%8A%E6%89%80%E9%A7%85.jpg", "nearest_convenience": {"name": "ローソン新潟堀ノ内店", "lat": 37.9038492, "lon": 139.0461606, "address": "", "distance_m": 355, "brand": ""}, "nearest_restaurant": {"name": "ブックカフェ　アンテナ", "lat": 37.9081327, "lon": 139.0463108, "address": "", "distance_m": 161, "cuisine": ""}, "nearby_pois": {"コンビニ": [{"name": "ローソン 新潟堀ノ内", "address": "新潟県新潟市中央区近江2-20-38 堀ノ内ビル 1F", "lat": 37.9038662, "lon": 139.0461596, "category": "コンビニ", "category_id": "0200487", "time": ["00:00-24:00"], "star": 4.26, "review": 23}, {"name": "ファミリーマート 新潟近江三丁目店", "address": "新潟県新潟市中央区近江3-1-32", "lat": 37.903069, "lon": 139.0439404, "category": "コンビニ", "category_id": "0200487", "time": ["00:00-24:00"], "star": 3.92, "review": 13}, {"name": "セブンイレブン 新潟幸西", "address": "新潟県新潟市中央区幸西2-2-8", "lat": 37.9093157, "lon": 139.0471981, "category": "コンビニ", "category_id": "0200487", "time": ["00:00-24:00"], "star": 3.62, "review": 18}, {"name": "ローソン 新潟堀之内南一丁目", "address": "新潟県新潟市中央区堀之内南1-32-10", "lat": 37.9037524, "lon": 139.0494898, "category": "コンビニ", "category_id": "0200487", "time": ["00:00-24:00"], "star": 4.0, "review": 25}, {"name": "セブンイレブン 新潟新和1丁目", "address": "新潟県新潟市中央区新和1-1-23", "lat": 37.9029801, "lon": 139.0407212, "category": "コンビニ", "category_id": "0200487", "time": ["00:00-24:00"], "star": 4.08, "review": 15}, {"name": "ファミリーマート 新潟天神尾一丁目店", "address": "新潟県新潟市中央区天神尾1-15-10", "lat": 37.9088464, "lon": 139.0540641, "category": "コンビニ", "category_id": "0200487", "time": ["00:00-24:00"], "star": 4.11, "review": 18}, {"name": "セブンイレブン 新潟水島町", "address": "新潟県新潟市中央区水島町57-1", "lat": 37.9111878, "lon": 139.0548528, "category": "コンビニ", "category_id": "0200487", "time": ["00:00-24:00"], "star": 3.91, "review": 17}, {"name": "セブンイレブン 新潟和合町1丁目", "address": "新潟県新潟市中央区和合町1-10-22", "lat": 37.9001501, "lon": 139.0510454, "category": "コンビニ", "category_id": "0200487", "time": ["00:00-24:00"], "star": 3.89, "review": 31}, {"name": "ファミリーマート 新潟上所中店", "address": "新潟県新潟市中央区上所中1丁目11-23", "lat": 37.9060097, "lon": 139.0349047, "category": "コンビニ", "category_id": "0200487", "time": [], "star": 4.0, "review": 0}, {"name": "イオン スタイル上所", "address": "新潟県新潟市中央区上所3-10-65", "lat": 37.9049382, "lon": 139.0400129, "category": "スーパー", "category_id": "0200612", "time": ["08:00-24:00"], "star": 4.13, "review": 100}, {"name": "原信ナルス 原信 南万代店", "address": "新潟県新潟市中央区幸西1-1-37", "lat": 37.9123598, "lon": 139.051753, "category": "スーパー", "category_id": "0200612", "time": ["00:00-24:00"], "star": 3.69, "review": 238}, {"name": "清水フードセンター とやの店", "address": "新潟県新潟市中央区堀之内55-1", "lat": 37.9060272, "lon": 139.0514117, "category": "ショッピングセンター・モール", "category_id": "0200537", "time": ["09:00-22:00"], "star": 3.82, "review": 103}], "ラーメン": [{"name": "煮干し中華 八 堀之内店", "address": "新潟県新潟市中央区堀之内南1-1-17", "lat": 37.90592587, "lon": 139.05323599, "category": "ラーメン店", "category_id": "0100097", "time": ["07:30-23:00"], "star": 4.16, "review": 104}, {"name": "ラーメン山岡家 新潟新和店", "address": "新潟県新潟市中央区新和1-5-37", "lat": 37.9020393, "lon": 139.039738, "category": "ラーメン店", "category_id": "0100097", "time": ["00:00-24:00"], "star": 4.0, "review": 85}, {"name": "味の店 ちづる", "address": "新潟県新潟市中央区新和1-3-24", "lat": 37.90238877, "lon": 139.04082538, "category": "ラーメン店", "category_id": "0100097", "time": ["11:00-15:30", "17:00-21:30"], "star": 4.08, "review": 86}, {"name": "とやの屋", "address": "新潟県新潟市中央区堀之内南3-1-13 MID GARDEN 堀之内店内", "lat": 37.903913310017, "lon": 139.04888569118, "category": "ラーメン店", "category_id": "0100097", "time": [], "star": 3.5, "review": 7}, {"name": "三宝亭 製麺", "address": "新潟県新潟市中央区新和1-7-6", "lat": 37.9015612, "lon": 139.037881, "category": "ラーメン店", "category_id": "0100097", "time": ["11:00-15:30", "17:00-21:30"], "star": 3.52, "review": 22}, {"name": "まっくうしゃ", "address": "新潟県新潟市中央区上近江2-2-27-1", "lat": 37.90095135, "lon": 139.0377832, "category": "ラーメン店", "category_id": "0100097", "time": ["10:00-21:00"], "star": 4.15, "review": 133}, {"name": "ラーメン まぜそば マゼシャモジ 新和店", "address": "新潟県新潟市中央区新和1-5-35", "lat": 37.902014057074, "lon": 139.03963071733, "category": "ラーメン店", "category_id": "0100097", "time": ["11:00-23:00"], "star": 3.24, "review": 10}, {"name": "三宝亭 Shanghai Fun Dining 楼蘭", "address": "新潟県新潟市中央区堀之内南1-15-15 とやのショッピングセンター", "lat": 37.9056055, "lon": 139.052473, "category": "中華料理店", "category_id": "0100990", "time": ["11:00-15:30", "17:00-21:30"], "star": 4.07, "review": 67}, {"name": "町田商店 新潟近江店", "address": "新潟県新潟市中央区上近江2-１-20 ", "lat": 37.90091077, "lon": 139.03681607, "category": "ラーメン店", "category_id": "0100097", "time": [], "star": 0.0, "review": 1}, {"name": "餃子の王将 新潟近江店", "address": "新潟県新潟市中央区近江2-20-35", "lat": 37.9036329, "lon": 139.0456513, "category": "餃子店", "category_id": "0102733", "time": ["11:00-22:00"], "star": 3.89, "review": 96}, {"name": "中華飯店 キンサン", "address": "新潟県新潟市中央区上所2-3-11", "lat": 37.90663374, "lon": 139.03584293, "category": "中華料理店", "category_id": "0100990", "time": ["11:00-15:00", "18:00-21:00"], "star": 4.06, "review": 52}, {"name": "中国料理 新東華楼", "address": "新潟県新潟市中央区新和1丁目7-17", "lat": 37.90141215, "lon": 139.03849896, "category": "中華料理店", "category_id": "0100990", "time": ["11:00-15:00", "17:00-21:00"], "star": 3.8, "review": 50}, {"name": "居酒家厨房上々や", "address": "新潟県新潟市中央区上所中1-8-18", "lat": 37.90643683, "lon": 139.03627456, "category": "居酒屋", "category_id": "0101495", "time": ["16:00-23:00"], "star": 4.16, "review": 21}], "飲食店": [{"name": "book cafe antenna", "address": "新潟県新潟市中央区幸町13-7 幸ビル 103", "lat": 37.908144137072, "lon": 139.04632599738, "category": "カフェ・喫茶", "category_id": "0100344", "time": [], "star": 4.13, "review": 3}, {"name": "Bar off BEST", "address": "新潟県新潟市中央区古町通9-1483-1 エクセルビル 5F", "lat": 37.9073362, "lon": 139.0482169, "category": "バー", "category_id": "0100536", "time": [], "star": 0.0, "review": 0}, {"name": "サロン ド ジュンコ カフェ", "address": "新潟県新潟市中央区堀之内南1-17-13", "lat": 37.903760987077, "lon": 139.05248619733, "category": "カフェ・喫茶", "category_id": "0100344", "time": ["13:30-16:30"], "star": 3.5, "review": 1}, {"name": "メネフネ", "address": "新潟県新潟市中央区東掘通8番町1416 ライオンタワービル 7F", "lat": 37.911301274141, "lon": 139.04737021483, "category": "バー", "category_id": "0100536", "time": ["20:00-31:00"], "star": 0.0, "review": 0}, {"name": "サカナノバーガー 新潟万代店", "address": "新潟県新潟市中央区幸西3-1-6 蔦屋書店 新潟万代 2F", "lat": 37.911413450255, "lon": 139.04729354204, "category": "ハンバーガー店", "category_id": "0100722", "time": [], "star": 3.9, "review": 9}, {"name": "キッチンまぁぶる", "address": "新潟県新潟市中央区上所2-2-2 新潟ユニゾンプラザ 1F", "lat": 37.90722043707, "lon": 139.03730920738, "category": "洋食店", "category_id": "0100129", "time": ["11:00-14:00"], "star": 3.2, "review": 2}, {"name": "やすらぎカフェ pizza latte", "address": "新潟県新潟市中央区幸西3-6-27 やすらぎ堤 緑地内", "lat": 37.912640158062, "lon": 139.04704612945, "category": "ビアガーデン", "category_id": "0100754", "time": [], "star": 3.5, "review": 2}, {"name": "カカ", "address": "新潟県新潟市中央区天神尾2-9-14 ライフサイドビル 1-A", "lat": 37.905808663076, "lon": 139.05177677309, "category": "飲食店", "category_id": "0102732", "time": [], "star": 3.33, "review": 3}, {"name": "アトリエムズ", "address": "新潟県新潟市中央区幸西3-2-32 サニーアームス 1F", "lat": 37.910721577071, "lon": 139.04686297741, "category": "カフェ・喫茶", "category_id": "0100344", "time": ["10:00-20:00"], "star": 4.17, "review": 41}, {"name": "手打ちそば 都麦", "address": "新潟県新潟市中央区東幸町15-26", "lat": 37.9065368, "lon": 139.04742987, "category": "蕎麦店", "category_id": "0100034", "time": ["11:30-14:00", "17:00-22:00"], "star": 4.03, "review": 10}, {"name": "小木曽製粉所 堀之内店", "address": "新潟県新潟市中央区堀之内南3-1-13", "lat": 37.9040698, "lon": 139.048592, "category": "蕎麦店", "category_id": "0100034", "time": ["11:00-21:00"], "star": 3.9, "review": 21}, {"name": "ハナレ酒場ふじみや", "address": "新潟県新潟市中央区堀之内50-11", "lat": 37.905758087075, "lon": 139.05036009736, "category": "居酒屋", "category_id": "0101495", "time": ["17:00-25:00"], "star": 4.2, "review": 7}, {"name": "珈琲倶楽部 新和本店", "address": "新潟県新潟市中央区新和1-10-9", "lat": 37.90060197, "lon": 139.03876313, "category": "カフェ・喫茶", "category_id": "0100344", "time": ["08:00-19:00"], "star": 4.21, "review": 31}, {"name": "鮭山マス男商店 桜木店", "address": "新潟県新潟市中央区上近江2-2-21", "lat": 37.90068527, "lon": 139.03787126, "category": "定食屋", "category_id": "0101441", "time": ["11:00-21:00"], "star": 4.13, "review": 41}, {"name": "フェルマータ", "address": "新潟県新潟市中央区上近江2-92-1 上近江ショッピングタウン内", "lat": 37.90079859, "lon": 139.03785709, "category": "カフェ・喫茶", "category_id": "0100344", "time": ["11:00-21:00"], "star": 4.15, "review": 74}, {"name": "ウエルフェアMAETA", "address": "新潟県新潟市中央区幸町7-19", "lat": 37.91006422, "lon": 139.04943506, "category": "居酒屋", "category_id": "0101495", "time": ["17:00-24:00"], "star": 4.24, "review": 16}, {"name": "ダブ コーヒーストア", "address": "新潟県新潟市中央区水島町3-23 八千代マンション", "lat": 37.911483806328, "lon": 139.05462914724, "category": "コーヒー店", "category_id": "0100496", "time": ["08:00-18:00"], "star": 4.36, "review": 18}, {"name": "ミスタードーナツ とやの", "address": "新潟県新潟市中央区堀之内南1-16-1", "lat": 37.9055939, "lon": 139.0520228, "category": "ドーナツ店", "category_id": "0100701", "time": ["07:00-23:00"], "star": 4.15, "review": 113}, {"name": "タリーズコーヒー新潟万代店", "address": "新潟県新潟市中央区幸西3-1-6 蔦屋書店新潟万代内", "lat": 37.9114182, "lon": 139.0474591, "category": "コーヒー店", "category_id": "0100496", "time": ["09:00-22:00"], "star": 4.19, "review": 82}, {"name": "カシュ カシュ", "address": "新潟県新潟市中央区堀之内南 1-17-7 ロータス日東マンション1F", "lat": 37.904109954833984, "lon": 139.05270385742188, "category": "カフェ・喫茶", "category_id": "0100344", "time": [], "star": 4.0, "review": 2}], "カフェ": [{"name": "book cafe antenna", "address": "新潟県新潟市中央区幸町13-7 幸ビル 103", "lat": 37.908144137072, "lon": 139.04632599738, "category": "カフェ・喫茶", "category_id": "0100344", "time": [], "star": 4.13, "review": 3}, {"name": "サロン ド ジュンコ カフェ", "address": "新潟県新潟市中央区堀之内南1-17-13", "lat": 37.903760987077, "lon": 139.05248619733, "category": "カフェ・喫茶", "category_id": "0100344", "time": ["13:30-16:30"], "star": 3.5, "review": 1}, {"name": "やすらぎカフェ pizza latte", "address": "新潟県新潟市中央区幸西3-6-27 やすらぎ堤 緑地内", "lat": 37.912640158062, "lon": 139.04704612945, "category": "ビアガーデン", "category_id": "0100754", "time": [], "star": 3.5, "review": 2}, {"name": "フェルマータ", "address": "新潟県新潟市中央区上近江2-92-1 上近江ショッピングタウン内", "lat": 37.90079859, "lon": 139.03785709, "category": "カフェ・喫茶", "category_id": "0100344", "time": ["11:00-21:00"], "star": 4.15, "review": 74}, {"name": "アトリエムズ", "address": "新潟県新潟市中央区幸西3-2-32 サニーアームス 1F", "lat": 37.910721577071, "lon": 139.04686297741, "category": "カフェ・喫茶", "category_id": "0100344", "time": ["10:00-20:00"], "star": 4.17, "review": 41}, {"name": "珈琲倶楽部 新和本店", "address": "新潟県新潟市中央区新和1-10-9", "lat": 37.90060197, "lon": 139.03876313, "category": "カフェ・喫茶", "category_id": "0100344", "time": ["08:00-19:00"], "star": 4.21, "review": 31}, {"name": "ダブ コーヒーストア", "address": "新潟県新潟市中央区水島町3-23 八千代マンション", "lat": 37.911483806328, "lon": 139.05462914724, "category": "コーヒー店", "category_id": "0100496", "time": ["08:00-18:00"], "star": 4.36, "review": 18}, {"name": "わたしの珈琲店 りゅーとぴあ店", "address": "新潟県新潟市中央区一番堀通町3-2 りゅーとぴあ 新潟市民芸術文化会館 2F", "lat": 37.913467636262, "lon": 139.04039690628, "category": "カフェ・喫茶", "category_id": "0100344", "time": ["09:00-17:00"], "star": 3.63, "review": 20}, {"name": "むさしの森珈琲 新潟八千代店", "address": "新潟県新潟市中央区八千代2-3-10", "lat": 37.91400131, "lon": 139.05205567, "category": "コーヒー店", "category_id": "0100496", "time": ["07:00-22:00"], "star": 4.13, "review": 25}, {"name": "パンとカフェ シエールNST店", "address": "新潟県新潟市中央区八千代2-3-1 NST 2F", "lat": 37.91447068, "lon": 139.05070856, "category": "カフェ・喫茶", "category_id": "0100344", "time": ["10:00-16:00"], "star": 3.7, "review": 57}, {"name": "タリーズコーヒー新潟万代店", "address": "新潟県新潟市中央区幸西3-1-6 蔦屋書店新潟万代内", "lat": 37.9114182, "lon": 139.0474591, "category": "コーヒー店", "category_id": "0100496", "time": ["09:00-22:00"], "star": 4.19, "review": 82}, {"name": "HaRu-NiRe", "address": "新潟県新潟市中央区新和3-2-17 STAGE A 2-A", "lat": 37.9014496898, "lon": 139.0403185199, "category": "カフェ・喫茶", "category_id": "0100344", "time": ["11:00-17:00"], "star": 3.52, "review": 14}, {"name": "コメダ珈琲 新潟新和店", "address": "新潟県新潟市中央区新和1-5-34", "lat": 37.9018302, "lon": 139.0394686, "category": "コーヒー店", "category_id": "0100496", "time": ["07:00-23:00"], "star": 4.02, "review": 90}, {"name": "カシュ カシュ", "address": "新潟県新潟市中央区堀之内南 1-17-7 ロータス日東マンション1F", "lat": 37.904109954833984, "lon": 139.05270385742188, "category": "カフェ・喫茶", "category_id": "0100344", "time": [], "star": 4.0, "review": 2}, {"name": "珈琲倶楽部 天神尾店", "address": "新潟県新潟市中央区天神尾2-13-13", "lat": 37.9075809, "lon": 139.05141, "category": "コーヒー店", "category_id": "0100496", "time": ["07:00-19:00"], "star": 3.98, "review": 3}, {"name": "和かふぇ べじ家", "address": "新潟県新潟市中央区上所中1-8-20", "lat": 37.906356, "lon": 139.03625206, "category": "カフェ・喫茶", "category_id": "0100344", "time": ["11:00-15:00"], "star": 3.53, "review": 16}, {"name": "喫茶上所 Kamitokoro Coffee", "address": "新潟県新潟市中央区上所中2丁目7-3 シャトレーマツダD1階", "lat": 37.9038557, "lon": 139.0389667, "category": "カフェ・喫茶", "category_id": "0100344", "time": [], "star": 3.25, "review": 1}, {"name": "コーヒールーム 風", "address": "新潟県新潟市中央区上所中2丁目4-11", "lat": 37.9041517, "lon": 139.0395793, "category": "カフェ・喫茶", "category_id": "0100344", "time": [], "star": 0.0, "review": 0}, {"name": "ヤスラギガーデン", "address": "新潟県新潟市中央区八千代", "lat": 37.9145988, "lon": 139.0506423, "category": "カフェ・喫茶", "category_id": "0100344", "time": [], "star": 4.75, "review": 2}, {"name": "セーリングカフェ", "address": "新潟県新潟市中央区一番堀通町3-2 新潟市民芸術文化会館(りゅーとぴあ) 2F", "lat": 37.9131219, "lon": 139.0406457, "category": "カフェ・喫茶", "category_id": "0100344", "time": [], "star": 0.0, "review": 1}], "ドラッグストア": [{"name": "ドラッグトップスとやの店", "address": "新潟県新潟市中央区堀之内南1-15-15 ", "lat": 37.90556895, "lon": 139.05271718, "category": "ドラッグストア", "category_id": "0200699", "time": ["09:00-22:00"], "star": 4.14, "review": 109}, {"name": "ツルハドラッグ 新潟幸西店", "address": "新潟県新潟市中央区幸西2丁目1番16号", "lat": 37.90994062, "lon": 139.04860904, "category": "ドラッグストア", "category_id": "0200699", "time": ["09:00-24:00"], "star": 4.17, "review": 48}, {"name": "ウエルシア新潟新和店", "address": "新潟県新潟市中央区新和1-66-1", "lat": 37.901581, "lon": 139.039131, "category": "ドラッグストア", "category_id": "0200699", "time": ["03:00-26:00"], "star": 3.93, "review": 35}, {"name": "ココカラファイン 南万代店", "address": "新潟県新潟市中央区幸西1-1-37", "lat": 37.91240427, "lon": 139.05150305, "category": "ドラッグストア", "category_id": "0200699", "time": ["09:00-22:00"], "star": 4.19, "review": 4}, {"name": "ウエルシア新潟上所中店", "address": "新潟県新潟市中央区上所中1-11-23", "lat": 37.905972, "lon": 139.034914, "category": "ドラッグストア", "category_id": "0200699", "time": ["09:00-24:00"], "star": 4.08, "review": 27}, {"name": "メッツ上所薬局", "address": "新潟県新潟市中央区近江3丁目1-7", "lat": 37.90331711, "lon": 139.04504663, "category": "調剤薬局", "category_id": "0202315", "time": ["08:30-18:30"], "star": 0.0, "review": 0}, {"name": "おおせき薬局", "address": "新潟県新潟市 中央区上所1丁目1-24", "lat": 37.90864104, "lon": 139.04520512, "category": "調剤薬局", "category_id": "0202315", "time": [], "star": 0.0, "review": 0}, {"name": "ラポル薬局", "address": "新潟県新潟市中央区近江3丁目5-6", "lat": 37.90165536, "lon": 139.04569719, "category": "調剤薬局", "category_id": "0202315", "time": [], "star": 0.0, "review": 0}, {"name": "ファーマライズ薬局 ほりのうち調剤薬局", "address": "新潟県新潟市中央区堀之内南1-32-1", "lat": 37.90376855, "lon": 139.05002058, "category": "調剤薬局", "category_id": "0202315", "time": [], "star": 0.0, "review": 0}, {"name": "もみの木調剤薬局 新潟駅前店", "address": "新潟県新潟市 中央区水島町3-23", "lat": 37.9114763, "lon": 139.0546487, "category": "調剤薬局", "category_id": "0202315", "time": ["09:00-18:00"], "star": 4.5, "review": 0}, {"name": "しあわせ薬局", "address": "新潟県新潟市中央区幸町7-23", "lat": 37.9100895, "lon": 139.04974753, "category": "調剤薬局", "category_id": "0202315", "time": [], "star": 0.0, "review": 0}, {"name": "みなみ調剤薬局 さいわい店", "address": "新潟県新潟市 中央区幸西1丁目5-20", "lat": 37.9120765037, "lon": 139.0500143405, "category": "調剤薬局", "category_id": "0202315", "time": [], "star": 0.0, "review": 0}, {"name": "天神尾薬局", "address": "新潟県新潟市中央区天神尾1丁目11-8", "lat": 37.90899722, "lon": 139.05512203, "category": "調剤薬局", "category_id": "0202315", "time": [], "star": 0.0, "review": 0}, {"name": "かみところ調剤薬局", "address": "新潟県新潟市中央区新和1ー3ー13", "lat": 37.90207743, "lon": 139.0412323, "category": "調剤薬局", "category_id": "0202315", "time": ["08:45-17:45"], "star": 0.0, "review": 0}, {"name": "つき薬局", "address": "新潟県新潟市 中央区上所3丁目10-65", "lat": 37.90488548, "lon": 139.04038289, "category": "調剤薬局", "category_id": "0202315", "time": [], "star": 0.0, "review": 0}, {"name": "原信ナルス 原信 南万代店", "address": "新潟県新潟市中央区幸西1-1-37", "lat": 37.9123598, "lon": 139.051753, "category": "スーパー", "category_id": "0200612", "time": ["00:00-24:00"], "star": 3.69, "review": 238}, {"name": "大手薬局天神尾店", "address": "新潟県新潟市中央区天神尾1丁目16-10", "lat": 37.90817564, "lon": 139.05461379, "category": "調剤薬局", "category_id": "0202315", "time": [], "star": 0.0, "review": 0}, {"name": "つばさ調剤薬局", "address": "新潟県新潟市中央区上近江2ー1ー31", "lat": 37.90125518, "lon": 139.0369133, "category": "調剤薬局", "category_id": "0202315", "time": ["09:00-18:00"], "star": 0.0, "review": 0}, {"name": "メディカスタッフプロモーション 万代調剤薬局 上所", "address": "新潟県新潟市 中央区上所中3丁目14-13", "lat": 37.90276886, "lon": 139.03532725, "category": "調剤薬局", "category_id": "0202315", "time": [], "star": 0.0, "review": 0}, {"name": "共創未来新潟天神尾薬局", "address": "新潟県新潟市中央区天神尾2丁目11-1", "lat": 37.9070321, "lon": 139.05169637, "category": "調剤薬局", "category_id": "0202315", "time": [], "star": 0.0, "review": 0}], "ATM": [{"name": "第四北越銀行 鳥屋野支店", "address": "新潟県新潟市中央区堀之内南1-33-26", "lat": 37.9033914, "lon": 139.0495954, "category": "銀行", "category_id": "0402596", "time": ["09:00-15:00"], "star": 4.5, "review": 2}, {"name": "第四北越銀行 ATM マルシェコート上所", "address": "新潟県新潟市中央区上所3-10-65 マルシェコートA", "lat": 37.9050116, "lon": 139.04014, "category": "ATM", "category_id": "0402785", "time": [], "star": 0.0, "review": 0}, {"name": "第四北越銀行 ATM 原信南万代店", "address": "新潟県新潟市中央区幸西1-1-37 原信南万代店 1F", "lat": 37.9125816, "lon": 139.051541, "category": "ATM", "category_id": "0402785", "time": [], "star": 0.0, "review": 0}, {"name": "ゆうちょ銀行 新潟下所島郵便局", "address": "新潟県新潟市中央区下所島1-2-5", "lat": 37.9081389, "lon": 139.045551, "category": "銀行", "category_id": "0402596", "time": [], "star": 0.0, "review": 0}, {"name": "イオン銀行 ATM イオンスタイル上所店出張所(店内)", "address": "新潟県新潟市中央区上所3-10-65", "lat": 37.9049888, "lon": 139.040169, "category": "ATM", "category_id": "0402785", "time": ["08:00-23:00"], "star": 0.0, "review": 0}, {"name": "三条信用金庫 新潟支店", "address": "新潟県新潟市中央区堀之内南1-32-14", "lat": 37.904076547984474, "lon": 139.04926188258088, "category": "信用金庫", "category_id": "0401098", "time": ["09:00-15:00"], "star": 0.0, "review": 1}, {"name": "ゆうちょ銀行 新潟堀之内郵便局", "address": "新潟県新潟市中央区堀之内南1-33-34", "lat": 37.9035063, "lon": 139.050103, "category": "銀行", "category_id": "0402596", "time": [], "star": 4.0, "review": 0}, {"name": "大光銀行 ATM とやのショッピングセンター", "address": "新潟県新潟市中央区堀之内南1-15-15", "lat": 37.9055728, "lon": 139.052823, "category": "ATM", "category_id": "0402785", "time": [], "star": 0.0, "review": 0}, {"name": "ゆうちょ銀行 ATM 新潟下所島郵便局", "address": "新潟県新潟市中央区下所島1-2-5", "lat": 37.9081389, "lon": 139.045551, "category": "ATM", "category_id": "0402785", "time": [], "star": 0.0, "review": 0}, {"name": "第四北越銀行 ATM イオンとやの店", "address": "新潟県新潟市中央区堀ノ内55-1 イオンとやの店", "lat": 37.9059755, "lon": 139.051357, "category": "ATM", "category_id": "0402785", "time": [], "star": 0.0, "review": 0}, {"name": "セブン銀行 新潟幸西店", "address": "新潟県新潟市中央区幸西2-2-8", "lat": 37.9094114, "lon": 139.047134, "category": "ATM", "category_id": "0402785", "time": ["00:00-24:00"], "star": 0.0, "review": 0}, {"name": "JAバンク 新潟市農業協同組合(JA新潟市)鳥屋野支店", "address": "新潟県新潟市中央区堀之内24-1", "lat": 37.9052848, "lon": 139.048787, "category": "銀行", "category_id": "0402596", "time": [], "star": 0.0, "review": 1}, {"name": "銀行ATM イーネット ファミリーマート新潟近江三丁目 共同出張所", "address": "新潟県新潟市中央区近江3-1-32 ", "lat": 37.90308294, "lon": 139.04393757, "category": "ATM", "category_id": "0402785", "time": ["00:00-24:00"], "star": 0.0, "review": 0}, {"name": "大光銀行 ATM 原信南万代店", "address": "新潟県新潟市中央区幸西1-1-37", "lat": 37.9124837, "lon": 139.051744, "category": "ATM", "category_id": "0402785", "time": [], "star": 0.0, "review": 0}, {"name": "第四北越銀行 ATM 鳥屋野支店", "address": "新潟県新潟市中央区堀之内南1-33-26", "lat": 37.9033207, "lon": 139.049575, "category": "ATM", "category_id": "0402785", "time": [], "star": 0.0, "review": 0}, {"name": "みずほ銀行 ATM イオンスタイル上所店出張所", "address": "新潟県新潟市中央区上所3-10-65", "lat": 37.9050374, "lon": 139.040152, "category": "ATM", "category_id": "0402785", "time": [], "star": 0.0, "review": 0}, {"name": "みずほ銀行 ATM 清水フードセンターとやの店出張所", "address": "新潟県新潟市中央区堀之内55-1", "lat": 37.9060106, "lon": 139.051427, "category": "ATM", "category_id": "0402785", "time": [], "star": 0.0, "review": 0}, {"name": "イオン銀行 ATM 清水フードセンターとやの店出張所(店内)", "address": "新潟県新潟市中央区堀之内55-1", "lat": 37.9060005, "lon": 139.051414, "category": "ATM", "category_id": "0402785", "time": ["09:00-22:00"], "star": 0.0, "review": 0}, {"name": "JAバンク ATM 新潟市農業協同組合(JA新潟市)鳥屋野支店", "address": "新潟県新潟市中央区堀之内24-1", "lat": 37.9052848, "lon": 139.048787, "category": "ATM", "category_id": "0402785", "time": [], "star": 0.0, "review": 0}, {"name": "ゆうちょ銀行 ATM 新潟堀之内郵便局", "address": "新潟県新潟市中央区堀之内南1-33-34", "lat": 37.9035063, "lon": 139.050103, "category": "ATM", "category_id": "0402785", "time": [], "star": 0.0, "review": 0}], "スーパーマーケット": [{"name": "イオン スタイル上所", "address": "新潟県新潟市中央区上所3-10-65", "lat": 37.9049382, "lon": 139.0400129, "category": "スーパー", "category_id": "0200612", "time": ["08:00-24:00"], "star": 4.13, "review": 100}, {"name": "原信ナルス 原信 南万代店", "address": "新潟県新潟市中央区幸西1-1-37", "lat": 37.9123598, "lon": 139.051753, "category": "スーパー", "category_id": "0200612", "time": ["00:00-24:00"], "star": 3.69, "review": 238}, {"name": "ピアレマート 新和店", "address": "新潟県新潟市中央区新和1-8-8", "lat": 37.9009525, "lon": 139.0383715, "category": "スーパー", "category_id": "0200612", "time": ["09:30-21:00"], "star": 3.89, "review": 140}, {"name": "カトウ食材 下所店", "address": "新潟県新潟市中央区下所島2-2-30", "lat": 37.9058022, "lon": 139.0470872, "category": "食料品卸売業", "category_id": "0502722", "time": ["05:00-18:00"], "star": 3.92, "review": 18}, {"name": "清水フードセンター とやの店", "address": "新潟県新潟市中央区堀之内55-1", "lat": 37.9060272, "lon": 139.0514117, "category": "ショッピングセンター・モール", "category_id": "0200537", "time": ["09:00-22:00"], "star": 3.82, "review": 103}, {"name": "イオン とやの店", "address": "新潟県新潟市中央区堀之内55-1", "lat": 37.9059306, "lon": 139.051469, "category": "スーパー", "category_id": "0200612", "time": ["08:00-22:00"], "star": 0.0, "review": 0}, {"name": "マリモタウン新潟", "address": "新潟県新潟市中央区幸西1丁目1-37", "lat": 37.9123959, "lon": 139.0517169, "category": "ショッピングセンター・モール", "category_id": "0200537", "time": [], "star": 3.76, "review": 19}, {"name": "ココカラファイン 南万代店", "address": "新潟県新潟市中央区幸西1-1-37", "lat": 37.91240427, "lon": 139.05150305, "category": "ドラッグストア", "category_id": "0200699", "time": ["09:00-22:00"], "star": 4.19, "review": 4}, {"name": "ドラッグトップスとやの店", "address": "新潟県新潟市中央区堀之内南1-15-15 ", "lat": 37.90556895, "lon": 139.05271718, "category": "ドラッグストア", "category_id": "0200699", "time": ["09:00-22:00"], "star": 4.14, "review": 109}, {"name": "ウエルシア新潟上所中店", "address": "新潟県新潟市中央区上所中1-11-23", "lat": 37.905972, "lon": 139.034914, "category": "ドラッグストア", "category_id": "0200699", "time": ["09:00-24:00"], "star": 4.08, "review": 27}, {"name": "中村青果", "address": "新潟県新潟市中央区新和1丁目9-21", "lat": 37.90112497, "lon": 139.03889115, "category": "青果店", "category_id": "0202677", "time": [], "star": 3.5, "review": 13}]}, "top_restaurant": {"name": "ヤスラギガーデン", "category": "カフェ・喫茶", "star": 4.75, "review": 2}}, {"name": "上条", "name_en": "Kamijō", "lat": 37.347094, "lon": 139.050894, "osm_id": 263065568, "operator": "", "railway": "station", "wikidata": "Q11359361", "wikipedia_tag": "ja:上条駅 (新潟県)", "lines": ["JR只見線"], "pref": "新潟県", "wikipedia_text": "上条駅（かみじょうえき）\n\n上条駅 (新潟県) - 新潟県魚沼市にあるJR東日本 只見線の駅。\n上条駅 (長野県) - 長野県下高井郡山ノ内町にある長野電鉄長野線の駅。", "nearest_restaurant": {"name": "湖上レストラン", "lat": 37.3562219, "lon": 139.0569746, "address": "", "distance_m": 1149, "cuisine": ""}, "nearby_pois": {"ラーメン": [{"name": "ラーメン焼肉らくらく", "address": "新潟県魚沼市渋川1070-1", "lat": 37.34160114, "lon": 139.0459831, "category": "ラーメン店", "category_id": "0100097", "time": ["11:00-21:00"], "star": 3.71, "review": 14}], "飲食店": [{"name": "大衆食堂仕出し里吉", "address": "新潟県魚沼市渋川1687-1", "lat": 37.34822762, "lon": 139.05056174, "category": "定食屋", "category_id": "0101441", "time": [], "star": 4.0, "review": 1}, {"name": "ラーメン焼肉らくらく", "address": "新潟県魚沼市渋川1070-1", "lat": 37.34160114, "lon": 139.0459831, "category": "ラーメン店", "category_id": "0100097", "time": ["11:00-21:00"], "star": 3.71, "review": 14}], "ATM": [{"name": "ゆうちょ銀行 ATM 上条郵便局", "address": "新潟県魚沼市長鳥乙100-1", "lat": 37.3497036, "lon": 139.049068, "category": "ATM", "category_id": "0402785", "time": [], "star": 0.0, "review": 0}, {"name": "ゆうちょ銀行 上条郵便局", "address": "新潟県魚沼市長鳥乙100-1", "lat": 37.3497036, "lon": 139.049068, "category": "銀行", "category_id": "0402596", "time": [], "star": 0.0, "review": 0}]}, "top_restaurant": {"name": "大衆食堂仕出し里吉", "category": "定食屋", "star": 4.0, "review": 1}}, {"name": "上桑名川", "name_en": "Kami-Kuwanagawa", "lat": 36.9625284, "lon": 138.4413142, "osm_id": 1095694895, "operator": "", "railway": "station", "wikidata": "Q6357167", "wikipedia_tag": "ja:上桑名川駅", "lines": [], "pref": "新潟県", "wikipedia_text": "上桑名川駅（かみくわながわえき）は、長野県飯山市大字照岡にある、東日本旅客鉄道（JR東日本）飯山線の駅である。", "wikipedia_image": "https://upload.wikimedia.org/wikipedia/commons/0/09/JR_Iiyama_Line_Kami-Kuwanagawa_Station_Entrance.jpg", "nearest_convenience": {"name": "ヤマザキショップ", "lat": 36.9437708, "lon": 138.4343055, "address": "", "distance_m": 2177, "brand": "Yamazaki Shop"}, "nearest_restaurant": {"name": "", "lat": 36.9421104, "lon": 138.4298104, "address": "", "distance_m": 2490, "cuisine": ""}, "nearby_pois": {"ラーメン": [{"name": "農家レストラン", "address": "長野県下高井郡野沢温泉村大字虫生2375 道の駅 野沢温泉", "lat": 36.95948818544176, "lon": 138.44814939728124, "category": "定食屋", "category_id": "0101441", "time": ["11:00-17:00"], "star": 4.03, "review": 8}, {"name": "道の駅 野沢温泉", "address": "長野県下高井郡野沢温泉村大字虫生2375", "lat": 36.9594392, "lon": 138.4480554, "category": "道の駅", "category_id": "0302504", "time": ["09:00-17:00"], "star": 4.08, "review": 60}], "飲食店": [{"name": "農家レストラン", "address": "長野県下高井郡野沢温泉村大字虫生2375 道の駅 野沢温泉", "lat": 36.95948818544176, "lon": 138.44814939728124, "category": "定食屋", "category_id": "0101441", "time": ["11:00-17:00"], "star": 4.03, "review": 8}, {"name": "道の駅 野沢温泉", "address": "長野県下高井郡野沢温泉村大字虫生2375", "lat": 36.9594392, "lon": 138.4480554, "category": "道の駅", "category_id": "0302504", "time": ["09:00-17:00"], "star": 4.08, "review": 60}], "ATM": [{"name": "JAバンク ATM ながの農業協同組合(JAながの)道の駅野沢温泉", "address": "長野県下高井郡野沢温泉村大字虫生2375", "lat": 36.960231, "lon": 138.447626, "category": "ATM", "category_id": "0402785", "time": [], "star": 3.0, "review": 1}]}, "top_restaurant": {"name": "道の駅 野沢温泉", "category": "道の駅", "star": 4.08, "review": 60}}, {"name": "上越妙高", "name_en": "Joetsu-Myoko", "lat": 37.0812219, "lon": 138.2486852, "osm_id": 4109702962, "operator": "東日本旅客鉄道;西日本旅客鉄道", "railway": "station", "wikidata": "Q15629351", "wikipedia_tag": "ja:上越妙高駅", "lines": [], "pref": "新潟県", "wikipedia_text": "上越妙高駅（じょうえつみょうこうえき）は、新潟県上越市大和二丁目にある、東日本旅客鉄道（JR東日本）・西日本旅客鉄道（JR西日本）・えちごトキめき鉄道の駅である。", "wikipedia_image": "https://upload.wikimedia.org/wikipedia/commons/9/96/JR%E3%83%BBEchigo_TOKImeki_Railway_Joetsumyoko_Station_West_Exit.jpg", "nearest_convenience": {"name": "セブン-イレブン", "lat": 37.0922602, "lon": 138.233416, "address": "", "distance_m": 1828, "brand": "7-ELEVEN"}, "nearest_restaurant": {"name": "コメダ珈琲店", "lat": 37.081147, "lon": 138.2461374, "address": "", "distance_m": 226, "cuisine": "coffee_shop"}, "nearby_pois": {"コンビニ": [{"name": "NewDays 上越妙高", "address": "新潟県上越市大和5-191-3", "lat": 37.0810757, "lon": 138.2487702, "category": "コンビニ", "category_id": "0200487", "time": ["06:20-21:20"], "star": 3.64, "review": 33}, {"name": "ローソン 上越妙高駅前", "address": "新潟県上越市大和2-3-57", "lat": 37.0831866, "lon": 138.2494367, "category": "コンビニ", "category_id": "0200487", "time": ["00:00-24:00"], "star": 3.91, "review": 55}, {"name": "セブンイレブン 上越大和", "address": "新潟県上越市大和2-17-16", "lat": 37.0873, "lon": 138.2491644, "category": "コンビニ", "category_id": "0200487", "time": ["00:00-24:00"], "star": 3.69, "review": 9}, {"name": "スーパーホテル 上越妙高駅西口", "address": "新潟県上越市大和5-2-11", "lat": 37.081445, "lon": 138.2461732, "category": "ビジネスホテル", "category_id": "0300758", "time": ["00:00-24:00"], "star": 4.23, "review": 30}, {"name": "アパホテル〈上越妙高駅前〉", "address": "新潟県上越市大和2-3-1", "lat": 37.082656, "lon": 138.2480174, "category": "ビジネスホテル", "category_id": "0300758", "time": ["00:00-24:00"], "star": 4.28, "review": 50}, {"name": "東横INN上越妙高駅西口", "address": "新潟県上越市大和5-2-3", "lat": 37.0815561, "lon": 138.2468398, "category": "ビジネスホテル", "category_id": "0300758", "time": ["00:00-24:00"], "star": 3.86, "review": 38}], "ラーメン": [{"name": "レストラン 燈", "address": "新潟県上越市大和2-3-1 アパホテル 上越妙高駅前 1F", "lat": 37.082604836537, "lon": 138.24796059844, "category": "定食屋", "category_id": "0101441", "time": ["06:30-09:30", "17:00-20:30"], "star": 3.78, "review": 9}, {"name": "限界を超えろ 上越", "address": "新潟県上越市大和5-1-5 フルサット", "lat": 37.080484, "lon": 138.24737313, "category": "飲食店", "category_id": "0102732", "time": [], "star": 3.44, "review": 5}, {"name": "越善 本店", "address": "新潟県上越市大和3-3-12", "lat": 37.08866815, "lon": 138.24996067, "category": "蕎麦店", "category_id": "0100034", "time": ["09:00-19:00"], "star": 3.66, "review": 21}], "飲食店": [{"name": "レストラン 燈", "address": "新潟県上越市大和2-3-1 アパホテル 上越妙高駅前 1F", "lat": 37.082604836537, "lon": 138.24796059844, "category": "定食屋", "category_id": "0101441", "time": ["06:30-09:30", "17:00-20:30"], "star": 3.78, "review": 9}, {"name": "むね光", "address": "新潟県上越市大和2-5-18", "lat": 37.083831410737, "lon": 138.25244157025, "category": "割烹・小料理屋", "category_id": "0101190", "time": [], "star": 0.0, "review": 0}, {"name": "限界を超えろ 上越", "address": "新潟県上越市大和5-1-5 フルサット", "lat": 37.080484, "lon": 138.24737313, "category": "飲食店", "category_id": "0102732", "time": [], "star": 3.44, "review": 5}, {"name": "7つのおもてなし", "address": "新潟県上越市大和5丁目192-5", "lat": 37.07940891, "lon": 138.24569381, "category": "カフェ・喫茶", "category_id": "0100344", "time": [], "star": 3.74, "review": 15}, {"name": "フルサットカフェ", "address": "新潟県上越市大和5-1-5 フルサット", "lat": 37.08047234, "lon": 138.24724537, "category": "カフェ・喫茶", "category_id": "0100344", "time": ["13:00-17:00"], "star": 3.33, "review": 4}, {"name": "居酒屋 尊美", "address": "新潟県上越市大和5-26-1 フルサット", "lat": 37.080383741571, "lon": 138.24735521232, "category": "居酒屋", "category_id": "0101495", "time": ["17:30-22:00"], "star": 4.15, "review": 11}, {"name": "雪の香テラス", "address": "新潟県上越市大和5-26-1 フルサット", "lat": 37.080401799139, "lon": 138.24758102607, "category": "カフェ・喫茶", "category_id": "0100344", "time": ["10:00-18:00"], "star": 4.12, "review": 26}, {"name": "コメダ珈琲 上越妙高駅前店", "address": "新潟県上越市大和5-2-8", "lat": 37.0811422, "lon": 138.2461371, "category": "コーヒー店", "category_id": "0100496", "time": ["07:00-23:00"], "star": 4.21, "review": 52}, {"name": "大戸屋 上越妙高駅前", "address": "新潟県上越市大和5-2-7", "lat": 37.08137, "lon": 138.2464898, "category": "定食屋", "category_id": "0101441", "time": ["11:00-15:00", "17:00-21:30"], "star": 3.71, "review": 32}, {"name": "わきのだ亭", "address": "新潟県上越市大和2-1-1 JR上越妙高駅 SAKURAプラザ 2F", "lat": 37.08200245081, "lon": 138.24793678702, "category": "定食屋", "category_id": "0101441", "time": [], "star": 3.47, "review": 10}, {"name": "魚民 上越妙高西口駅前店", "address": "新潟県上越市大和5-2-7エンジョイプラザ 2F", "lat": 37.081403, "lon": 138.246654, "category": "居酒屋", "category_id": "0101495", "time": ["16:00-24:00"], "star": 3.64, "review": 30}, {"name": "駅前洋食 桜花軒", "address": "新潟県上越市大和5-26-1 フルサット内", "lat": 37.08040623735, "lon": 138.24725133103, "category": "洋食店", "category_id": "0100129", "time": ["11:30-15:00", "17:30-21:00"], "star": 4.03, "review": 12},