[{"name": "おもちゃのまち", "name_en": "Omocha-no-Machi", "lat": 36.4662182, "lon": 139.8293442, "osm_id": 8147921977, "operator": "", "railway": "station", "wikidata": "Q7090437", "wikipedia_tag": "ja:おもちゃのまち駅", "lines": [], "pref": "栃木県", "nearby_bus_stops": [{"name": "おもちゃのまち駅", "lat": 36.4663942, "lon": 139.8288876, "distance_m": 45, "operator": "関東自動車"}, {"name": "助谷入口", "lat": 36.4668744, "lon": 139.8271254, "distance_m": 211, "operator": "関東自動車"}, {"name": "あけぼの町", "lat": 36.4659637, "lon": 139.8265707, "distance_m": 250, "operator": "関東自動車"}, {"name": "あけぼの町", "lat": 36.4659853, "lon": 139.8263562, "distance_m": 268, "operator": "関東自動車"}, {"name": "おもちゃのまち交差点北", "lat": 36.4639533, "lon": 139.8261255, "distance_m": 382, "operator": "関東自動車"}], "wikipedia_text": "おもちゃのまち駅（おもちゃのまちえき）は、栃木県下都賀郡壬生町にある、東武鉄道宇都宮線の駅である。駅番号はTN 35。", "wikipedia_image": "https://upload.wikimedia.org/wikipedia/commons/f/f5/Omochanomachi_Station_West_Exit%282021-03-28%29.jpg", "nearest_convenience": {"name": "ローソン 壬生至宝二丁目店", "lat": 36.4568594, "lon": 139.825008, "address": "", "distance_m": 1111, "brand": ""}, "nearest_restaurant": {"name": "割烹いしかわ", "lat": 36.4665013, "lon": 139.8306839, "address": "栃木県下都賀郡壬生町幸町232", "distance_m": 124, "cuisine": ""}, "nearby_pois": {"コンビニ": [{"name": "セブンイレブン 壬生あけぼの町", "address": "栃木県下都賀郡壬生町あけぼの町13-13", "lat": 36.4662455, "lon": 139.8261789, "category": "コンビニ", "category_id": "0200487", "time": ["00:00-24:00"], "star": 4.13, "review": 25}, {"name": "セブンイレブン 壬生おもちゃのまち駅東", "address": "栃木県下都賀郡壬生町安塚764-5", "lat": 36.4698926, "lon": 139.8329892, "category": "コンビニ", "category_id": "0200487", "time": ["00:00-24:00"], "star": 4.53, "review": 22}, {"name": "ファミリーマート 壬生安塚店", "address": "栃木県下都賀郡壬生町安塚774-13", "lat": 36.4721423, "lon": 139.8328752, "category": "コンビニ", "category_id": "0200487", "time": ["00:00-24:00"], "star": 4.42, "review": 11}, {"name": "ローソン 獨協医科大学病院", "address": "栃木県下都賀郡壬生町北小林880", "lat": 36.4723947, "lon": 139.8253315, "category": "コンビニ", "category_id": "0200487", "time": ["08:00-20:00"], "star": 3.82, "review": 30}, {"name": "セブンイレブン 壬生おもちゃのまち", "address": "栃木県下都賀郡壬生町壬生丁228ｰ63", "lat": 36.46220810790783, "lon": 139.838799892374, "category": "コンビニ", "category_id": "0200487", "time": [], "star": 4.21, "review": 14}, {"name": "イオン みぶ店", "address": "栃木県下都賀郡壬生町壬生丁六美219", "lat": 36.4618575, "lon": 139.8364364, "category": "スーパー", "category_id": "0200612", "time": ["07:00-24:00"], "star": 3.72, "review": 64}, {"name": "獨協メディカルサービス正面口売店", "address": "栃木県下都賀郡壬生町北小林880 獨協医科大学病院", "lat": 36.47153814127, "lon": 139.82462883, "category": "", "category_id": "", "time": [], "star": 0.0, "review": 0}], "ラーメン": [{"name": "純米味噌ラーメン みそら堂 おもちゃのまち総本店", "address": "栃木県下都賀郡壬生町幸町4-3-3", "lat": 36.463432248241, "lon": 139.83584193224, "category": "ラーメン店", "category_id": "0100097", "time": ["11:00-15:00", "17:30-23:00"], "star": 4.05, "review": 29}, {"name": "ラーメンかんちゃん", "address": "栃木県下都賀郡壬生町いずみ町9-11", "lat": 36.46195335, "lon": 139.8300495, "category": "ラーメン店", "category_id": "0100097", "time": [], "star": 4.0, "review": 14}, {"name": "壱番亭 壬生店", "address": "栃木県下都賀郡壬生町あけぼの町12-11", "lat": 36.4654992, "lon": 139.82613501, "category": "ラーメン店", "category_id": "0100097", "time": ["11:00-22:00"], "star": 3.74, "review": 23}, {"name": "Oze こども食堂", "address": "栃木県下都賀郡壬生町幸町3-3-8", "lat": 36.462535838241, "lon": 139.83359114223, "category": "レストラン", "category_id": "0100111", "time": [], "star": 3.6, "review": 1}, {"name": "自家製麺オオモリ製作所 壬生店", "address": "栃木県下都賀郡壬生町至宝3-9-5", "lat": 36.46027792824, "lon": 139.82630712221, "category": "ラーメン店", "category_id": "0100097", "time": ["11:30-15:00"], "star": 4.24, "review": 29}, {"name": "永幸", "address": "栃木県下都賀郡壬生町幸町2-5-9", "lat": 36.46622373, "lon": 139.8307765, "category": "中華料理店", "category_id": "0100990", "time": ["11:00-14:00", "17:00-20:30"], "star": 4.03, "review": 33}, {"name": "幸楽苑 壬生店", "address": "栃木県下都賀郡壬生町緑町4-785-2", "lat": 36.47230045, "lon": 139.8288895, "category": "ラーメン店", "category_id": "0100097", "time": ["10:00-22:00"], "star": 3.9, "review": 43}, {"name": "中華料理神田軒", "address": "栃木県下都賀郡壬生町幸町3丁目8-8", "lat": 36.46374966, "lon": 139.83353772, "category": "ラーメン店", "category_id": "0100097", "time": [], "star": 4.0, "review": 2}, {"name": "広州", "address": "栃木県下都賀郡壬生町幸町3-18-15", "lat": 36.46521688, "lon": 139.83037602, "category": "中華料理店", "category_id": "0100990", "time": ["11:30-20:55"], "star": 3.0, "review": 8}, {"name": "大衆炉ばた焼 恵風", "address": "栃木県下都賀郡壬生町緑町1丁目18-1", "lat": 36.46667966, "lon": 139.82707238, "category": "炉端焼き店", "category_id": "0100223", "time": ["17:00-23:00"], "star": 3.0, "review": 1}, {"name": "天守閣", "address": "栃木県下都賀郡壬生町壬生丁228-23", "lat": 36.46222914, "lon": 139.83858291, "category": "中華料理店", "category_id": "0100990", "time": ["11:30-14:30", "17:50-21:30"], "star": 3.68, "review": 19}, {"name": "酒場toやさい おおもり商店", "address": "栃木県下都賀郡壬生町至宝3丁目9-5", "lat": 36.46027285, "lon": 139.82627991, "category": "バル", "category_id": "0100582", "time": ["18:00-23:00"], "star": 3.5, "review": 1}], "飲食店": [{"name": "オトヤ アコースティックライブバー ライブステーション", "address": "栃木県下都賀郡壬生町緑町1-21-3 テットビル 1F", "lat": 36.466136208237, "lon": 139.82824586227, "category": "バー", "category_id": "0100536", "time": ["20:00-24:00"], "star": 0.0, "review": 0}, {"name": "羊舎", "address": "栃木県壬生町緑町2-2-5", "lat": 36.466848638236, "lon": 139.82753419228, "category": "ジンギスカン店", "category_id": "0100548", "time": ["18:00-24:00"], "star": 3.5, "review": 1}, {"name": "えんてんか おもちゃのまち店", "address": "栃木県下都賀郡壬生町緑町3-1-11", "lat": 36.469579888235, "lon": 139.8278496323, "category": "居酒屋", "category_id": "0101495", "time": [], "star": 4.5, "review": 3}, {"name": "喫茶 琥珀", "address": "栃木県下都賀郡壬生町緑町1-13-6", "lat": 36.465969778237, "lon": 139.82809326227, "category": "カフェ・喫茶", "category_id": "0100344", "time": ["09:00-16:00", "18:00-22:00"], "star": 0.0, "review": 0}, {"name": "Oze こども食堂", "address": "栃木県下都賀郡壬生町幸町3-3-8", "lat": 36.462535838241, "lon": 139.83359114223, "category": "レストラン", "category_id": "0100111", "time": [], "star": 3.6, "review": 1}, {"name": "獨協医科大学 学食", "address": "栃木県下都賀郡壬生町北小林880", "lat": 36.472802, "lon": 139.824071, "category": "飲食店", "category_id": "0102732", "time": [], "star": 0.0, "review": 0}, {"name": "キッチン 時屋", "address": "栃木県下都賀郡壬生町緑町2-9-8", "lat": 36.467093528237, "lon": 139.82903951228, "category": "レストラン", "category_id": "0100111", "time": [], "star": 4.25, "review": 7}, {"name": "コーヒー赤い靴", "address": "栃木県下都賀郡壬生町緑町1丁目13-6", "lat": 36.4659345, "lon": 139.82808926, "category": "カフェ・喫茶", "category_id": "0100344", "time": [], "star": 4.5, "review": 0}, {"name": "ともしび", "address": "栃木県下都賀郡壬生町幸町3-24-5", "lat": 36.46482588, "lon": 139.83221392, "category": "カフェ・喫茶", "category_id": "0100344", "time": ["11:30-17:00"], "star": 4.18, "review": 27}, {"name": "GELATO 222", "address": "栃木県 下都賀郡壬生町 幸町2-2-2", "lat": 36.4663329, "lon": 139.8305603, "category": "飲食店", "category_id": "0102732", "time": ["11:00-18:00"], "star": 3.0, "review": 1}, {"name": "ふじた", "address": "栃木県下都賀郡壬生町幸町3-32-4", "lat": 36.46556882, "lon": 139.8311601, "category": "和食店", "category_id": "0100126", "time": ["11:30-14:00", "16:30-21:00"], "star": 4.22, "review": 31}, {"name": "LABO", "address": "栃木県下都賀郡壬生町3-19-5", "lat": 36.465467718238, "lon": 139.83033853226, "category": "居酒屋", "category_id": "0101495", "time": ["17:00-23:30"], "star": 0.0, "review": 0}, {"name": "セジュール", "address": "栃木県下都賀郡壬生町幸町1-14-5", "lat": 36.46415227, "lon": 139.82994138, "category": "フランス料理店", "category_id": "0100264", "time": [], "star": 4.25, "review": 4}, {"name": "歌謡ホールカラオケ おもちゃ", "address": "栃木県下都賀郡壬生町緑町2-5-6", "lat": 36.466761178237, "lon": 139.82807609228, "category": "カフェ・喫茶", "category_id": "0100344", "time": [], "star": 0.0, "review": 0}, {"name": "ドラスルカフェ", "address": "栃木県下都賀郡壬生町あけぼの町5-18", "lat": 36.462846387, "lon": 139.8256260784, "category": "カフェ・喫茶", "category_id": "0100344", "time": ["10:30-16:30"], "star": 3.8, "review": 3}, {"name": "玩具乃風", "address": "栃木県下都賀郡壬生町緑町2丁目3-6", "lat": 36.4671769, "lon": 139.8275302, "category": "バー", "category_id": "0100536", "time": [], "star": 0.0, "review": 1}, {"name": "そばや まつもと", "address": "栃木県下都賀郡壬生町幸町3-21-3", "lat": 36.46532801, "lon": 139.83108039, "category": "蕎麦店", "category_id": "0100034", "time": ["11:30-14:00"], "star": 3.78, "review": 6}, {"name": "ふる里", "address": "栃木県下都賀郡壬生町緑町2-4-6", "lat": 36.46701299, "lon": 139.82806367, "category": "うなぎ料理店", "category_id": "0100035", "time": [], "star": 4.33, "review": 3}, {"name": "居酒屋 ポン吉・ポン子", "address": "栃木県下都賀郡壬生町緑町1-22-1", "lat": 36.466376138237, "lon": 139.82828959227, "category": "居酒屋", "category_id": "0101495", "time": ["18:00-25:00"], "star": 0.0, "review": 0}, {"name": "焼肉志磨屋", "address": "栃木県下都賀郡壬生町緑町2-3-2", "lat": 36.467267, "lon": 139.827366, "category": "焼肉店", "category_id": "0101963", "time": ["17:00-23:00"], "star": 4.39, "review": 12}], "カフェ": [{"name": "ともしび", "address": "栃木県下都賀郡壬生町幸町3-24-5", "lat": 36.46482588, "lon": 139.83221392, "category": "カフェ・喫茶", "category_id": "0100344", "time": ["11:30-17:00"], "star": 4.18, "review": 27}, {"name": "喫茶 琥珀", "address": "栃木県下都賀郡壬生町緑町1-13-6", "lat": 36.465969778237, "lon": 139.82809326227, "category": "カフェ・喫茶", "category_id": "0100344", "time": ["09:00-16:00", "18:00-22:00"], "star": 0.0, "review": 0}, {"name": "コーヒー赤い靴", "address": "栃木県下都賀郡壬生町緑町1丁目13-6", "lat": 36.4659345, "lon": 139.82808926, "category": "カフェ・喫茶", "category_id": "0100344", "time": [], "star": 4.5, "review": 0}, {"name": "ドラスルカフェ", "address": "栃木県下都賀郡壬生町あけぼの町5-18", "lat": 36.462846387, "lon": 139.8256260784, "category": "カフェ・喫茶", "category_id": "0100344", "time": ["10:30-16:30"], "star": 3.8, "review": 3}, {"name": "歌謡ホールカラオケ おもちゃ", "address": "栃木県下都賀郡壬生町緑町2-5-6", "lat": 36.466761178237, "lon": 139.82807609228, "category": "カフェ・喫茶", "category_id": "0100344", "time": [], "star": 0.0, "review": 0}, {"name": "スターバックス コーヒー カインズ壬生店", "address": "栃木県下都賀郡壬生町安塚3376-21", "lat": 36.46222971, "lon": 139.83929452, "category": "コーヒー店", "category_id": "0100496", "time": ["07:00-22:00"], "star": 4.23, "review": 31}, {"name": "アフタヌーンティー", "address": "栃木県下都賀郡壬生町大字壬生丁228-11", "lat": 36.46215969, "lon": 139.83797768, "category": "カフェ・喫茶", "category_id": "0100344", "time": [], "star": 3.7, "review": 2}, {"name": "スターバックス コーヒー 獨協医科大学病院店", "address": "栃木県下都賀郡壬生町北小林880", "lat": 36.472314, "lon": 139.825209, "category": "コーヒー店", "category_id": "0100496", "time": ["08:00-20:00"], "star": 4.23, "review": 40}, {"name": "キャンパス", "address": "栃木県下都賀郡壬生町安塚788", "lat": 36.4737922, "lon": 139.82882196, "category": "カフェ・喫茶", "category_id": "0100344", "time": ["11:00-19:00"], "star": 3.76, "review": 5}, {"name": "タリーズコーヒー獨協医科大学病院店", "address": "栃木県下都賀郡壬生町大字北小林880 獨協医科大学病院アメニティ棟内", "lat": 36.4724444, "lon": 139.824939, "category": "コーヒー店", "category_id": "0100496", "time": ["07:30-20:00"], "star": 4.27, "review": 24}, {"name": "カフェレストラン ベルグ", "address": "栃木県下都賀郡壬生町北小林880 独協医科大学病院 センター棟1階", "lat": 36.471536977538, "lon": 139.82584108076, "category": "定食屋", "category_id": "0101441", "time": ["08:00-18:30"], "star": 3.57, "review": 12}, {"name": "うさ’sキッチン", "address": "栃木県下都賀郡壬生町あけぼの町", "lat": 36.4644093, "lon": 139.8246589, "category": "飲食店", "category_id": "0102732", "time": ["11:00-19:00"], "star": 3.33, "review": 1}, {"name": "びーどろ", "address": "栃木県下都賀郡壬生町若草町3-18", "lat": 36.4634804, "lon": 139.8283381, "category": "カフェ・喫茶", "category_id": "0100344", "time": [], "star": 0.0, "review": 0}, {"name": "カフェ アンズ", "address": "栃木県下都賀郡壬生町壬生丁205-2 結婚式場フォンテーヌブロー 1F", "lat": 36.4617137, "lon": 139.8321496, "category": "カフェ・喫茶", "category_id": "0100344", "time": [], "star": 3.0, "review": 0}, {"name": "RICO", "address": "栃木県下都賀郡壬生町至宝3丁目8-10", "lat": 36.45996041, "lon": 139.8270329, "category": "カフェ・喫茶", "category_id": "0100344", "time": [], "star": 0.0, "review": 0}, {"name": "たけぞう農園直売所", "address": "栃木県下都賀郡壬生町安塚789-60", "lat": 36.474051218232, "lon": 139.82864785235, "category": "フルーツパーラー", "category_id": "0100797", "time": ["10:00-17:00"], "star": 3.88, "review": 1}, {"name": "ドラスルカフェ", "address": "栃木県下都賀郡壬生町あけぼの町5-18 ドラスルカフェ", "lat": 36.46286392211914, "lon": 139.82559204101562, "category": "", "category_id": "", "time": [], "star": 0.0, "review": 0}, {"name": "イル・チェラーゾ", "address": "栃木県下都賀郡壬生町北小林880", "lat": 36.4723613, "lon": 139.8252952, "category": "パスタ料理店", "category_id": "0100575", "time": [], "star": 3.0, "review": 0}], "ドラッグストア": [{"name": "カワチ薬品 おもちゃのまち店", "address": "栃木県下都賀郡壬生町緑町2-15-15", "lat": 36.4688091, "lon": 139.8275648, "category": "ドラッグストア", "category_id": "0200699", "time": ["09:00-20:00"], "star": 4.03, "review": 26}, {"name": "マツモトキヨシ ドラッグストア おもちゃのまち店", "address": "栃木県下都賀郡壬生町あけぼの町1-10", "lat": 36.4625987, "lon": 139.8254124, "category": "ドラッグストア", "category_id": "0200699", "time": ["10:00-23:00"], "star": 3.99, "review": 35}, {"name": "カワチ薬品 おもちゃのまち東店", "address": "栃木県下都賀郡壬生町おもちゃのまち3-1-30", "lat": 36.4627824, "lon": 139.8389584, "category": "ドラッグストア", "category_id": "0200699", "time": ["09:00-21:00"], "star": 4.45, "review": 52}, {"name": "佐藤中薬局", "address": "栃木県下都賀郡 壬生町幸町3丁目33-2", "lat": 36.46584701538086, "lon": 139.83090209960938, "category": "調剤薬局", "category_id": "0202315", "time": ["10:00-19:00"], "star": 0.0, "review": 0}, {"name": "カワチ薬品 おもちゃのまち東調剤", "address": "栃木県下都賀郡壬生町おもちゃのまち3-1-30", "lat": 36.462784, "lon": 139.838961, "category": "調剤薬局", "category_id": "0202315", "time": ["09:30-18:30"], "star": 4.71, "review": 7}, {"name": "セイムス おもちゃのまち薬局", "address": "栃木県下都賀郡壬生町おもちゃのまち1-8-1", "lat": 36.46542921, "lon": 139.83385318, "category": "調剤薬局", "category_id": "0202315", "time": ["09:00-18:00"], "star": 0.0, "review": 0}, {"name": "ピノキオ薬局 あすか薬局", "address": "栃木県下都賀郡壬生町幸町2-11-3", "lat": 36.46700846, "lon": 139.83343816, "category": "調剤薬局", "category_id": "0202315", "time": [], "star": 0.0, "review": 0}, {"name": "カワチ薬品 おもちゃのまち調剤", "address": "栃木県下都賀郡壬生町緑町2-15-15", "lat": 36.4687521, "lon": 139.827626, "category": "調剤薬局", "category_id": "0202315", "time": ["09:30-19:00"], "star": 0.0, "review": 1}, {"name": "コスモス薬局", "address": "栃木県下都賀郡壬生町おもちゃのまち2丁目4-6", "lat": 36.46668472, "lon": 139.83732701, "category": "調剤薬局", "category_id": "0202315", "time": [], "star": 0.0, "review": 1}, {"name": "アイン 獨協医大店", "address": "栃木県下都賀郡壬生町北小林880 アメニティ棟 1F", "lat": 36.4723049, "lon": 139.824949, "category": "調剤薬局", "category_id": "0202315", "time": [], "star": 2.33, "review": 2}, {"name": "ライム薬局", "address": "栃木県下都賀郡壬生町大字壬生丁259-8", "lat": 36.46010881, "lon": 139.82946434, "category": "調剤薬局", "category_id": "0202315", "time": [], "star": 0.0, "review": 0}], "ATM": [{"name": "足利銀行 おもちゃのまち支店", "address": "栃木県下都賀郡壬生町緑町2-8-5", "lat": 36.466865, "lon": 139.8288258, "category": "銀行", "category_id": "0402596", "time": ["09:00-15:00"], "star": 0.0, "review": 2}, {"name": "ゆうちょ銀行 おもちゃのまち郵便局", "address": "栃木県下都賀郡壬生町おもちゃのまち1-9-3", "lat": 36.4656112, "lon": 139.83428, "category": "銀行", "category_id": "0402596", "time": [], "star": 4.5, "review": 2}, {"name": "足利銀行 ATM おもちゃのまち支店", "address": "栃木県下都賀郡壬生町緑町2-8-5", "lat": 36.4668171, "lon": 139.82877, "category": "ATM", "category_id": "0402785", "time": [], "star": 0.0, "review": 0}, {"name": "栃木銀行 ATM ヤオハンおもちゃのまち店", "address": "栃木県下都賀郡壬生町幸町3-5-11", "lat": 36.4628256, "lon": 139.831831, "category": "ATM", "category_id": "0402785", "time": [], "star": 0.0, "review": 0}, {"name": "ゆうちょ銀行 ATM おもちゃのまち郵便局", "address": "栃木県下都賀郡壬生町おもちゃのまち1-9-3", "lat": 36.4656112, "lon": 139.83428, "category": "ATM", "category_id": "0402785", "time": [], "star": 0.0, "review": 0}, {"name": "栃木銀行 ATM コープおもちゃのまち店", "address": "栃木県下都賀郡壬生町至宝3-12-31", "lat": 36.4617366, "lon": 139.826227, "category": "ATM", "category_id": "0402785", "time": [], "star": 0.0, "review": 0}, {"name": "足利銀行 ATM コープおもちゃのまち店", "address": "栃木県下都賀郡壬生町至宝3-12-31", "lat": 36.4616646, "lon": 139.826193, "category": "ATM", "category_id": "0402785", "time": [], "star": 0.0, "review": 0}, {"name": "足利銀行 壬生ブロック個人営業部", "address": "栃木県下都賀郡壬生町緑町2-8-5", "lat": 36.4667901, "lon": 139.828756, "category": "銀行", "category_id": "0402596", "time": ["09:00-15:00"], "star": 0.0, "review": 0}, {"name": "セブン銀行 壬生あけぼの町店", "address": "栃木県下都賀郡壬生町あけぼの町13-13", "lat": 36.4662647, "lon": 139.826118, "category": "ATM", "category_id": "0402785", "time": ["00:00-24:00"], "star": 0.0, "review": 0}, {"name": "栃木銀行 ATM 獨協医科大学病院", "address": "栃木県下都賀郡壬生町北小林880", "lat": 36.4722059, "lon": 139.825543, "category": "ATM", "category_id": "0402785", "time": [], "star": 0.0, "review": 0}, {"name": "銀行ATM イーネット （銀行ＬＰ）コープおもちゃのまち店 共同出張所", "address": "栃木県下都賀郡壬生町至宝3-12-31 ", "lat": 36.46193211, "lon": 139.82619847, "category": "ATM", "category_id": "0402785", "time": ["09:30-21:00"], "star": 0.0, "review": 0}, {"name": "イオン銀行 ATM イオンみぶ店出張所(メイン出入口)", "address": "栃木県下都賀郡壬生町壬生丁六美219", "lat": 36.4617917, "lon": 139.836616, "category": "ATM", "category_id": "0402785", "time": ["00:00-24:00"], "star": 0.0, "review": 0}, {"name": "足利銀行 ATM 獨協医大出張所", "address": "栃木県下都賀郡壬生町北小林880", "lat": 36.4719572, "lon": 139.825195, "category": "ATM", "category_id": "0402785", "time": [], "star": 0.0, "review": 0}, {"name": "足利銀行 獨協医大出張所", "address": "栃木県下都賀郡壬生町北小林880", "lat": 36.4723725, "lon": 139.8250315, "category": "銀行", "category_id": "0402596", "time": [], "star": 0.0, "review": 0}, {"name": "セブン銀行 壬生おもちゃのまち駅東店", "address": "栃木県下都賀郡壬生町安塚764-5", "lat": 36.4698534, "lon": 139.833077, "category": "ATM", "category_id": "0402785", "time": ["00:00-24:00"], "star": 0.0, "review": 0}, {"name": "みずほ銀行 ATM イオンみぶ店出張所", "address": "栃木県下都賀郡壬生町壬生丁六美219", "lat": 36.4617827, "lon": 139.836636, "category": "ATM", "category_id": "0402785", "time": [], "star": 0.0, "review": 0}, {"name": "ゆうちょ銀行 ATM 獨協医科大学内出張所", "address": "栃木県下都賀郡壬生町北小林880", "lat": 36.4729613, "lon": 139.82319, "category": "ATM", "category_id": "0402785", "time": [], "star": 0.0, "review": 0}, {"name": "栃木信用金庫 おもちゃのまち支店", "address": "栃木県下都賀郡壬生町若草町1-31", "lat": 36.4627154, "lon": 139.8260318, "category": "信用金庫", "category_id": "0401098", "time": ["09:00-15:00"], "star": 0.0, "review": 0}, {"name": "銀行ATM イーネット ファミリーマート壬生安塚 共同出張所", "address": "栃木県下都賀郡壬生町大字安塚774-13 ", "lat": 36.47217005, "lon": 139.83286969, "category": "ATM", "category_id": "0402785", "time": ["00:00-24:00"], "star": 0.0, "review": 0}, {"name": "ローソン銀行 ヤオハン おもちゃのまち店共同出張所", "address": "栃木県下都賀郡壬生町幸町3-5-11", "lat": 36.4628009, "lon": 139.831726, "category": "ATM", "category_id": "0402785", "time": ["08:00-21:00"], "star": 0.0, "review": 0}], "スーパーマーケット": [{"name": "ヤオハン おもちゃのまち店", "address": "栃木県下都賀郡壬生町幸町3-5-11", "lat": 36.4628294, "lon": 139.831834, "category": "スーパー", "category_id": "0200612", "time": ["08:00-21:00"], "star": 3.85, "review": 26}, {"name": "とちぎコープ コープおもちゃのまち店", "address": "栃木県下都賀郡壬生町至宝3-12-31", "lat": 36.4617794, "lon": 139.8261401, "category": "スーパー", "category_id": "0200612", "time": ["09:30-21:00"], "star": 3.76, "review": 39}, {"name": "イオン みぶ店", "address": "栃木県下都賀郡壬生町壬生丁六美219", "lat": 36.4618575, "lon": 139.8364364, "category": "スーパー", "category_id": "0200612", "time": ["07:00-24:00"], "star": 3.72, "review": 64}, {"name": "カワチ薬品 おもちゃのまち東店", "address": "栃木県下都賀郡壬生町おもちゃのまち3-1-30", "lat": 36.4627824, "lon": 139.8389584, "category": "ドラッグストア", "category_id": "0200699", "time": ["09:00-21:00"], "star": 4.45, "review": 52}, {"name": "マツモトキヨシ ドラッグストア おもちゃのまち店", "address": "栃木県下都賀郡壬生町あけぼの町1-10", "lat": 36.4625987, "lon": 139.8254124, "category": "ドラッグストア", "category_id": "0200699", "time": ["10:00-23:00"], "star": 3.99, "review": 35}, {"name": "カワチ薬品 おもちゃのまち東調剤", "address": "栃木県下都賀郡壬生町おもちゃのまち3-1-30", "lat": 36.462784, "lon": 139.838961, "category": "調剤薬局", "category_id": "0202315", "time": ["09:30-18:30"], "star": 4.71, "review": 7}, {"name": "ワッツウィズ みぶイオン店", "address": "栃木県下都賀郡壬生町壬生丁字六美219 イオンみぶ店内", "lat": 36.46223767271112, "lon": 139.83634882009386, "category": "100円ショップ", "category_id": "0200001", "time": ["07:00-24:00"], "star": 3.84, "review": 15}]}, "top_restaurant": {"name": "えんてんか おもちゃのまち店", "category": "居酒屋", "star": 4.5, "review": 3}}, {"name": "かしの森公園前", "name_en": "Kashinomori Park", "lat": 36.5723821, "lon": 140.0145609, "osm_id": 11133459108, "operator": "宇都宮ライトレール", "railway": "tram_stop", "wikidata": "Q109600768", "wikipedia_tag": "ja:かしの森公園前停留場", "lines": [], "pref": "栃木県", "nearest_convenience": {"name": "セブン-イレブン", "lat": 36.5579695, "lon": 140.0262996, "address": "", "distance_m": 1915, "brand": "7-ELEVEN"}, "nearest_restaurant": {"name": "ひなた", "lat": 36.5609629, "lon": 140.0153922, "address": "", "distance_m": 1272, "cuisine": "japanese"}, "nearby_pois": {"飲食店": [{"name": "スターバックスコーヒー 本田技研四輪R&Dセンター店", "address": "栃木県芳賀郡芳賀町下高根沢4630", "lat": 36.5745505, "lon": 140.0157299, "category": "カフェ・喫茶", "category_id": "0100344", "time": [], "star": 4.0, "review": 2}], "カフェ": [{"name": "スターバックスコーヒー 本田技研四輪R&Dセンター店", "address": "栃木県芳賀郡芳賀町下高根沢4630", "lat": 36.5745505, "lon": 140.0157299, "category": "カフェ・喫茶", "category_id": "0100344", "time": [], "star": 4.0, "review": 2}], "ATM": [{"name": "宝くじ ATM 足利銀行本田技術研究所栃木研究所第2", "address": "栃木県芳賀郡芳賀町大字下高根沢4630", "lat": 36.5745392, "lon": 140.015587, "category": "宝くじ売り場", "category_id": "0401442", "time": ["09:00-18:00"], "star": 0.0, "review": 0}]}, "top_restaurant": {"name": "スターバックスコーヒー 本田技研四輪R&Dセンター店", "category": "カフェ・喫茶", "star": 4.0, "review": 2}}, {"name": "かしの森公園前", "name_en": "Kashinomori Park", "lat": 36.5723918, "lon": 140.0146291, "osm_id": 11133459109, "operator": "宇都宮ライトレール", "railway": "tram_stop", "wikidata": "Q109600768", "wikipedia_tag": "ja:かしの森公園前停留場", "lines": [], "pref": "栃木県", "nearest_convenience": {"name": "セブン-イレブン", "lat": 36.5579695, "lon": 140.0262996, "address": "", "distance_m": 1913, "brand": "7-ELEVEN"}, "nearest_restaurant": {"name": "ひなた", "lat": 36.5609629, "lon": 140.0153922, "address": "", "distance_m": 1273, "cuisine": "japanese"}, "nearby_pois": {"飲食店": [{"name": "スターバックスコーヒー 本田技研四輪R&Dセンター店", "address": "栃木県芳賀郡芳賀町下高根沢4630", "lat": 36.5745505, "lon": 140.0157299, "category": "カフェ・喫茶", "category_id": "0100344", "time": [], "star": 4.0, "review": 2}], "カフェ": [{"name": "スターバックスコーヒー 本田技研四輪R&Dセンター店", "address": "栃木県芳賀郡芳賀町下高根沢4630", "lat": 36.5745505, "lon": 140.0157299, "category": "カフェ・喫茶", "category_id": "0100344", "time": [], "star": 4.0, "review": 2}], "ATM": [{"name": "宝くじ ATM 足利銀行本田技術研究所栃木研究所第2", "address": "栃木県芳賀郡芳賀町大字下高根沢4630", "lat": 36.5745392, "lon": 140.015587, "category": "宝くじ売り場", "category_id": "0401442", "time": ["09:00-18:00"], "star": 0.0, "review": 0}]}, "top_restaurant": {"name": "スターバックスコーヒー 本田技研四輪R&Dセンター店", "category": "カフェ・喫茶", "star": 4.0, "review": 2}}, {"name": "ゆいの杜中央", "name_en": "Yuinomori-central", "lat": 36.5677248, "lon": 139.9929737, "osm_id": 11133420830, "operator": "宇都宮ライトレール", "railway": "tram_stop", "wikidata": "Q109600759", "wikipedia_tag": "ja:ゆいの杜中央停留場", "lines": [], "pref": "栃木県", "nearby_bus_stops": [{"name": "ヤマダ電機前", "lat": 36.5678435, "lon": 139.9930246, "distance_m": 14, "operator": "宇都宮市地域内交通"}, {"name": "たいらや前", "lat": 36.5678956, "lon": 139.990507, "distance_m": 221, "operator": "宇都宮市地域内交通"}, {"name": "なまい接骨院", "lat": 36.5661245, "lon": 139.9951342, "distance_m": 262, "operator": "宇都宮市地域内交通"}, {"name": "ゆいの杜小学校南", "lat": 36.5701552, "lon": 139.9927001, "distance_m": 271, "operator": "JRバス関東"}, {"name": "清原台整形外科", "lat": 36.5642588, "lon": 139.9922668, "distance_m": 391, "operator": "宇都宮市地域内交通"}], "nearest_convenience": {"name": "セブン-イレブン", "lat": 36.5750747, "lon": 139.9931485, "address": "", "distance_m": 817, "brand": "セブン-イレブン"}, "nearest_restaurant": {"name": "ジョイフル", "lat": 36.5679912, "lon": 139.9922548, "address": "", "distance_m": 71, "cuisine": ""}, "nearby_pois": {"コンビニ": [{"name": "セブンイレブン 宇都宮刈沼", "address": "栃木県宇都宮市ゆいの杜3-1-35", "lat": 36.5704056, "lon": 139.9874103, "category": "コンビニ", "category_id": "0200487", "time": ["00:00-24:00"], "star": 4.41, "review": 25}, {"name": "ファミリーマート 清原テクノ店", "address": "栃木県宇都宮市ゆいの杜4-1-47", "lat": 36.5679253, "lon": 139.9875965, "category": "コンビニ", "category_id": "0200487", "time": ["00:00-24:00"], "star": 3.82, "review": 25}, {"name": "セブン-イレブン 宇都宮ゆいの杜５丁目店", "address": "栃木県宇都宮市ゆいの杜5-14-3", "lat": 36.5673889, "lon": 139.9953669, "category": "ガソリンスタンド", "category_id": "0400414", "time": ["00:00-24:00"], "star": 4.4, "review": 2}, {"name": "セブンイレブン 宇都宮テクノポリス", "address": "栃木県宇都宮市ゆいの杜8-1-53", "lat": 36.5676812, "lon": 140.0017616, "category": "コンビニ", "category_id": "0200487", "time": ["00:00-24:00"], "star": 3.9, "review": 18}, {"name": "ローソン 宇都宮テクノポリスセンター", "address": "栃木県宇都宮市ゆいの杜7-8-4", "lat": 36.5740663, "lon": 139.9907236, "category": "コンビニ", "category_id": "0200487", "time": ["00:00-24:00"], "star": 4.13, "review": 41}, {"name": "セブンイレブン 宇都宮ゆいの杜北", "address": "栃木県宇都宮市ゆいの杜7-9-2", "lat": 36.5748968, "lon": 139.9929623, "category": "コンビニ", "category_id": "0200487", "time": ["00:00-24:00"], "star": 4.05, "review": 33}, {"name": "ファミリーマート レイト宇都宮テクノ/S店", "address": "栃木県宇都宮市ゆいの杜1-2-46", "lat": 36.5678599, "lon": 139.985824, "category": "コンビニ", "category_id": "0200487", "time": ["09:00-22:45"], "star": 0.0, "review": 0}, {"name": "エコス たいらやゆいの杜店", "address": "栃木県宇都宮市ゆいの杜4-12-2", "lat": 36.5680865, "lon": 139.9906267, "category": "スーパー", "category_id": "0200612", "time": ["09:00-23:00"], "star": 3.91, "review": 62}, {"name": "カスミ テクノポリス清原店", "address": "栃木県宇都宮市ゆいの杜5-26-29", "lat": 36.566898, "lon": 140.0018616, "category": "スーパー", "category_id": "0200612", "time": ["09:00-24:00"], "star": 3.28, "review": 147}, {"name": "かましん ゆいの杜店", "address": "栃木県宇都宮市ゆいの杜1-2-21", "lat": 36.569239, "lon": 139.9856744, "category": "スーパー", "category_id": "0200612", "time": ["09:30-22:00"], "star": 4.06, "review": 148}], "ラーメン": [{"name": "麺屋虎龍", "address": "栃木県宇都宮市ゆいの杜6-17-1", "lat": 36.568171668225, "lon": 139.99464489318, "category": "ラーメン店", "category_id": "0100097", "time": ["07:00-15:00", "17:30-22:00"], "star": 3.98, "review": 38}, {"name": "ラーメン山岡家 テクノポリスセンター店", "address": "栃木県宇都宮市ゆいの杜5丁目10-8", "lat": 36.56748939, "lon": 139.99329865, "category": "ラーメン店", "category_id": "0100097", "time": ["00:00-24:00"], "star": 4.11, "review": 61}, {"name": "ラーメン☆ビリー 宇都宮店", "address": "栃木県宇都宮市ゆいの杜4丁目1-59", "lat": 36.56808918, "lon": 139.98733537, "category": "飲食店", "category_id": "0102732", "time": ["11:00-22:00"], "star": 4.2, "review": 6}, {"name": "中華蕎麦しのざき", "address": "栃木県宇都宮市清原台3-18-2", "lat": 36.56009803, "lon": 139.99234354, "category": "ラーメン店", "category_id": "0100097", "time": ["11:00-14:15", "18:00-21:00"], "star": 4.21, "review": 54}, {"name": "正宗", "address": "栃木県宇都宮市ゆいの杜3-3-40", "lat": 36.57228395, "lon": 139.98768708, "category": "ラーメン店", "category_id": "0100097", "time": ["10:45-22:30"], "star": 4.04, "review": 66}, {"name": "満天家 ゆいの杜店", "address": "栃木県宇都宮市ゆいの杜6-17-26", "lat": 36.56780551, "lon": 139.99537703, "category": "ラーメン店", "category_id": "0100097", "time": ["11:00-22:30"], "star": 3.59, "review": 43}, {"name": "幸楽苑 宇都宮テクノポリス店", "address": "栃木県宇都宮市ゆいの杜5-26-20", "lat": 36.56734513, "lon": 140.00049789, "category": "ラーメン店", "category_id": "0100097", "time": ["08:00-22:00"], "star": 3.96, "review": 32}], "飲食店": [{"name": "ジョイフル 宇都宮テクノポリス店", "address": "栃木県宇都宮市ゆいの杜4-14-13", "lat": 36.567956, "lon": 139.9922043, "category": "ファミリーレストラン", "category_id": "0100788", "time": ["00:00-24:00"], "star": 3.71, "review": 35}, {"name": "ラーメン☆ビリー 宇都宮店", "address": "栃木県宇都宮市ゆいの杜4丁目1-59", "lat": 36.56808918, "lon": 139.98733537, "category": "飲食店", "category_id": "0102732", "time": ["11:00-22:00"], "star": 4.2, "review": 6}, {"name": "居酒屋 こふで", "address": "栃木県宇都宮市ゆいの杜5-12-38", "lat": 36.56631953, "lon": 139.99313011, "category": "居酒屋", "category_id": "0101495", "time": ["17:00-23:00"], "star": 4.03, "review": 9}, {"name": "Mori no Cafe", "address": "栃木県宇都宮市ゆいの杜5-15-2 ヤクルトサービスセンター ゆいの杜 2F", "lat": 36.567417500076, "lon": 139.99679242853, "category": "カフェ・喫茶", "category_id": "0100344", "time": ["10:30-19:00"], "star": 3.68, "review": 9}, {"name": "旬菜ダイニング 櫻月堂", "address": "栃木県宇都宮市野高谷町592-1", "lat": 36.56992312, "lon": 139.98725279, "category": "レストラン", "category_id": "0100111", "time": ["11:30-14:30", "17:30-21:30"], "star": 3.7, "review": 5}, {"name": "カフェ イヴァーノ", "address": "栃木県宇都宮市ゆいの杜6-7-10 テクノポリス宇都宮", "lat": 36.5712495, "lon": 139.99387398, "category": "カフェ・喫茶", "category_id": "0100344", "time": ["11:30-14:30", "17:30-21:15"], "star": 4.09, "review": 27}, {"name": "やよい軒 宇都宮テクノポリス店", "address": "栃木県宇都宮市ゆいの杜6-1-25", "lat": 36.567881, "lon": 139.9942513, "category": "定食屋", "category_id": "0101441", "time": ["10:00-24:00"], "star": 3.92, "review": 36}, {"name": "スターバックス コーヒー 宇都宮ゆいの杜店", "address": "栃木県宇都宮市ゆいの杜4-12-17", "lat": 36.568056, "lon": 139.991936, "category": "コーヒー店", "category_id": "0100496", "time": ["07:00-23:00"], "star": 4.34, "review": 99}, {"name": "御食事処 竹亭", "address": "栃木県宇都宮市野高谷町314-1", "lat": 36.56588429, "lon": 139.99251936, "category": "定食屋", "category_id": "0101441", "time": [], "star": 2.87, "review": 8}, {"name": "Filo", "address": "栃木県宇都宮市ゆいの杜5-1-23", "lat": 36.5667221, "lon": 139.98681827, "category": "カフェ・喫茶", "category_id": "0100344", "time": ["11:30-21:00"], "star": 3.81, "review": 8}, {"name": "ラーメン山岡家 テクノポリスセンター店", "address": "栃木県宇都宮市ゆいの杜5丁目10-8", "lat": 36.56748939, "lon": 139.99329865, "category": "ラーメン店", "category_id": "0100097", "time": ["00:00-24:00"], "star": 4.11, "review": 61}, {"name": "暖龍 テクノポリス店", "address": "栃木県宇都宮市野高谷765-1", "lat": 36.56760626, "lon": 139.99076392, "category": "中華料理店", "category_id": "0100990", "time": ["11:00-22:00"], "star": 3.78, "review": 34}, {"name": "さかい珈琲 宇都宮ゆいの杜店", "address": "栃木県宇都宮市野高谷町429-5", "lat": 36.56725305, "lon": 139.9826609, "category": "カフェ・喫茶", "category_id": "0100344", "time": ["09:00-21:00"], "star": 4.09, "review": 46}, {"name": "すき家 宇都宮ゆいの杜店", "address": "栃木県宇都宮市ゆいの杜5-8-9", "lat": 36.5675421, "lon": 139.9913572, "category": "牛丼店", "category_id": "0101974", "time": ["04:00-27:00"], "star": 4.2, "review": 25}, {"name": "肉と秘伝のたれ ゆいの杜", "address": "栃木県宇都宮市ゆいの杜7-1-22", "lat": 36.571609, "lon": 139.993746, "category": "ステーキ店", "category_id": "0100570", "time": ["10:00-14:30", "16:00-21:00"], "star": 3.2, "review": 4}, {"name": "魚べい　ゆいの杜店", "address": "栃木県宇都宮市ゆいの杜6-17-31", "lat": 36.56785328, "lon": 139.99491791, "category": "回転寿司店", "category_id": "0101332", "time": ["11:00-22:30"], "star": 4.1, "review": 77}, {"name": "しゃぶ葉 宇都宮ゆいの杜店", "address": "栃木県宇都宮市ゆいの杜6丁目17-23 ", "lat": 36.56782, "lon": 139.9958, "category": "しゃぶしゃぶ店", "category_id": "0100095", "time": ["11:00-23:30"], "star": 4.09, "review": 25}, {"name": "とんかつ みくりや", "address": "栃木県宇都宮市ゆいの杜4-1-59", "lat": 36.568066, "lon": 139.987287, "category": "とんかつ店", "category_id": "0100159", "time": ["11:30-14:30", "17:00-20:30"], "star": 3.72, "review": 7}, {"name": "麺屋虎龍", "address": "栃木県宇都宮市ゆいの杜6-17-1", "lat": 36.568171668225, "lon": 139.99464489318, "category": "ラーメン店", "category_id": "0100097", "time": ["07:00-15:00", "17:30-22:00"], "star": 3.98, "review": 38}, {"name": "満天家 ゆいの杜店", "address": "栃木県宇都宮市ゆいの杜6-17-26", "lat": 36.56780551, "lon": 139.99537703, "category": "ラーメン店", "category_id": "0100097", "time": ["11:00-22:30"], "star": 3.59, "review": 43}], "カフェ": [{"name": "カフェ イヴァーノ", "address": "栃木県宇都宮市ゆいの杜6-7-10 テクノポリス宇都宮", "lat": 36.5712495, "lon": 139.99387398, "category": "カフェ・喫茶", "category_id": "0100344", "time": ["11:30-14:30", "17:30-21:15"], "star": 4.09, "review": 27}, {"name": "Mori no Cafe", "address": "栃木県宇都宮市ゆいの杜5-15-2 ヤクルトサービスセンター ゆいの杜 2F", "lat": 36.567417500076, "lon": 139.99679242853, "category": "カフェ・喫茶", "category_id": "0100344", "time": ["10:30-19:00"], "star": 3.68, "review": 9}, {"name": "スターバックス コーヒー 宇都宮ゆいの杜店", "address": "栃木県宇都宮市ゆいの杜4-12-17", "lat": 36.568056, "lon": 139.991936, "category": "コーヒー店", "category_id": "0100496", "time": ["07:00-23:00"], "star": 4.34, "review": 99}, {"name": "さかい珈琲 宇都宮ゆいの杜店", "address": "栃木県宇都宮市野高谷町429-5", "lat": 36.56725305, "lon": 139.9826609, "category": "カフェ・喫茶", "category_id": "0100344", "time": ["09:00-21:00"], "star": 4.09, "review": 46}, {"name": "Filo", "address": "栃木県宇都宮市ゆいの杜5-1-23", "lat": 36.5667221, "lon": 139.98681827, "category": "カフェ・喫茶", "category_id": "0100344", "time": ["11:30-21:00"], "star": 3.81, "review": 8}, {"name": "ゆいのもりDOG CAFE", "address": "栃木県宇都宮市野高谷町1165-1", "lat": 36.56360988823, "lon": 140.00073258313, "category": "カフェ・喫茶", "category_id": "0100344", "time": ["09:00-20:00"], "star": 0.0, "review": 0}, {"name": "カフェ・パルチーノ", "address": "栃木県宇都宮市清原台3丁目9-33", "lat": 36.561461, "lon": 139.992833, "category": "カフェ・喫茶", "category_id": "0100344", "time": [], "star": 0.0, "review": 0}, {"name": "ジョイフル 宇都宮テクノポリス店", "address": "栃木県宇都宮市ゆいの杜4-14-13", "lat": 36.567956, "lon": 139.9922043, "category": "ファミリーレストラン", "category_id": "0100788", "time": ["00:00-24:00"], "star": 3.71, "review": 35}], "ドラッグストア": [{"name": "コスモス ゆいの杜店", "address": "栃木県宇都宮市ゆいの杜7-13-33", "lat": 36.572775, "lon": 139.9986812, "category": "ドラッグストア", "category_id": "0200699", "time": ["10:00-21:00"], "star": 4.44, "review": 71}, {"name": "マツモトキヨシ ドラッグストア 宇都宮テクノポリス店", "address": "栃木県宇都宮市ゆいの杜4-2-32", "lat": 36.5689891, "lon": 139.9872881, "category": "ドラッグストア", "category_id": "0200699", "time": ["10:00-22:00"], "star": 3.94, "review": 40}, {"name": "カワチ薬品 ゆいの杜店", "address": "栃木県宇都宮市ゆいの杜6-8-4", "lat": 36.5713278, "lon": 139.9942512, "category": "ドラッグストア", "category_id": "0200699", "time": ["09:00-21:00"], "star": 4.04, "review": 56}, {"name": "ツルハドラッグ 宇都宮ゆいの杜店", "address": "栃木県宇都宮市ゆいの杜7丁目1番28号", "lat": 36.57161388, "lon": 139.99320959, "category": "ドラッグストア", "category_id": "0200699", "time": ["09:00-23:00"], "star": 4.12, "review": 36}, {"name": "ウエルシア宇都宮清原台店", "address": "栃木県宇都宮市清原台1-14-1", "lat": 36.564631, "lon": 139.986125, "category": "ドラッグストア", "category_id": "0200699", "time": ["08:00-24:00"], "star": 4.22, "review": 22}, {"name": "ウエルシア宇都宮テクノポリス店", "address": "栃木県宇都宮市野高谷町5-26-29", "lat": 36.566661, "lon": 140.001387, "category": "ドラッグストア", "category_id": "0200699", "time": ["09:00-24:00"], "star": 4.3, "review": 15}, {"name": "ピノキオ薬局 ゆいの杜店", "address": "栃木県宇都宮市ゆいの杜6-2-30", "lat": 36.56922417, "lon": 139.99309859, "category": "調剤薬局", "category_id": "0202315", "time": ["09:00-18:00"], "star": 0.0, "review": 1}, {"name": "ウエルシア宇都宮テクノポリス店 (調剤薬局)", "address": "栃木県宇都宮市ゆいの杜5-26-29ウエルシア宇都宮テクノポリス店内", "lat": 36.566661, "lon": 140.001387, "category": "調剤薬局", "category_id": "0202315", "time": ["09:00-20:00"], "star": 0.0, "review": 1}, {"name": "とちぎ薬局清原台店", "address": "栃木県宇都宮市清原台1丁目9", "lat": 36.56624992, "lon": 139.98616198, "category": "調剤薬局", "category_id": "0202315", "time": ["09:00-18:30"], "star": 0.0, "review": 0}, {"name": "あまいろ薬局", "address": "栃木県宇都宮市ゆいの杜7丁目9-2", "lat": 36.57483708, "lon": 139.99271783, "category": "調剤薬局", "category_id": "0202315", "time": [], "star": 0.0, "review": 0}, {"name": "ウエルシア宇都宮清原台店 (調剤薬局)", "address": "栃木県宇都宮市清原台1-14-1ウエルシア宇都宮清原台店内", "lat": 36.564631, "lon": 139.986125, "category": "調剤薬局", "category_id": "0202315", "time": ["10:00-14:00", "15:00-18:30"], "star": 0.0, "review": 0}, {"name": "カスミ テクノポリス清原店", "address": "栃木県宇都宮市ゆいの杜5-26-29", "lat": 36.566898, "lon": 140.0018616, "category": "スーパー", "category_id": "0200612", "time": ["09:00-24:00"], "star": 3.28, "review": 147}, {"name": "とちの木薬局清原台店", "address": "栃木県宇都宮市清原台3丁目3-7", "lat": 36.56018351, "lon": 139.98995742, "category": "調剤薬局", "category_id": "0202315", "time": [], "star": 0.0, "review": 0}], "ATM": [{"name": "栃木銀行 テクノポリス支店", "address": "栃木県宇都宮市ゆいの杜3-2-20", "lat": 36.5707527, "lon": 139.9873686, "category": "銀行", "category_id": "0402596", "time": ["09:00-11:30", "12:30-15:00"], "star": 4.5, "review": 1}, {"name": "セブン銀行 宇都宮ゆいの杜5丁目店", "address": "栃木県宇都宮市ゆいの杜5-14-3", "lat": 36.5673875, "lon": 139.995007, "category": "ATM", "category_id": "0402785", "time": ["00:00-24:00"], "star": 0.0, "review": 0}, {"name": "栃木銀行 ATM テクノポリス支店", "address": "栃木県宇都宮市ゆいの杜3-2-20", "lat": 36.5707761, "lon": 139.987365, "category": "ATM", "category_id": "0402785", "time": [], "star": 0.0, "review": 0}, {"name": "ゆうちょ銀行 ATM ゆいの杜郵便局", "address": "栃木県宇都宮市ゆいの杜5-15-5", "lat": 36.5672807, "lon": 139.996326, "category": "ATM", "category_id": "0402785", "time": [], "star": 0.0, "review": 0}, {"name": "足利銀行 ATM かましんゆいの杜店", "address": "栃木県宇都宮市ゆいの杜1-2-21 1F 入口", "lat": 36.569506, "lon": 139.985998, "category": "ATM", "category_id": "0402785", "time": [], "star": 0.0, "review": 0}, {"name": "ゆうちょ銀行 ゆいの杜郵便局", "address": "栃木県宇都宮市ゆいの杜5-15-5", "lat": 36.5673189, "lon": 139.996278, "category": "銀行", "category_id": "0402596", "time": [], "star": 0.0, "review": 0}, {"name": "ゆうちょ銀行 ATM ファミリーマート清原テクノ店内出張所", "address": "栃木県宇都宮市ゆいの杜4-1-47", "lat": 36.5679196, "lon": 139.987713, "category": "ATM", "category_id": "0402785", "time": [], "star": 0.0, "review": 0}, {"name": "イオン銀行 ATM テクノポリス清原店出張所(店内)", "address": "栃木県宇都宮市ゆいの杜5-26-29", "lat": 36.5669005, "lon": 140.001837, "category": "ATM", "category_id": "0402785", "time": ["09:00-24:00"], "star": 0.0, "review": 0}, {"name": "栃木銀行 ATM かましん ゆいの杜店", "address": "栃木県宇都宮市ゆいの杜1-2-21", "lat": 36.5693181, "lon": 139.986029, "category": "ATM", "category_id": "0402785", "time": [], "star": 0.0, "review": 0}, {"name": "みずほ銀行 ATM テクノポリス清原店出張所", "address": "栃木県宇都宮市ゆいの杜5-26-29", "lat": 36.5668903, "lon": 140.001858, "category": "ATM", "category_id": "0402785", "time": [], "star": 0.0, "review": 0}, {"name": "銀行ATM イーネット ファミリーマートレイト宇都宮テクノ共同出張所", "address": "栃木県宇都宮市ゆいの杜1-2-46 ", "lat": 36.56779196, "lon": 139.98590499, "category": "ATM", "category_id": "0402785", "time": ["09:00-22:45"], "star": 0.0, "review": 0}, {"name": "セブン銀行 宇都宮刈沼店", "address": "栃木県宇都宮市ゆいの杜3-1-35", "lat": 36.5703857, "lon": 139.98748, "category": "ATM", "category_id": "0402785", "time": ["00:00-24:00"], "star": 0.0, "review": 0}, {"name": "セブン銀行 宇都宮テクノポリス店", "address": "栃木県宇都宮市ゆいの杜8-1-53", "lat": 36.5677475, "lon": 140.001793, "category": "ATM", "category_id": "0402785", "time": ["00:00-24:00"], "star": 0.0, "review": 0}, {"name": "セブン銀行 宇都宮ゆいの杜北店", "address": "栃木県宇都宮市ゆいの杜7-9-2", "lat": 36.5748788, "lon": 139.992973, "category": "ATM", "category_id": "0402785", "time": ["00:00-24:00"], "star": 0.0, "review": 0}, {"name": "ローソン銀行 宇都宮テクノポリスセンター共同出張所", "address": "栃木県宇都宮市ゆいの杜7-8-4", "lat": 36.5740566, "lon": 139.990755, "category": "ATM", "category_id": "0402785", "time": ["00:00-24:00"], "star": 0.0, "review": 0}, {"name": "宝くじ ATM 足利銀行かましんゆいの杜店", "address": "栃木県宇都宮市ゆいの杜1-2-21", "lat": 36.5694643, "lon": 139.986006, "category": "宝くじ売り場", "category_id": "0401442", "time": ["09:30-21:00"], "star": 0.0, "review": 0}], "スーパーマーケット": [{"name": "業務スーパー ゆいの杜店", "address": "栃木県宇都宮市ゆいの杜5-10-5", "lat": 36.5674394, "lon": 139.9928043, "category": "スーパー", "category_id": "0200612", "time": ["09:00-20:00"], "star": 3.0, "review": 1}, {"name": "エコス たいらやゆいの杜店", "address": "栃木県宇都宮市ゆいの杜4-12-2", "lat": 36.5680865, "lon": 139.9906267, "category": "スーパー", "category_id": "0200612", "time": ["09:00-23:00"], "star": 3.91, "review": 62}, {"name": "かましん ゆいの杜店", "address": "栃木県宇都宮市ゆいの杜1-2-21", "lat": 36.569239, "lon": 139.9856744, "category": "スーパー", "category_id": "0200612", "time": ["09:30-22:00"], "star": 4.06, "review": 148}, {"name": "カスミ テクノポリス清原店", "address": "栃木県宇都宮市ゆいの杜5-26-29", "lat": 36.566898, "lon": 140.0018616, "category": "スーパー", "category_id": "0200612", "time": ["09:00-24:00"], "star": 3.28, "review": 147}, {"name": "コスモス ゆいの杜店", "address": "栃木県宇都宮市ゆいの杜7-13-33", "lat": 36.572775, "lon": 139.9986812, "category": "ドラッグストア", "category_id": "0200699", "time": ["10:00-21:00"], "star": 4.44, "review": 71}, {"name": "カワチ薬品 ゆいの杜店", "address": "栃木県宇都宮市ゆいの杜6-8-4", "lat": 36.5713278, "lon": 139.9942512, "category": "ドラッグストア", "category_id": "0200699", "time": ["09:00-21:00"], "star": 4.04, "review": 56}, {"name": "ウエルシア宇都宮テクノポリス店", "address": "栃木県宇都宮市野高谷町5-26-29", "lat": 36.566661, "lon": 140.001387, "category": "ドラッグストア", "category_id": "0200699", "time": ["09:00-24:00"], "star": 4.3, "review": 15}]}, "top_restaurant": {"name": "スターバックス コーヒー 宇都宮ゆいの杜店", "category": "コーヒー店", "star": 4.34, "review": 99}}, {"name": "ゆいの杜中央", "name_en": "Yuinomori-central", "lat": 36.56772, "lon": 139.9920149, "osm_id": 11133420831, "operator": "宇都宮ライトレール", "railway": "tram_stop", "wikidata": "Q109600759", "wikipedia_tag": "ja:ゆいの杜中央停留場", "lines": [], "pref": "栃木県", "nearby_bus_stops": [{"name": "ヤマダ電機前", "lat": 36.5678435, "lon": 139.9930246, "distance_m": 91, "operator": "宇都宮市地域内交通"}, {"name": "たいらや前", "lat": 36.5678956, "lon": 139.990507, "distance_m": 136, "operator": "宇都宮市地域内交通"}, {"name": "ゆいの杜小学校南", "lat": 36.5701552, "lon": 139.9927001, "distance_m": 278, "operator": "JRバス関東"}, {"name": "なまい接骨院", "lat": 36.5661245, "lon": 139.9951342, "distance_m": 330, "operator": "宇都宮市地域内交通"}, {"name": "清原台整形外科", "lat": 36.5642588, "lon": 139.9922668, "distance_m": 386, "operator": "宇都宮市地域内交通"}], "nearest_convenience": {"name": "セブン-イレブン", "lat": 36.5750747, "lon": 139.9931485, "address": "", "distance_m": 824, "brand": "セブン-イレブン"}, "nearest_restaurant": {"name": "ジョイフル", "lat": 36.5679912, "lon": 139.9922548, "address": "", "distance_m": 37, "cuisine": ""}, "nearby_pois": {"コンビニ": [{"name": "セブンイレブン 宇都宮刈沼", "address": "栃木県宇都宮市ゆいの杜3-1-35", "lat": 36.5704056, "lon": 139.9874103, "category": "コンビニ", "category_id": "0200487", "time": ["00:00-24:00"], "star": 4.41, "review": 25}, {"name": "ファミリーマート 清原テクノ店", "address": "栃木県宇都宮市ゆいの杜4-1-47", "lat": 36.5679253, "lon": 139.9875965, "category": "コンビニ", "category_id": "0200487", "time": ["00:00-24:00"], "star": 3.82, "review": 25}, {"name": "ローソン 宇都宮テクノポリスセンター", "address": "栃木県宇都宮市ゆいの杜7-8-4", "lat": 36.5740663, "lon": 139.9907236, "category": "コンビニ", "category_id": "0200487", "time": ["00:00-24:00"], "star": 4.13, "review": 41}, {"name": "セブン-イレブン 宇都宮ゆいの杜５丁目店", "address": "栃木県宇都宮市ゆいの杜5-14-3", "lat": 36.5673889, "lon": 139.9953669, "category": "ガソリンスタンド", "category_id": "0400414", "time": ["00:00-24:00"], "star": 4.4, "review": 2}, {"name": "セブンイレブン 宇都宮テクノポリス", "address": "栃木県宇都宮市ゆいの杜8-1-53", "lat": 36.5676812, "lon": 140.0017616, "category": "コンビニ", "category_id": "0200487", "time": ["00:00-24:00"], "star": 3.9, "review": 18}, {"name": "セブンイレブン 宇都宮ゆいの杜北", "address": "栃木県宇都宮市ゆいの杜7-9-2", "lat": 36.5748968, "lon": 139.9929623, "category": "コンビニ", "category_id": "0200487", "time": ["00:00-24:00"], "star": 4.05, "review": 33}, {"name": "ファミリーマート レイト宇都宮テクノ/S店", "address": "栃木県宇都宮市ゆいの杜1-2-46", "lat": 36.5678599, "lon": 139.985824, "category": "コンビニ", "category_id": "0200487", "time": ["09:00-22:45"], "star": 0.0, "review": 0}, {"name": "エコス たいらやゆいの杜店", "address": "栃木県宇都宮市ゆいの杜4-12-2", "lat": 36.5680865, "lon": 139.9906267, "category": "スーパー", "category_id": "0200612", "time": ["09:00-23:00"], "star": 3.91, "review": 62}, {"name": "カスミ テクノポリス清原店", "address": "栃木県宇都宮市ゆいの杜5-26-29", "lat": 36.566898, "lon": 140.0018616, "category": "スーパー", "category_id": "0200612", "time": ["09:00-24:00"], "star": 3.28, "review": 147}, {"name": "かましん ゆいの杜店", "address": "栃木県宇都宮市ゆいの杜1-2-21", "lat": 36.569239, "lon": 139.9856744, "category": "スーパー", "category_id": "0200612", "time": ["09:30-22:00"], "star": 4.06, "review": 148}], "ラーメン": [{"name": "麺屋虎龍", "address": "栃木県宇都宮市ゆいの杜6-17-1", "lat": 36.568171668225, "lon": 139.99464489318, "category": "ラーメン店", "category_id": "0100097", "time": ["07:00-15:00", "17:30-22:00"], "star": 3.98, "review": 38}, {"name": "ラーメン☆ビリー 宇都宮店", "address": "栃木県宇都宮市ゆいの杜4丁目1-59", "lat": 36.56808918, "lon": 139.98733537, "category": "飲食店", "category_id": "0102732", "time": ["11:00-22:00"], "star": 4.2, "review": 6}, {"name": "ラーメン山岡家 テクノポリスセンター店", "address": "栃木県宇都宮市ゆいの杜5丁目10-8", "lat": 36.56748939, "lon": 139.99329865, "category": "ラーメン店", "category_id": "0100097", "time": ["00:00-24:00"], "star": 4.11, "review": 61}, {"name": "中華蕎麦しのざき", "address": "栃木県宇都宮市清原台3-18-2", "lat": 36.56009803, "lon": 139.99234354, "category": "ラーメン店", "category_id": "0100097", "time": ["11:00-14:15", "18:00-21:00"], "star": 4.21, "review": 54}, {"name": "正宗", "address": "栃木県宇都宮市ゆいの杜3-3-40", "lat": 36.57228395, "lon": 139.98768708, "category": "ラーメン店", "category_id": "0100097", "time": ["10:45-22:30"], "star": 4.04, "review": 66}, {"name": "満天家 ゆいの杜店", "address": "栃木県宇都宮市ゆいの杜6-17-26", "lat": 36.56780551, "lon": 139.99537703, "category": "ラーメン店", "category_id": "0100097", "time": ["11:00-22:30"], "star": 3.59, "review": 43}, {"name": "幸楽苑 宇都宮テクノポリス店", "address": "栃木県宇都宮市ゆいの杜5-26-20", "lat": 36.56734513, "lon": 140.00049789, "category": "ラーメン店", "category_id": "0100097", "time": ["08:00-22:00"], "star": 3.96, "review": 32}], "飲食店": [{"name": "ジョイフル 宇都宮テクノポリス店", "address": "栃木県宇都宮市ゆいの杜4-14-13", "lat": 36.567956, "lon": 139.9922043, "category": "ファミリーレストラン", "category_id": "0100788", "time": ["00:00-24:00"], "star": 3.71, "review": 35}, {"name": "ラーメン☆ビリー 宇都宮店", "address": "栃木県宇都宮市ゆいの杜4丁目1-59", "lat": 36.56808918, "lon": 139.98733537, "category": "飲食店", "category_id": "0102732", "time": ["11:00-22:00"], "star": 4.2, "review": 6}, {"name": "旬菜ダイニング 櫻月堂", "address": "栃木県宇都宮市野高谷町592-1", "lat": 36.56992312, "lon": 139.98725279, "category": "レストラン", "category_id": "0100111", "time": ["11:30-14:30", "17:30-21:30"], "star": 3.7, "review": 5}, {"name": "スターバックス コーヒー 宇都宮ゆいの杜店", "address": "栃木県宇都宮市ゆいの杜4-12-17", "lat": 36.568056, "lon": 139.991936, "category": "コーヒー店", "category_id": "0100496", "time": ["07:00-23:00"], "star": 4.34, "review": 99}, {"name": "居酒屋 こふで", "address": "栃木県宇都宮市ゆいの杜5-12-38", "lat": 36.56631953, "lon": 139.99313011, "category": "居酒屋", "category_id": "0101495", "time": ["17:00-23:00"], "star": 4.03, "review": 9}, {"name": "カフェ イヴァーノ", "address": "栃木県宇都宮市ゆいの杜6-7-10 テクノポリス宇都宮", "lat": 36.5712495, "lon": 139.99387398, "category": "カフェ・喫茶", "category_id": "0100344", "time": ["11:30-14:30", "17:30-21:15"], "star": 4.09, "review": 27}, {"name": "Mori no Cafe", "address": "栃木県宇都宮市ゆいの杜5-15-2 ヤクルトサービスセンター ゆいの杜 2F", "lat": 36.567417500076, "lon": 139.99679242853, "category": "カフェ・喫茶", "category_id": "0100344", "time": ["10:30-19:00"], "star": 3.68, "review": 9}, {"name": "やよい軒 宇都宮テクノポリス店", "address": "栃木県宇都宮市ゆいの杜6-1-25", "lat": 36.567881, "lon": 139.9942513, "category": "定食屋", "category_id": "0101441", "time": ["10:00-24:00"], "star": 3.92, "review": 36}, {"name": "御食事処 竹亭", "address": "栃木県宇都宮市野高谷町314-1", "lat": 36.56588429, "lon": 139.99251936, "category": "定食屋", "category_id": "0101441", "time": [], "star": 2.87, "review": 8}, {"name": "Filo", "address": "栃木県宇都宮市ゆいの杜5-1-23", "lat": 36.5667221, "lon": 139.98681827, "category": "カフェ・喫茶", "category_id": "0100344", "time": ["11:30-21:00"], "star": 3.81, "review": 8}, {"name": "暖龍 テクノポリス店", "address": "栃木県宇都宮市野高谷765-1", "lat": 36.56760626, "lon": 139.99076392, "category": "中華料理店", "category_id": "0100990", "time": ["11:00-22:00"], "star": 3.78, "review": 34}, {"name": "すき家 宇都宮ゆいの杜店", "address": "栃木県宇都宮市ゆいの杜5-8-9", "lat": 36.5675421, "lon": 139.9913572, "category": "牛丼店", "category_id": "0101974", "time": ["04:00-27:00"], "star": 4.2, "review": 25}, {"name": "とんかつ みくりや", "address": "栃木県宇都宮市ゆいの杜4-1-59", "lat": 36.568066, "lon": 139.987287, "category": "とんかつ店", "category_id": "0100159", "time": ["11:30-14:30", "17:00-20:30"], "star": 3.72, "review": 7}, {"name": "さかい珈琲 宇都宮ゆいの杜店", "address": "栃木県宇都宮市野高谷町429-5", "lat": 36.56725305, "lon": 139.9826609, "category": "カフェ・喫茶", "category_id": "0100344", "time": ["09:00-21:00"], "star": 4.09, "review": 46}, {"name": "ラーメン山岡家 テクノポリスセンター店", "address": "栃木県宇都宮市ゆいの杜5丁目10-8", "lat": 36.56748939, "lon": 139.99329865, "category": "ラーメン店", "category_id": "0100097", "time": ["00:00-24:00"], "star": 4.11, "review": 61}, {"name": "肉と秘伝のたれ ゆいの杜", "address": "栃木県宇都宮市ゆいの杜7-1-22", "lat": 36.571609, "lon": 139.993746, "category": "ステーキ店", "category_id": "0100570", "time": ["10:00-14:30", "16:00-21:00"], "star": 3.2, "review": 4}, {"name": "焼肉きんぐ 宇都宮ゆいの杜店", "address": "栃木県宇都宮市ゆいの杜1-1-1 ", "lat": 36.56694762, "lon": 139.98632998, "category": "焼肉店", "category_id": "0101963", "time": ["17:00-23:00"], "star": 4.19, "review": 35}, {"name": "しゃぶ葉 宇都宮ゆいの杜店", "address": "栃木県宇都宮市ゆいの杜6丁目17-23 ", "lat": 36.56782, "lon": 139.9958, "category": "しゃぶしゃぶ店", "category_id": "0100095", "time": ["11:00-23:30"], "star": 4.09, "review": 25}, {"name": "肉将軍", "address": "栃木県宇都宮市野高谷町433-1", "lat": 36.56749747, "lon": 139.98298585, "category": "ホルモン焼肉店", "category_id": "0100859", "time": ["17:00-25:00"], "star": 4.5, "review": 1}, {"name": "魚べい　ゆいの杜店", "address": "栃木県宇都宮市ゆいの杜6-17-31", "lat": 36.56785328, "lon": 139.99491791, "category": "回転寿司店", "category_id": "0101332", "time": ["11:00-22:30"], "star": 4.1, "review": 77}], "カフェ": [{"name": "カフェ イヴァーノ", "address": "栃木県宇都宮市ゆいの杜6-7-10 テクノポリス宇都宮", "lat": 36.5712495, "lon": 139.99387398, "category": "カフェ・喫茶", "category_id": "0100344", "time": ["11:30-14:30", "17:30-21:15"], "star": 4.09, "review": 27}, {"name": "スターバックス コーヒー 宇都宮ゆいの杜店", "address": "栃木県宇都宮市ゆいの杜4-12-17", "lat": 36.568056, "lon": 139.991936, "category": "コーヒー店", "category_id": "0100496", "time": ["07:00-23:00"], "star": 4.34, "review": 99}, {"name": "Mori no Cafe", "address": "栃木県宇都宮市ゆいの杜5-15-2 ヤクルトサービスセンター ゆいの杜 2F", "lat": 36.567417500076, "lon": 139.99679242853, "category": "カフェ・喫茶", "category_id": "0100344", "time": ["10:30-19:00"], "star": 3.68, "review": 9}, {"name": "さかい珈琲 宇都宮ゆいの杜店", "address": "栃木県宇都宮市野高谷町429-5", "lat": 36.56725305, "lon": 139.9826609, "category": "カフェ・喫茶", "category_id": "0100344", "time": ["09:00-21:00"], "star": 4.09, "review": 46}, {"name": "Filo", "address": "栃木県宇都宮市ゆいの杜5-1-23", "lat": 36.5667221, "lon": 139.98681827, "category": "カフェ・喫茶", "category_id": "0100344", "time": ["11:30-21:00"], "star": 3.81, "review": 8}, {"name": "ゆいのもりDOG CAFE", "address": "栃木県宇都宮市野高谷町1165-1", "lat": 36.56360988823, "lon": 140.00073258313, "category": "カフェ・喫茶", "category_id": "0100344", "time": ["09:00-20:00"], "star": 0.0, "review": 0}, {"name": "カフェ・パルチーノ", "address": "栃木県宇都宮市清原台3丁目9-33", "lat": 36.561461, "lon": 139.992833, "category": "カフェ・喫茶", "category_id": "0100344", "time": [], "star": 0.0, "review": 0}, {"name": "ジョイフル 宇都宮テクノポリス店", "address": "栃木県宇都宮市ゆいの杜4-14-13", "lat": 36.567956, "lon": 139.9922043, "category": "ファミリーレストラン", "category_id": "0100788", "time": ["00:00-24:00"], "star": 3.71, "review": 35}], "ドラッグストア": [{"name": "コスモス ゆいの杜店", "address": "栃木県宇都宮市ゆいの杜7-13-33", "lat": 36.572775, "lon": 139.9986812, "category": "ドラッグストア", "category_id": "0200699", "time": ["10:00-21:00"], "star": 4.44, "review": 71}, {"name": "マツモトキヨシ ドラッグストア 宇都宮テクノポリス店", "address": "栃木県宇都宮市ゆいの杜4-2-32", "lat": 36.5689891, "lon": 139.9872881, "category": "ドラッグストア", "category_id": "0200699", "time": ["10:00-22:00"], "star": 3.94, "review": 40}, {"name": "カワチ薬品 ゆいの杜店", "address": "栃木県宇都宮市ゆいの杜6-8-4", "lat": 36.5713278, "lon": 139.9942512, "category": "ドラッグストア", "category_id": "0200699", "time": ["09:00-21:00"], "star": 4.04, "review": 56}, {"name": "ツルハドラッグ 宇都宮ゆいの杜店", "address": "栃木県宇都宮市ゆいの杜7丁目1番28号", "lat": 36.57161388, "lon": 139.99320959, "category": "ドラッグストア", "category_id": "0200699", "time": ["09:00-23:00"], "star": 4.12, "review": 36}, {"name": "ウエルシア宇都宮清原台店", "address": "栃木県宇都宮市清原台1-14-1", "lat": 36.564631, "lon": 139.986125, "category": "ドラッグストア", "category_id": "0200699", "time": ["08:00-24:00"], "star": 4.22, "review": 22}, {"name": "ウエルシア宇都宮テクノポリス店", "address": "栃木県宇都宮市野高谷町5-26-29", "lat": 36.566661, "lon": 140.001387, "category": "ドラッグストア", "category_id": "0200699", "time": ["09:00-24:00"], "star": 4.3, "review": 15}, {"name": "ピノキオ薬局 ゆいの杜店", "address": "栃木県宇都宮市ゆいの杜6-2-30", "lat": 36.56922417, "lon": 139.99309859, "category": "調剤薬局", "category_id": "0202315", "time": ["09:00-18:00"], "star": 0.0, "review": 1}, {"name": "とちぎ薬局清原台店", "address": "栃木県宇都宮市清原台1丁目9", "lat": 36.56624992, "lon": 139.98616198, "category": "調剤薬局", "category_id": "0202315", "time": ["09:00-18:30"], "star": 0.0, "review": 0}, {"name": "ウエルシア宇都宮清原台店 (調剤薬局)", "address": "栃木県宇都宮市清原台1-14-1ウエルシア宇都宮清原台店内", "lat": 36.564631, "lon": 139.986125, "category": "調剤薬局", "category_id": "0202315", "time": ["10:00-14:00", "15:00-18:30"], "star": 0.0, "review": 0}, {"name": "ウエルシア宇都宮テクノポリス店 (調剤薬局)", "address": "栃木県宇都宮市ゆいの杜5-26-29ウエルシア宇都宮テクノポリス店内", "lat": 36.566661, "lon": 140.001387, "category": "調剤薬局", "category_id": "0202315", "time": ["09:00-20:00"], "star": 0.0, "review": 1}, {"name": "あまいろ薬局", "address": "栃木県宇都宮市ゆいの杜7丁目9-2", "lat": 36.57483708, "lon": 139.99271783, "category": "調剤薬局", "category_id": "0202315", "time": [], "star": 0.0, "review": 0}, {"name": "カスミ テクノポリス清原店", "address": "栃木県宇都宮市ゆいの杜5-26-29", "lat": 36.566898, "lon": 140.0018616, "category": "スーパー", "category_id": "0200612", "time": ["09:00-24:00"], "star": 3.28, "review": 147}, {"name": "とちの木薬局清原台店", "address": "栃木県宇都宮市清原台3丁目3-7", "lat": 36.56018351, "lon": 139.98995742, "category": "調剤薬局", "category_id": "0202315", "time": [], "star": 0.0, "review": 0}], "ATM": [{"name": "栃木銀行 テクノポリス支店", "address": "栃木県宇都宮市ゆいの杜3-2-20", "lat": 36.5707527, "lon": 139.9873686, "category": "銀行", "category_id": "0402596", "time": ["09:00-11:30", "12:30-15:00"], "star": 4.5, "review": 1}, {"name": "栃木銀行 ATM テクノポリス支店", "address": "栃木県宇都宮市ゆいの杜3-2-20", "lat": 36.5707761, "lon": 139.987365, "category": "ATM", "category_id": "0402785", "time": [], "star": 0.0, "review": 0}, {"name": "足利銀行 ATM かましんゆいの杜店", "address": "栃木県宇都宮市ゆいの杜1-2-21 1F 入口", "lat": 36.569506, "lon": 139.985998, "category": "ATM", "category_id": "0402785", "time": [], "star": 0.0, "review": 0}, {"name": "セブン銀行 宇都宮ゆいの杜5丁目店", "address": "栃木県宇都宮市ゆいの杜5-14-3", "lat": 36.5673875, "lon": 139.995007, "category": "ATM", "category_id": "0402785", "time": ["00:00-24:00"], "star": 0.0, "review": 0}, {"name": "ゆうちょ銀行 ATM ファミリーマート清原テクノ店内出張所", "address": "栃木県宇都宮市ゆいの杜4-1-47", "lat": 36.5679196, "lon": 139.987713, "category": "ATM", "category_id": "0402785", "time": [], "star": 0.0, "review": 0}, {"name": "ゆうちょ銀行 ATM ゆいの杜郵便局", "address": "栃木県宇都宮市ゆいの杜5-15-5", "lat": 36.5672807, "lon": 139.996326, "category": "ATM", "category_id": "0402785", "time": [], "star": 0.0, "review": 0}, {"name": "ゆうちょ銀行 ゆいの杜郵便局", "address": "栃木県宇都宮市ゆいの杜5-15-5", "lat": 36.5673189, "lon": 139.996278, "category": "銀行", "category_id": "0402596", "time": [], "star": 0.0, "review": 0}, {"name": "銀行ATM イーネット ファミリーマートレイト宇都宮テクノ共同出張所", "address": "栃木県宇都宮市ゆいの杜1-2-46 ", "lat": 36.56779196, "lon": 139.98590499, "category": "ATM", "category_id": "0402785", "time": ["09:00-22:45"], "star": 0.0, "review": 0}, {"name": "セブン銀行 宇都宮刈沼店", "address": "栃木県宇都宮市ゆいの杜3-1-35", "lat": 36.5703857, "lon": 139.98748, "category": "ATM", "category_id": "0402785", "time": ["00:00-24:00"], "star": 0.0, "review": 0}, {"name": "栃木銀行 ATM かましん ゆいの杜店", "address": "栃木県宇都宮市ゆいの杜1-2-21", "lat": 36.5693181, "lon": 139.986029, "category": "ATM", "category_id": "0402785", "time": [], "star": 0.0, "review": 0}, {"name": "イオン銀行 ATM テクノポリス清原店出張所(店内)", "address": "栃木県宇都宮市ゆいの杜5-26-29", "lat": 36.5669005, "lon": 140.001837, "category": "ATM", "category_id": "0402785", "time": ["09:00-24:00"], "star": 0.0, "review": 0}, {"name": "みずほ銀行 ATM テクノポリス清原店出張所", "address": "栃木県宇都宮市ゆいの杜5-26-29", "lat": 36.5668903, "lon": 140.001858, "category": "ATM", "category_id": "0402785", "time": [], "star": 0.0, "review": 0}, {"name": "セブン銀行 宇都宮テクノポリス店", "address": "栃木県宇都宮市ゆいの杜8-1-53", "lat": 36.5677475, "lon": 140.001793, "category": "ATM", "category_id": "0402785", "time": ["00:00-24:00"], "star": 0.0, "review": 0}, {"name": "セブン銀行 宇都宮ゆいの杜北店", "address": "栃木県宇都宮市ゆいの杜7-9-2", "lat": 36.5748788, "lon": 139.992973, "category": "ATM", "category_id": "0402785", "time": ["00:00-24:00"], "star": 0.0, "review": 0}, {"name": "ローソン銀行 宇都宮テクノポリスセンター共同出張所", "address": "栃木県宇都宮市ゆいの杜7-8-4", "lat": 36.5740566, "lon": 139.990755, "category": "ATM", "category_id": "0402785", "time": ["00:00-24:00"], "star": 0.0, "review": 0}, {"name": "宝くじ ATM 足利銀行かましんゆいの杜店", "address": "栃木県宇都宮市ゆいの杜1-2-21", "lat": 36.5694643, "lon": 139.986006, "category": "宝くじ売り場", "category_id": "0401442", "time": ["09:30-21:00"], "star": 0.0, "review": 0}], "スーパーマーケット": [{"name": "エコス たいらやゆいの杜店", "address": "栃木県宇都宮市ゆいの杜4-12-2", "lat": 36.5680865, "lon": 139.9906267, "category": "スーパー", "category_id": "0200612", "time": ["09:00-23:00"], "star": 3.91, "review": 62}, {"name": "業務スーパー ゆいの杜店", "address": "栃木県宇都宮市ゆいの杜5-10-5", "lat": 36.5674394, "lon": 139.9928043, "category": "スーパー", "category_id": "0200612", "time": ["09:00-20:00"], "star": 3.0, "review": 1}, {"name": "かましん ゆいの杜店", "address": "栃木県宇都宮市ゆいの杜1-2-21", "lat": 36.569239, "lon": 139.9856744, "category": "スーパー", "category_id": "0200612", "time": ["09:30-22:00"], "star": 4.06, "review": 148}, {"name": "カスミ テクノポリス清原店", "address": "栃木県宇都宮市ゆいの杜5-26-29", "lat": 36.566898, "lon": 140.0018616, "category": "スーパー", "category_id": "0200612", "time": ["09:00-24:00"], "star": 3.28, "review": 147}, {"name": "コスモス ゆいの杜店", "address": "栃木県宇都宮市ゆいの杜7-13-33", "lat": 36.572775, "lon": 139.9986812, "category": "ドラッグストア", "category_id": "0200699", "time": ["10:00-21:00"], "star": 4.44, "review": 71}, {"name": "カワチ薬品 ゆいの杜店", "address": "栃木県宇都宮市ゆいの杜6-8-4", "lat": 36.5713278, "lon": 139.9942512, "category": "ドラッグストア", "category_id": "0200699", "time": ["09:00-21:00"], "star": 4.04, "review": 56}, {"name": "ウエルシア宇都宮テクノポリス店", "address": "栃木県宇都宮市野高谷町5-26-29", "lat": 36.566661, "lon": 140.001387, "category": "ドラッグストア", "category_id": "0200699", "time": ["09:00-24:00"], "star": 4.3, "review": 15}]}, "top_restaurant": {"name": "肉将軍", "category": "ホルモン焼肉店", "star": 4.5, "review": 1}}, {"name": "ゆいの杜東", "name_en": "Yuinomori-east", "lat": 36.5676112, "lon": 139.9987885, "osm_id": 11133420828, "operator": "宇都宮ライトレール", "railway": "tram_stop", "wikidata": "Q109600761", "wikipedia_tag": "ja:ゆいの杜東停留場", "lines": [], "pref": "栃木県", "nearby_bus_stops": [{"name": "天目外科胃腸科", "lat": 36.5656161, "lon": 139.9987176, "distance_m": 222, "operator": "宇都宮市地域内交通"}, {"name": "なまい接骨院", "lat": 36.5661245, "lon": 139.9951342, "distance_m": 366, "operator": "宇都宮市地域内交通"}], "nearest_convenience": {"name": "セブン-イレブン", "lat": 36.5750747, "lon": 139.9931485, "address": "", "distance_m": 971, "brand": "セブン-イレブン"}, "nearest_restaurant": {"name": "吉野家", "lat": 36.5673383, "lon": 140.0000361, "address": "", "distance_m": 115, "cuisine": "beef_bowl"}, "nearby_pois": {"コンビニ": [{"name": "セブンイレブン 宇都宮テクノポリス", "address": "栃木県宇都宮市ゆいの杜8-1-53", "lat": 36.5676812, "lon": 140.0017616, "category": "コンビニ", "category_id": "0200487", "time": ["00:00-24:00"], "star": 3.9, "review": 18}, {"name": "セブン-イレブン 宇都宮ゆいの杜５丁目店", "address": "栃木県宇都宮市ゆいの杜5-14-3", "lat": 36.5673889, "lon": 139.9953669, "category": "ガソリンスタンド", "category_id": "0400414", "time": ["00:00-24:00"], "star": 4.4, "review": 2}, {"name": "セブンイレブン 宇都宮ゆいの杜北", "address": "栃木県宇都宮市ゆいの杜7-9-2", "lat": 36.5748968, "lon": 139.9929623, "category": "コンビニ", "category_id": "0200487", "time": ["00:00-24:00"], "star": 4.05, "review": 33}, {"name": "カスミ テクノポリス清原店", "address": "栃木県宇都宮市ゆいの杜5-26-29", "lat": 36.566898, "lon": 140.0018616, "category": "スーパー", "category_id": "0200612", "time": ["09:00-24:00"], "star": 3.28, "review": 147}, {"name": "エコス たいらやゆいの杜店", "address": "栃木県宇都宮市ゆいの杜4-12-2", "lat": 36.5680865, "lon": 139.9906267, "category": "スーパー", "category_id": "0200612", "time": ["09:00-23:00"], "star": 3.91, "review": 62}], "ラーメン": [{"name": "麺屋虎龍", "address": "栃木県宇都宮市ゆいの杜6-17-1", "lat": 36.568171668225, "lon": 139.99464489318, "category": "ラーメン店", "category_id": "0100097", "time": ["07:00-15:00", "17:30-22:00"], "star": 3.98, "review": 38}, {"name": "ラーメン山岡家 テクノポリスセンター店", "address": "栃木県宇都宮市ゆいの杜5丁目10-8", "lat": 36.56748939, "lon": 139.99329865, "category": "ラーメン店", "category_id": "0100097", "time": ["00:00-24:00"], "star": 4.11, "review": 61}, {"name": "幸楽苑 宇都宮テクノポリス店", "address": "栃木県宇都宮市ゆいの杜5-26-20", "lat": 36.56734513, "lon": 140.00049789, "category": "ラーメン店", "category_id": "0100097", "time": ["08:00-22:00"], "star": 3.96, "review": 32}, {"name": "満天家 ゆいの杜店", "address": "栃木県宇都宮市ゆいの杜6-17-26", "lat": 36.56780551, "lon": 139.99537703, "category": "ラーメン店", "category_id": "0100097", "time": ["11:00-22:30"], "star": 3.59, "review": 43}], "飲食店": [{"name": "Mori no Cafe", "address": "栃木県宇都宮市ゆいの杜5-15-2 ヤクルトサービスセンター ゆいの杜 2F", "lat": 36.567417500076, "lon": 139.99679242853, "category": "カフェ・喫茶", "category_id": "0100344", "time": ["10:30-19:00"], "star": 3.68, "review": 9}, {"name": "居酒屋 こふで", "address": "栃木県宇都宮市ゆいの杜5-12-38", "lat": 36.56631953, "lon": 139.99313011, "category": "居酒屋", "category_id": "0101495", "time": ["17:00-23:00"], "star": 4.03, "review": 9}, {"name": "カフェ イヴァーノ", "address": "栃木県宇都宮市ゆいの杜6-7-10 テクノポリス宇都宮", "lat": 36.5712495, "lon": 139.99387398, "category": "カフェ・喫茶", "category_id": "0100344", "time": ["11:30-14:30", "17:30-21:15"], "star": 4.09, "review": 27}, {"name": "焼肉みやま", "address": "栃木県宇都宮市野高谷町1140", "lat": 36.56586613, "lon": 139.99955555, "category": "焼肉店", "category_id": "0101963", "time": ["11:00-14:00", "17:00-22:00"], "star": 4.05, "review": 21}, {"name": "やよい軒 宇都宮テクノポリス店", "address": "栃木県宇都宮市ゆいの杜6-1-25", "lat": 36.567881, "lon": 139.9942513, "category": "定食屋", "category_id": "0101441", "time": ["10:00-24:00"], "star": 3.92, "review": 36}, {"name": "スターバックス コーヒー 宇都宮ゆいの杜店", "address": "栃木県宇都宮市ゆいの杜4-12-17", "lat": 36.568056, "lon": 139.991936, "category": "コーヒー店", "category_id": "0100496", "time": ["07:00-23:00"], "star": 4.34, "review": 99}, {"name": "ジョイフル 宇都宮テクノポリス店", "address": "栃木県宇都宮市ゆいの杜4-14-13", "lat": 36.567956, "lon": 139.9922043, "category": "ファミリーレストラン", "category_id": "0100788", "time": ["00:00-24:00"], "star": 3.71, "review": 35}, {"name": "ゆいのもりDOG CAFE", "address": "栃木県宇都宮市野高谷町1165-1", "lat": 36.56360988823, "lon": 140.00073258313, "category": "カフェ・喫茶", "category_id": "0100344", "time": ["09:00-20:00"], "star": 0.0, "review": 0}, {"name": "ステーキハウス 杣", "address": "栃木県宇都宮市野高谷町1152", "lat": 36.56521347, "lon": 140.0010468, "category": "ステーキ店", "category_id": "0100570", "time": ["11:00-15:00", "17:00-22:00"], "star": 3.7, "review": 33}, {"name": "御食事処 竹亭", "address": "栃木県宇都宮市野高谷町314-1", "lat": 36.56588429, "lon": 139.99251936, "category": "定食屋", "category_id": "0101441", "time": [], "star": 2.87, "review": 8}, {"name": "しゃぶ葉 宇都宮ゆいの杜店", "address": "栃木県宇都宮市ゆいの杜6丁目17-23 ", "lat": 36.56782, "lon": 139.9958, "category": "しゃぶしゃぶ店", "category_id": "0100095", "time": ["11:00-23:30"], "star": 4.09, "review": 25}, {"name": "吉野家 カインズ宇都宮テクノ店", "address": "栃木県宇都宮市ゆいの杜5-26-5 ", "lat": 36.567377, "lon": 140.00009, "category": "牛丼店", "category_id": "0101974", "time": ["07:30-22:00"], "star": 3.92, "review": 47}, {"name": "焼きたて屋 カインズ宇都宮テクノ店", "address": "栃木県宇都宮市ゆいの杜5-26-5", "lat": 36.56708569, "lon": 139.99931414, "category": "たこ焼き店", "category_id": "0100134", "time": ["09:30-19:30"], "star": 3.78, "review": 17}, {"name": "幸楽苑 宇都宮テクノポリス店", "address": "栃木県宇都宮市ゆいの杜5-26-20", "lat": 36.56734513, "lon": 140.00049789, "category": "ラーメン店", "category_id": "0100097", "time": ["08:00-22:00"], "star": 3.96, "review": 32}, {"name": "魚べい　ゆいの杜店", "address": "栃木県宇都宮市ゆいの杜6-17-31", "lat": 36.56785328, "lon": 139.99491791, "category": "回転寿司店", "category_id": "0101332", "time": ["11:00-22:30"], "star": 4.1, "review": 77}, {"name": "満天家 ゆいの杜店", "address": "栃木県宇都宮市ゆいの杜6-17-26", "lat": 36.56780551, "lon": 139.99537703, "category": "ラーメン店", "category_id": "0100097", "time": ["11:00-22:30"], "star": 3.59, "review": 43}, {"name": "まんぷく亭", "address": "栃木県宇都宮市ゆいの杜8丁目1-57 ZENTテクノ店", "lat": 36.5679673, "lon": 140.0008895, "category": "定食屋", "category_id": "0101441", "time": [], "star": 0.0, "review": 0}, {"name": "肉と秘伝のたれ ゆいの杜", "address": "栃木県宇都宮市ゆいの杜7-1-22", "lat": 36.571609, "lon": 139.993746, "category": "ステーキ店", "category_id": "0100570", "time": ["10:00-14:30", "16:00-21:00"], "star": 3.2, "review": 4}, {"name": "麺屋虎龍", "address": "栃木県宇都宮市ゆいの杜6-17-1", "lat": 36.568171668225, "lon": 139.99464489318, "category": "ラーメン店", "category_id": "0100097", "time": ["07:00-15:00", "17:30-22:00"], "star": 3.98, "review": 38}, {"name": "ラーメン山岡家 テクノポリスセンター店", "address": "栃木県宇都宮市ゆいの杜5丁目10-8", "lat": 36.56748939, "lon": 139.99329865, "category": "ラーメン店", "category_id": "0100097", "time": ["00:00-24:00"], "star": 4.11, "review": 61}], "カフェ": [{"name": "Mori no Cafe", "address": "栃木県宇都宮市ゆいの杜5-15-2 ヤクルトサービスセンター ゆいの杜 2F", "lat": 36.567417500076, "lon": 139.99679242853, "category": "カフェ・喫茶", "category_id": "0100344", "time": ["10:30-19:00"], "star": 3.68, "review": 9}, {"name": "カフェ イヴァーノ", "address": "栃木県宇都宮市ゆいの杜6-7-10 テクノポリス宇都宮", "lat": 36.5712495, "lon": 139.99387398, "category": "カフェ・喫茶", "category_id": "0100344", "time": ["11:30-14:30", "17:30-21:15"], "star": 4.09, "review": 27}, {"name": "スターバックス コーヒー 宇都宮ゆいの杜店", "address": "栃木県宇都宮市ゆいの杜4-12-17", "lat": 36.568056, "lon": 139.991936, "category": "コーヒー店", "category_id": "0100496", "time": ["07:00-23:00"], "star": 4.34, "review": 99}, {"name": "ゆいのもりDOG CAFE", "address": "栃木県宇都宮市野高谷町1165-1", "lat": 36.56360988823, "lon": 140.00073258313, "category": "カフェ・喫茶", "category_id": "0100344", "time": ["09:00-20:00"], "star": 0.0, "review": 0}, {"name": "カフェ・パルチーノ", "address": "栃木県宇都宮市清原台3丁目9-33", "lat": 36.561461, "lon": 139.992833, "category": "カフェ・喫茶", "category_id": "0100344", "time": [], "star": 0.0, "review": 0}, {"name": "ジョイフル 宇都宮テクノポリス店", "address": "栃木県宇都宮市ゆいの杜4-14-13", "lat": 36.567956, "lon": 139.9922043, "category": "ファミリーレストラン", "category_id": "0100788", "time": ["00:00-24:00"], "star": 3.71, "review": 35}], "ドラッグストア": [{"name": "コスモス ゆいの杜店", "address": "栃木県宇都宮市ゆいの杜7-13-33", "lat": 36.572775, "lon": 139.9986812, "category": "ドラッグストア", "category_id": "0200699", "time": ["10:00-21:00"], "star": 4.44, "review": 71}, {"name": "ウエルシア宇都宮テクノポリス店", "address": "栃木県宇都宮市野高谷町5-26-29", "lat": 36.566661, "lon": 140.001387, "category": "ドラッグストア", "category_id": "0200699", "time": ["09:00-24:00"], "star": 4.3, "review": 15}, {"name": "カワチ薬品 ゆいの杜店", "address": "栃木県宇都宮市ゆいの杜6-8-4", "lat": 36.5713278, "lon": 139.9942512, "category": "ドラッグストア", "category_id": "0200699", "time": ["09:00-21:00"], "star": 4.04, "review": 56}, {"name": "ツルハドラッグ 宇都宮ゆいの杜店", "address": "栃木県宇都宮市ゆいの杜7丁目1番28号", "lat": 36.57161388, "lon": 139.99320959, "category": "ドラッグストア", "category_id": "0200699", "time": ["09:00-23:00"], "star": 4.12, "review": 36}, {"name": "ウエルシア宇都宮テクノポリス店 (調剤薬局)", "address": "栃木県宇都宮市ゆいの杜5-26-29ウエルシア宇都宮テクノポリス店内", "lat": 36.566661, "lon": 140.001387, "category": "調剤薬局", "category_id": "0202315", "time": ["09:00-20:00"], "star": 0.0, "review": 1}, {"name": "カスミ テクノポリス清原店", "address": "栃木県宇都宮市ゆいの杜5-26-29", "lat": 36.566898, "lon": 140.0018616, "category": "スーパー", "category_id": "0200612", "time": ["09:00-24:00"], "star": 3.28, "review": 147}, {"name": "ピノキオ薬局 ゆいの杜店", "address": "栃木県宇都宮市ゆいの杜6-2-30", "lat": 36.56922417, "lon": 139.99309859, "category": "調剤薬局", "category_id": "0202315", "time": ["09:00-18:00"], "star": 0.0, "review": 1}, {"name": "あまいろ薬局", "address": "栃木県宇都宮市ゆいの杜7丁目9-2", "lat": 36.57483708, "lon": 139.99271783, "category": "調剤薬局", "category_id": "0202315", "time": [], "star": 0.0, "review": 0}], "ATM": [{"name": "イオン銀行 ATM テクノポリス清原店出張所(店内)", "address": "栃木県宇都宮市ゆいの杜5-26-29", "lat": 36.5669005, "lon": 140.001837, "category": "ATM", "category_id": "0402785", "time": ["09:00-24:00"], "star": 0.0, "review": 0}, {"name": "みずほ銀行 ATM テクノポリス清原店出張所", "address": "栃木県宇都宮市ゆいの杜5-26-29", "lat": 36.5668903, "lon": 140.001858, "category": "ATM", "category_id": "0402785", "time": [], "star": 0.0, "review": 0}, {"name": "ゆうちょ銀行 ATM ゆいの杜郵便局", "address": "栃木県宇都宮市ゆいの杜5-15-5", "lat": 36.5672807, "lon": 139.996326, "category": "ATM", "category_id": "0402785", "time": [], "star": 0.0, "review": 0}, {"name": "セブン銀行 宇都宮テクノポリス店", "address": "栃木県宇都宮市ゆいの杜8-1-53", "lat": 36.5677475, "lon": 140.001793, "category": "ATM", "category_id": "0402785", "time": ["00:00-24:00"], "star": 0.0, "review": 0}, {"name": "セブン銀行 宇都宮ゆいの杜5丁目店", "address": "栃木県宇都宮市ゆいの杜5-14-3", "lat": 36.5673875, "lon": 139.995007, "category": "ATM", "category_id": "0402785", "time": ["00:00-24:00"], "star": 0.0, "review": 0}, {"name": "ゆうちょ銀行 ゆいの杜郵便局", "address": "栃木県宇都宮市ゆいの杜5-15-5", "lat": 36.5673189, "lon": 139.996278, "category": "銀行", "category_id": "0402596", "time": [], "star": 0.0, "review": 0}, {"name": "ゆうちょ銀行 ATM ファミリーマート清原テクノ店内出張所", "address": "栃木県宇都宮市ゆいの杜4-1-47", "lat": 36.5679196, "lon": 139.987713, "category": "ATM", "category_id": "0402785", "time": [], "star": 0.0, "review": 0}, {"name": "セブン銀行 宇都宮ゆいの杜北店", "address": "栃木県宇都宮市ゆいの杜7-9-2", "lat": 36.5748788, "lon": 139.992973, "category": "ATM", "category_id": "0402785", "time": ["00:00-24:00"], "star": 0.0, "review": 0}], "スーパーマーケット": [{"name": "カスミ テクノポリス清原店", "address": "栃木県宇都宮市ゆいの杜5-26-29", "lat": 36.566898, "lon": 140.0018616, "category": "スーパー", "category_id": "0200612", "time": ["09:00-24:00"], "star": 3.28, "review": 147}, {"name": "エコス たいらやゆいの杜店", "address": "栃木県宇都宮市ゆいの杜4-12-2", "lat": 36.5680865, "lon": 139.9906267, "category": "スーパー", "category_id": "0200612", "time": ["09:00-23:00"], "star": 3.91, "review": 62}, {"name": "業務スーパー ゆいの杜店", "address": "栃木県宇都宮市ゆいの杜5-10-5", "lat": 36.5674394, "lon": 139.9928043, "category": "スーパー", "category_id": "0200612", "time": ["09:00-20:00"], "star": 3.0, "review": 1}, {"name": "ウエルシア宇都宮テクノポリス店", "address": "栃木県宇都宮市野高谷町5-26-29", "lat": 36.566661, "lon": 140.001387, "category": "ドラッグストア", "category_id": "0200699", "time": ["09:00-24:00"], "star": 4.3, "review": 15}, {"name": "コスモス ゆいの杜店", "address": "栃木県宇都宮市ゆいの杜7-13-33", "lat": 36.572775, "lon": 139.9986812, "category": "ドラッグストア", "category_id": "0200699", "time": ["10:00-21:00"], "star": 4.44, "review": 71}, {"name": "カワチ薬品 ゆいの杜店", "address": "栃木県宇都宮市ゆいの杜6-8-4", "lat": 36.5713278, "lon": 139.9942512, "category": "ドラッグストア", "category_id": "0200699", "time": ["09:00-21:00"], "star": 4.04, "review": 56}]}, "top_restaurant": {"name": "スターバックス コーヒー 宇都宮ゆいの杜店", "category": "コーヒー店", "star": 4.34, "review": 99}}, {"name": "ゆいの杜東", "name_en": "Yuinomori-east", "lat": 36.5676065, "lon": 139.9977738, "osm_id": 11133420829, "operator": "宇都宮ライトレール", "railway": "tram_stop", "wikidata": "Q109600761", "wikipedia_tag": "ja:ゆいの杜東停留場", "lines": [], "pref": "栃木県", "nearby_bus_stops": [{"name": "天目外科胃腸科", "lat": 36.5656161, "lon": 139.9987176, "distance_m": 237, "operator": "宇都宮市地域内交通"}, {"name": "なまい接骨院", "lat": 36.5661245, "lon": 139.9951342, "distance_m": 288, "operator": "宇都宮市地域内交通"}, {"name": "ヤマダ電機前", "lat": 36.5678435, "lon": 139.9930246, "distance_m": 425, "operator": "宇都宮市地域内交通"}], "nearest_convenience": {"name": "セブン-イレブン", "lat": 36.5750747, "lon": 139.9931485, "address": "", "distance_m": 927, "brand": "セブン-イレブン"}, "nearest_restaurant": {"name": "しゃぶ葉", "lat": 36.5678959, "lon": 139.9958372, "address": "", "distance_m": 176, "cuisine": "buffet"}, "nearby_pois": {"コンビニ": [{"name": "セブンイレブン 宇都宮テクノポリス", "address": "栃木県宇都宮市ゆいの杜8-1-53", "lat": 36.5676812, "lon": 140.0017616, "category": "コンビニ", "category_id": "0200487", "time": ["00:00-24:00"], "star": 3.9, "review": 18}, {"name": "セブン-イレブン 宇都宮ゆいの杜５丁目店", "address": "栃木県宇都宮市ゆいの杜5-14-3", "lat": 36.5673889, "lon": 139.9953669, "category": "ガソリンスタンド", "category_id": "0400414", "time": ["00:00-24:00"], "star": 4.4, "review": 2}, {"name": "セブンイレブン 宇都宮刈沼", "address": "栃木県宇都宮市ゆいの杜3-1-35", "lat": 36.5704056, "lon": 139.9874103, "category": "コンビニ", "category_id": "0200487", "time": ["00:00-24:00"], "star": 4.41, "review": 25}, {"name": "ファミリーマート 清原テクノ店", "address": "栃木県宇都宮市ゆいの杜4-1-47", "lat": 36.5679253, "lon": 139.9875965, "category": "コンビニ", "category_id": "0200487", "time": ["00:00-24:00"], "star": 3.82, "review": 25}, {"name": "ローソン 宇都宮テクノポリスセンター", "address": "栃木県宇都宮市ゆいの杜7-8-4", "lat": 36.5740663, "lon": 139.9907236, "category": "コンビニ", "category_id": "0200487", "time": ["00:00-24:00"], "star": 4.13, "review": 41}, {"name": "セブンイレブン 宇都宮ゆいの杜北", "address": "栃木県宇都宮市ゆいの杜7-9-2", "lat": 36.5748968, "lon": 139.9929623, "category": "コンビニ", "category_id": "0200487", "time": ["00:00-24:00"], "star": 4.05, "review": 33}, {"name": "カスミ テクノポリス清原店", "address": "栃木県宇都宮市ゆいの杜5-26-29", "lat": 36.566898, "lon": 140.0018616, "category": "スーパー", "category_id": "0200612", "time": ["09:00-24:00"], "star": 3.28, "review": 147}, {"name": "エコス たいらやゆいの杜店", "address": "栃木県宇都宮市ゆいの杜4-12-2", "lat": 36.5680865, "lon": 139.9906267, "category": "スーパー", "category_id": "0200612", "time": ["09:00-23:00"], "star": 3.91, "review": 62}], "ラーメン": [{"name": "麺屋虎龍", "address": "栃木県宇都宮市ゆいの杜6-17-1", "lat": 36.568171668225, "lon": 139.99464489318, "category": "ラーメン店", "category_id": "0100097", "time": ["07:00-15:00", "17:30-22:00"], "star": 3.98, "review": 38}, {"name": "ラーメン山岡家 テクノポリスセンター店", "address": "栃木県宇都宮市ゆいの杜5丁目10-8", "lat": 36.56748939, "lon": 139.99329865, "category": "ラーメン店", "category_id": "0100097", "time": ["00:00-24:00"], "star": 4.11, "review": 61}, {"name": "中華蕎麦しのざき", "address": "栃木県宇都宮市清原台3-18-2", "lat": 36.56009803, "lon": 139.99234354, "category": "ラーメン店", "category_id": "0100097", "time": ["11:00-14:15", "18:00-21:00"], "star": 4.21, "review": 54}, {"name": "満天家 ゆいの杜店", "address": "栃木県宇都宮市ゆいの杜6-17-26", "lat": 36.56780551, "lon": 139.99537703, "category": "ラーメン店", "category_id": "0100097", "time": ["11:00-22:30"], "star": 3.59, "review": 43}, {"name": "ラーメン☆ビリー 宇都宮店", "address": "栃木県宇都宮市ゆいの杜4丁目1-59", "lat": 36.56808918, "lon": 139.98733537, "category": "飲食店", "category_id": "0102732", "time": ["11:00-22:00"], "star": 4.2, "review": 6}, {"name": "幸楽苑 宇都宮テクノポリス店", "address": "栃木県宇都宮市ゆいの杜5-26-20", "lat": 36.56734513, "lon": 140.00049789, "category": "ラーメン店", "category_id": "0100097", "time": ["08:00-22:00"], "star": 3.96, "review": 32}], "飲食店": [{"name": "Mori no Cafe", "address": "栃木県宇都宮市ゆいの杜5-15-2 ヤクルトサービスセンター ゆいの杜 2F", "lat": 36.567417500076, "lon": 139.99679242853, "category": "カフェ・喫茶", "category_id": "0100344", "time": ["10:30-19:00"], "star": 3.68, "review": 9}, {"name": "居酒屋 こふで", "address": "栃木県宇都宮市ゆいの杜5-12-38", "lat": 36.56631953, "lon": 139.99313011, "category": "居酒屋", "category_id": "0101495", "time": ["17:00-23:00"], "star": 4.03, "review": 9}, {"name": "カフェ イヴァーノ", "address": "栃木県宇都宮市ゆいの杜6-7-10 テクノポリス宇都宮", "lat": 36.5712495, "lon": 139.99387398, "category": "カフェ・喫茶", "category_id": "0100344", "time": ["11:30-14:30", "17:30-21:15"], "star": 4.09, "review": 27}, {"name": "やよい軒 宇都宮テクノポリス店", "address": "栃木県宇都宮市ゆいの杜6-1-25", "lat": 36.567881, "lon": 139.9942513, "category": "定食屋", "category_id": "0101441", "time": ["10:00-24:00"], "star": 3.92, "review": 36}, {"name": "ラーメン☆ビリー 宇都宮店", "address": "栃木県宇都宮市ゆいの杜4丁目1-59", "lat": 36.56808918, "lon": 139.98733537, "category": "飲食店", "category_id": "0102732", "time": ["11:00-22:00"], "star": 4.2, "review": 6}, {"name": "ジョイフル 宇都宮テクノポリス店", "address": "栃木県宇都宮市ゆいの杜4-14-13", "lat": 36.567956, "lon": 139.9922043, "category": "ファミリーレストラン", "category_id": "0100788", "time": ["00:00-24:00"], "star": 3.71, "review": 35}, {"name": "スターバックス コーヒー 宇都宮ゆいの杜店", "address": "栃木県宇都宮市ゆいの杜4-12-17", "lat": 36.568056, "lon": 139.991936, "category": "コーヒー店", "category_id": "0100496", "time": ["07:00-23:00"], "star": 4.34, "review": 99}, {"name": "旬菜ダイニング 櫻月堂", "address": "栃木県宇都宮市野高谷町592-1", "lat": 36.56992312, "lon": 139.98725279, "category": "レストラン", "category_id": "0100111", "time": ["11:30-14:30", "17:30-21:30"], "star": 3.7, "review": 5}, {"name": "焼肉みやま", "address": "栃木県宇都宮市野高谷町1140", "lat": 36.56586613, "lon": 139.99955555, "category": "焼肉店", "category_id": "0101963", "time": ["11:00-14:00", "17:00-22:00"], "star": 4.05, "review": 21}, {"name": "しゃぶ葉 宇都宮ゆいの杜店", "address": "栃木県宇都宮市ゆいの杜6丁目17-23 ", "lat": 36.56782, "lon": 139.9958, "category": "しゃぶしゃぶ店", "category_id": "0100095", "time": ["11:00-23:30"], "star": 4.09, "review": 25}, {"name": "御食事処 竹亭", "address": "栃木県宇都宮市野高谷町314-1", "lat": 36.56588429, "lon": 139.99251936, "category": "定食屋", "category_id": "0101441", "time": [], "star": 2.87, "review": 8}, {"name": "ゆいのもりDOG CAFE", "address": "栃木県宇都宮市野高谷町1165-1", "lat": 36.56360988823, "lon": 140.00073258313, "category": "カフェ・喫茶", "category_id": "0100344", "time": ["09:00-20:00"], "star": 0.0, "review": 0}, {"name": "ステーキハウス 杣", "address": "栃木県宇都宮市野高谷町1152", "lat": 36.56521347, "lon": 140.0010468, "category": "ステーキ店", "category_id": "0100570", "time": ["11:00-15:00", "17:00-22:00"], "star": 3.7, "review": 33}, {"name": "肉と秘伝のたれ ゆいの杜", "address": "栃木県宇都宮市ゆいの杜7-1-22", "lat": 36.571609, "lon": 139.993746, "category": "ステーキ店", "category_id": "0100570", "time": ["10:00-14:30", "16:00-21:00"], "star": 3.2, "review": 4}, {"name": "満天家 ゆいの杜店", "address": "栃木県宇都宮市ゆいの杜6-17-26", "lat": 36.56780551, "lon": 139.99537703, "category": "ラーメン店", "category_id": "0100097", "time": ["11:00-22:30"], "star": 3.59, "review": 43}, {"name": "魚べい　ゆいの杜店", "address": "栃木県宇都宮市ゆいの杜6-17-31", "lat": 36.56785328, "lon": 139.99491791, "category": "回転寿司店", "category_id": "0101332", "time": ["11:00-22:30"], "star": 4.1, "review": 77}, {"name": "華", "address": "栃木県宇都宮市ゆいの杜5-16-7", "lat": 36.56705784, "lon": 139.99596783, "category": "中華料理店", "category_id": "0100990", "time": ["11:30-14:30", "17:30-21:30"], "star": 3.7, "review": 2}, {"name": "ラーメン山岡家 テクノポリスセンター店", "address": "栃木県宇都宮市ゆいの杜5丁目10-8", "lat": 36.56748939, "lon": 139.99329865, "category": "ラーメン店", "category_id": "0100097", "time": ["00:00-24:00"], "star": 4.11, "review": 61}, {"name": "麺屋虎龍", "address": "栃木県宇都宮市ゆいの杜6-17-1", "lat": 36.568171668225, "lon": 139.99464489318, "category": "ラーメン店", "category_id": "0100097", "time": ["07:00-15:00", "17:30-22:00"], "star": 3.98, "review": 38}, {"name": "Filo", "address": "栃木県宇都宮市ゆいの杜5-1-23", "lat": 36.5667221, "lon": 139.98681827, "category": "カフェ・喫茶", "category_id": "0100344", "time": ["11:30-21:00"], "star": 3.81, "review": 8}], "カフェ": [{"name": "Mori no Cafe", "address": "栃木県宇都宮市ゆいの杜5-15-2 ヤクルトサービスセンター ゆいの杜 2F", "lat": 36.567417500076, "lon": 139.99679242853, "category": "カフェ・喫茶", "category_id": "0100344", "time": ["10:30-19:00"], "star": 3.68, "review": 9}, {"name": "カフェ イヴァーノ", "address": "栃木県宇都宮市ゆいの杜6-7-10 テクノポリス宇都宮", "lat": 36.5712495, "lon": 139.99387398, "category": "カフェ・喫茶", "category_id": "0100344", "time": ["11:30-14:30", "17:30-21:15"], "star": 4.09, "review": 27}, {"name": "スターバックス コーヒー 宇都宮ゆいの杜店", "address": "栃木県宇都宮市ゆいの杜4-12-17", "lat": 36.568056, "lon": 139.991936, "category": "コーヒー店", "category_id": "0100496", "time": ["07:00-23:00"], "star": 4.34, "review": 99}, {"name": "ゆいのもりDOG CAFE", "address": "栃木県宇都宮市野高谷町1165-1", "lat": 36.56360988823, "lon": 140.00073258313, "category": "カフェ・喫茶", "category_id": "0100344", "time": ["09:00-20:00"], "star": 0.0, "review": 0}, {"name": "Filo", "address": "栃木県宇都宮市ゆいの杜5-1-23", "lat": 36.5667221, "lon": 139.98681827, "category": "カフェ・喫茶", "category_id": "0100344", "time": ["11:30-21:00"], "star": 3.81, "review": 8}, {"name": "カフェ・パルチーノ", "address": "栃木県宇都宮市清原台3丁目9-33", "lat": 36.561461, "lon": 139.992833, "category": "カフェ・喫茶", "category_id": "0100344", "time": [], "star": 0.0, "review": 0}, {"name": "ジョイフル 宇都宮テクノポリス店", "address": "栃木県宇都宮市ゆいの杜4-14-13", "lat": 36.567956, "lon": 139.9922043, "category": "ファミリーレストラン", "category_id": "0100788", "time": ["00:00-24:00"], "star": 3.71, "review": 35}], "ドラッグストア": [{"name": "コスモス ゆいの杜店", "address": "栃木県宇都宮市ゆいの杜7-13-33", "lat": 36.572775, "lon": 139.9986812, "category": "ドラッグストア", "category_id": "0200699", "time": ["10:00-21:00"], "star": 4.44, "review": 71}, {"name": "ウエルシア宇都宮テクノポリス店", "address": "栃木県宇都宮市野高谷町5-26-29", "lat": 36.566661, "lon": 140.001387, "category": "ドラッグストア", "category_id": "0200699", "time": ["09:00-24:00"], "star": 4.3, "review": 15}, {"name": "カワチ薬品 ゆいの杜店", "address": "栃木県宇都宮市ゆいの杜6-8-4", "lat": 36.5713278, "lon": 139.9942512, "category": "ドラッグストア", "category_id": "0200699", "time": ["09:00-21:00"], "star": 4.04, "review": 56}, {"name": "ツルハドラッグ 宇都宮ゆいの杜店", "address": "栃木県宇都宮市ゆいの杜7丁目1番28号", "lat": 36.57161388, "lon": 139.99320959, "category": "ドラッグストア", "category_id": "0200699", "time": ["09:00-23:00"], "star": 4.12, "review": 36}, {"name": "マツモトキヨシ ドラッグストア 宇都宮テクノポリス店", "address": "栃木県宇都宮市ゆいの杜4-2-32", "lat": 36.5689891, "lon": 139.9872881, "category": "ドラッグストア", "category_id": "0200699", "time": ["10:00-22:00"], "star": 3.94, "review": 40}, {"name": "ウエルシア宇都宮テクノポリス店 (調剤薬局)", "address": "栃木県宇都宮市ゆいの杜5-26-29ウエルシア宇都宮テクノポリス店内", "lat": 36.566661, "lon": 140.001387, "category": "調剤薬局", "category_id": "0202315", "time": ["09:00-20:00"], "star": 0.0, "review": 1}, {"name": "ピノキオ薬局 ゆいの杜店", "address": "栃木県宇都宮市ゆいの杜6-2-30", "lat": 36.56922417, "lon": 139.99309859, "category": "調剤薬局", "category_id": "0202315", "time": ["09:00-18:00"], "star": 0.0, "review": 1}, {"name": "カスミ テクノポリス清原店", "address": "栃木県宇都宮市ゆいの杜5-26-29", "lat": 36.566898, "lon": 140.0018616, "category": "スーパー", "category_id": "0200612", "time": ["09:00-24:00"], "star": 3.28, "review": 147}, {"name": "あまいろ薬局", "address": "栃木県宇都宮市ゆいの杜7丁目9-2", "lat": 36.57483708, "lon": 139.99271783, "category": "調剤薬局", "category_id": "0202315", "time": [], "star": 0.0, "review": 0}], "ATM": [{"name": "ゆうちょ銀行 ゆいの杜郵便局", "address": "栃木県宇都宮市ゆいの杜5-15-5", "lat": 36.5673189, "lon": 139.996278, "category": "銀行", "category_id": "0402596", "time": [], "star": 0.0, "review": 0}, {"name": "イオン銀行 ATM テクノポリス清原店出張所(店内)", "address": "栃木県宇都宮市ゆいの杜5-26-29", "lat": 36.5669005, "lon": 140.001837, "category": "ATM", "category_id": "0402785", "time": ["09:00-24:00"], "star": 0.0, "review": 0}, {"name": "みずほ銀行 ATM テクノポリス清原店出張所", "address": "栃木県宇都宮市ゆいの杜5-26-29", "lat": 36.5668903, "lon": 140.001858, "category": "ATM", "category_id": "0402785", "time": [], "star": 0.0, "review": 0}, {"name": "セブン銀行 宇都宮ゆいの杜5丁目店", "address": "栃木県宇都宮市ゆいの杜5-14-3", "lat": 36.5673875, "lon": 139.995007, "category": "ATM", "category_id": "0402785", "time": ["00:00-24:00"], "star": 0.0, "review": 0}, {"name": "栃木銀行 テクノポリス支店", "address": "栃木県宇都宮市ゆいの杜3-2-20", "lat": 36.5707527, "lon": 139.9873686, "category": "銀行", "category_id": "0402596", "time": ["09:00-11:30", "12:30-15:00"], "star": 4.5, "review": 1}, {"name": "ゆうちょ銀行 ATM ゆいの杜郵便局", "address": "栃木県宇都宮市ゆいの杜5-15-5", "lat": 36.5672807, "lon": 139.996326, "category": "ATM", "category_id": "0402785", "time": [], "star": 0.0, "review": 0}, {"name": "セブン銀行 宇都宮テクノポリス店", "address": "栃木県宇都宮市ゆいの杜8-1-53", "lat": 36.5677475, "lon": 140.001793, "category": "ATM", "category_id": "0402785", "time": ["00:00-24:00"], "star": 0.0, "review": 0}, {"name": "栃木銀行 ATM テクノポリス支店", "address": "栃木県宇都宮市ゆいの杜3-2-20", "lat": 36.5707761, "lon": 139.987365, "category": "ATM", "category_id": "0402785", "time": [], "star": 0.0, "review": 0}, {"name": "ゆうちょ銀行 ATM ファミリーマート清原テクノ店内出張所", "address": "栃木県宇都宮市ゆいの杜4-1-47", "lat": 36.5679196, "lon": 139.987713, "category": "ATM", "category_id": "0402785", "time": [], "star": 0.0, "review": 0}, {"name": "セブン銀行 宇都宮ゆいの杜北店", "address": "栃木県宇都宮市ゆいの杜7-9-2", "lat": 36.5748788, "lon": 139.992973, "category": "ATM", "category_id": "0402785", "time": ["00:00-24:00"], "star": 0.0, "review": 0}, {"name": "セブン銀行 宇都宮刈沼店", "address": "栃木県宇都宮市ゆいの杜3-1-35", "lat": 36.5703857, "lon": 139.98748, "category": "ATM", "category_id": "0402785", "time": ["00:00-24:00"], "star": 0.0, "review": 0}, {"name": "ローソン銀行 宇都宮テクノポリスセンター共同出張所", "address": "栃木県宇都宮市ゆいの杜7-8-4", "lat": 36.5740566, "lon": 139.990755, "category": "ATM", "category_id": "0402785", "time": ["00:00-24:00"], "star": 0.0, "review": 0}], "スーパーマーケット": [{"name": "カスミ テクノポリス清原店", "address": "栃木県宇都宮市ゆいの杜5-26-29", "lat": 36.566898, "lon": 140.0018616, "category": "スーパー", "category_id": "0200612", "time": ["09:00-24:00"], "star": 3.28, "review": 147}, {"name": "エコス たいらやゆいの杜店", "address": "栃木県宇都宮市ゆいの杜4-12-2", "lat": 36.5680865, "lon": 139.9906267, "category": "スーパー", "category_id": "0200612", "time": ["09:00-23:00"], "star": 3.91, "review": 62}, {"name": "業務スーパー ゆいの杜店", "address": "栃木県宇都宮市ゆいの杜5-10-5", "lat": 36.5674394, "lon": 139.9928043, "category": "スーパー", "category_id": "0200612", "time": ["09:00-20:00"], "star": 3.0, "review": 1}, {"name": "ウエルシア宇都宮テクノポリス店", "address": "栃木県宇都宮市野高谷町5-26-29", "lat": 36.566661, "lon": 140.001387, "category": "ドラッグストア", "category_id": "0200699", "time": ["09:00-24:00"], "star": 4.3, "review": 15}, {"name": "コスモス ゆいの杜店", "address": "栃木県宇都宮市ゆいの杜7-13-33", "lat": 36.572775, "lon": 139.9986812, "category": "ドラッグストア", "category_id": "0200699", "time": ["10:00-21:00"], "star": 4.44, "review": 71}, {"name": "カワチ薬品 ゆいの杜店", "address": "栃木県宇都宮市ゆいの杜6-8-4", "lat": 36.5713278, "lon": 139.9942512, "category": "ドラッグストア", "category_id": "0200699", "time": ["09:00-21:00"], "star": 4.04, "review": 56}]}, "top_restaurant": {"name": "スターバックス コーヒー 宇都宮ゆいの杜店", "category": "コーヒー店", "star": 4.34, "review": 99}}, {"name": "ゆいの杜西", "name_en": "Yuinomori-west", "lat": 36.5671605, "lon": 139.9862545, "osm_id": 11133420832, "operator": "宇都宮ライトレール", "railway": "tram_stop", "wikidata": "Q108195032", "wikipedia_tag": "ja:ゆいの杜西停留場", "lines": [], "pref": "栃木県", "nearby_bus_stops": [{"name": "イベントホール前", "lat": 36.5657066, "lon": 139.986189, "distance_m": 162, "operator": "宇都宮市地域内交通"}, {"name": "斉藤内科クリニック", "lat": 36.5656818, "lon": 139.9860656, "distance_m": 165, "operator": "宇都宮市地域内交通"}, {"name": "清原台入口", "lat": 36.5656663, "lon": 139.9860599, "distance_m": 167, "operator": "宇都宮市地域内交通"}, {"name": "ゆいの杜かましん前", "lat": 36.5688745, "lon": 139.9869475, "distance_m": 200, "operator": "宇都宮市地域内交通"}, {"name": "かましん", "lat": 36.5694375, "lon": 139.9861036, "distance_m": 254, "operator": "宇都宮市地域内交通"}], "nearest_convenience": {"name": "セブン-イレブン", "lat": 36.5750747, "lon": 139.9931485, "address": "", "distance_m": 1074, "brand": "セブン-イレブン"}, "nearest_restaurant": {"name": "焼肉きんぐ", "lat": 36.5669675, "lon": 139.9864246, "address": "", "distance_m": 26, "cuisine": "japanese"}, "nearby_pois": {"コンビニ": [{"name": "ファミリーマート 清原テクノ店", "address": "栃木県宇都宮市ゆいの杜4-1-47", "lat": 36.5679253, "lon": 139.9875965, "category": "コンビニ", "category_id": "0200487", "time": ["00:00-24:00"], "star": 3.82, "review": 25}, {"name": "セブンイレブン 宇都宮刈沼", "address": "栃木県宇都宮市ゆいの杜3-1-35", "lat": 36.5704056, "lon": 139.9874103, "category": "コンビニ", "category_id": "0200487", "time": ["00:00-24:00"], "star": 4.41, "review": 25}, {"name": "ファミリーマート レイト宇都宮テクノ/S店", "address": "栃木県宇都宮市ゆいの杜1-2-46", "lat": 36.5678599, "lon": 139.985824, "category": "コンビニ", "category_id": "0200487", "time": ["09:00-22:45"], "star": 0.0, "review": 0}, {"name": "ローソン 宇都宮テクノポリスセンター", "address": "栃木県宇都宮市ゆいの杜7-8-4", "lat": 36.5740663, "lon": 139.9907236, "category": "コンビニ", "category_id": "0200487", "time": ["00:00-24:00"], "star": 4.13, "review": 41}, {"name": "セブン-イレブン 宇都宮ゆいの杜５丁目店", "address": "栃木県宇都宮市ゆいの杜5-14-3", "lat": 36.5673889, "lon": 139.9953669, "category": "ガソリンスタンド", "category_id": "0400414", "time": ["00:00-24:00"], "star": 4.4, "review": 2}, {"name": "エコス たいらやゆいの杜店", "address": "栃木県宇都宮市ゆいの杜4-12-2", "lat": 36.5680865, "lon": 139.9906267, "category": "スーパー", "category_id": "0200612", "time": ["09:00-23:00"], "star": 3.91, "review": 62}, {"name": "かましん ゆいの杜店", "address": "栃木県宇都宮市ゆいの杜1-2-21", "lat": 36.569239, "lon": 139.9856744, "category": "スーパー", "category_id": "0200612", "time": ["09:30-22:00"], "star": 4.06, "review": 148}], "ラーメン": [{"name": "ラーメン☆ビリー 宇都宮店", "address": "栃木県宇都宮市ゆいの杜4丁目1-59", "lat": 36.56808918, "lon": 139.98733537, "category": "飲食店", "category_id": "0102732", "time": ["11:00-22:00"], "star": 4.2, "review": 6}, {"name": "正宗", "address": "栃木県宇都宮市ゆいの杜3-3-40", "lat": 36.57228395, "lon": 139.98768708, "category": "ラーメン店", "category_id": "0100097", "time": ["10:45-22:30"], "star": 4.04, "review": 66}, {"name": "中華蕎麦しのざき", "address": "栃木県宇都宮市清原台3-18-2", "lat": 36.56009803, "lon": 139.99234354, "category": "ラーメン店", "category_id": "0100097", "time": ["11:00-14:15", "18:00-21:00"], "star": 4.21, "review": 54}, {"name": "麺屋虎龍", "address": "栃木県宇都宮市ゆいの杜6-17-1", "lat": 36.568171668225, "lon": 139.99464489318, "category": "ラーメン店", "category_id": "0100097", "time": ["07:00-15:00", "17:30-22:00"], "star": 3.98, "review": 38}, {"name": "ラーメン山岡家 テクノポリスセンター店", "address": "栃木県宇都宮市ゆいの杜5丁目10-8", "lat": 36.56748939, "lon": 139.99329865, "category": "ラーメン店", "category_id": "0100097", "time": ["00:00-24:00"], "star": 4.11, "review": 61}, {"name": "満天家 ゆいの杜店", "address": "栃木県宇都宮市ゆいの杜6-17-26", "lat": 36.56780551, "lon": 139.99537703, "category": "ラーメン店", "category_id": "0100097", "time": ["11:00-22:30"], "star": 3.59, "review": 43}], "飲食店": [{"name": "ラーメン☆ビリー 宇都宮店", "address": "栃木県宇都宮市ゆいの杜4丁目1-59", "lat": 36.56808918, "lon": 139.98733537, "category": "飲食店", "category_id": "0102732", "time": ["11:00-22:00"], "star": 4.2, "review": 6}, {"name": "旬菜ダイニング 櫻月堂", "address": "栃木県宇都宮市野高谷町592-1", "lat": 36.56992312, "lon": 139.98725279, "category": "レストラン", "category_id": "0100111", "time": ["11:30-14:30", "17:30-21:30"], "star": 3.7, "review": 5}, {"name": "Filo", "address": "栃木県宇都宮市ゆいの杜5-1-23", "lat": 36.5667221, "lon": 139.98681827, "category": "カフェ・喫茶", "category_id": "0100344", "time": ["11:30-21:00"], "star": 3.81, "review": 8}, {"name": "さかい珈琲 宇都宮ゆいの杜店", "address": "栃木県宇都宮市野高谷町429-5", "lat": 36.56725305, "lon": 139.9826609, "category": "カフェ・喫茶", "category_id": "0100344", "time": ["09:00-21:00"], "star": 4.09, "review": 46}, {"name": "肉将軍", "address": "栃木県宇都宮市野高谷町433-1", "lat": 36.56749747, "lon": 139.98298585, "category": "ホルモン焼肉店", "category_id": "0100859", "time": ["17:00-25:00"], "star": 4.5, "review": 1}, {"name": "焼肉きんぐ 宇都宮ゆいの杜店", "address": "栃木県宇都宮市ゆいの杜1-1-1 ", "lat": 36.56694762, "lon": 139.98632998, "category": "焼肉店", "category_id": "0101963", "time": ["17:00-23:00"], "star": 4.19, "review": 35}, {"name": "とんかつ みくりや", "address": "栃木県宇都宮市ゆいの杜4-1-59", "lat": 36.568066, "lon": 139.987287, "category": "とんかつ店", "category_id": "0100159", "time": ["11:30-14:30", "17:00-20:30"], "star": 3.72, "review": 7}, {"name": "居酒屋 こふで", "address": "栃木県宇都宮市ゆいの杜5-12-38", "lat": 36.56631953, "lon": 139.99313011, "category": "居酒屋", "category_id": "0101495", "time": ["17:00-23:00"], "star": 4.03, "review": 9}, {"name": "スターバックス コーヒー 宇都宮ゆいの杜店", "address": "栃木県宇都宮市ゆいの杜4-12-17", "lat": 36.568056, "lon": 139.991936, "category": "コーヒー店", "category_id": "0100496", "time": ["07:00-23:00"], "star": 4.34, "review": 99}, {"name": "ジョイフル 宇都宮テクノポリス店", "address": "栃木県宇都宮市ゆいの杜4-14-13", "lat": 36.567956, "lon": 139.9922043, "category": "ファミリーレストラン", "category_id": "0100788", "time": ["00:00-24:00"], "star": 3.71, "review": 35}, {"name": "おれん家 ホルモン", "address": "栃木県宇都宮市道場宿町744-1", "lat": 36.565578188222, "lon": 139.97911474317, "category": "ホルモン焼肉店", "category_id": "0100859", "time": ["17:00-24:00"], "star": 4.35, "review": 2}, {"name": "カフェ イヴァーノ", "address": "栃木県宇都宮市ゆいの杜6-7-10 テクノポリス宇都宮", "lat": 36.5712495, "lon": 139.99387398, "category": "カフェ・喫茶", "category_id": "0100344", "time": ["11:30-14:30", "17:30-21:15"], "star": 4.09, "review": 27}, {"name": "若森", "address": "栃木県宇都宮市満美穴町549-1", "lat": 36.56707611, "lon": 139.98172211, "category": "蕎麦店", "category_id": "0100034", "time": ["11:00-15:00", "17:30-20:00"], "star": 4.05, "review": 20}, {"name": "ルートイン宇都宮ゆいの杜", "address": "栃木県宇都宮市ゆいの杜1丁目2番88号", "lat": 36.56781414, "lon": 139.98452457, "category": "ホテル", "category_id": "0300124", "time": ["00:00-24:00"], "star": 4.33, "review": 36}, {"name": "暖龍 テクノポリス店", "address": "栃木県宇都宮市野高谷765-1", "lat": 36.56760626, "lon": 139.99076392, "category": "中華料理店", "category_id": "0100990", "time": ["11:00-22:00"], "star": 3.78, "review": 34}, {"name": "御食事処 竹亭", "address": "栃木県宇都宮市野高谷町314-1", "lat": 36.56588429, "lon": 139.99251936, "category": "定食屋", "category_id": "0101441", "time": [], "star": 2.87, "review": 8}, {"name": "Mori no Cafe", "address": "栃木県宇都宮市ゆいの杜5-15-2 ヤクルトサービスセンター ゆいの杜 2F", "lat": 36.567417500076, "lon": 139.99679242853, "category": "カフェ・喫茶", "category_id": "0100344", "time": ["10:30-19:00"], "star": 3.68, "review": 9}, {"name": "マクドナルド 宇都宮テクノポリスセンター店", "address": "栃木県宇都宮市ゆいの杜1-2-77", "lat": 36.5673947, "lon": 139.9840135, "category": "ハンバーガー店", "category_id": "0100722", "time": [], "star": 4.11, "review": 105}, {"name": "創作中華 自宅レストラン 木陰のトカゲ", "address": "栃木県宇都宮市清原台3-25-5", "lat": 36.55896677823, "lon": 139.98924490309, "category": "中華料理店", "category_id": "0100990", "time": ["11:30-15:00", "17:30-21:00"], "star": 4.2, "review": 27}, {"name": "正宗", "address": "栃木県宇都宮市ゆいの杜3-3-40", "lat": 36.57228395, "lon": 139.98768708, "category": "ラーメン店", "category_id": "0100097", "time": ["10:45-22:30"], "star": 4.04, "review": 66}], "カフェ": [{"name": "さかい珈琲 宇都宮ゆいの杜店", "address": "栃木県宇都宮市野高谷町429-5", "lat": 36.56725305, "lon": 139.9826609, "category": "カフェ・喫茶", "category_id": "0100344", "time": ["09:00-21:00"], "star": 4.09, "review": 46}, {"name": "Filo", "address": "栃木県宇都宮市ゆいの杜5-1-23", "lat": 36.5667221, "lon": 139.98681827, "category": "カフェ・喫茶", "category_id": "0100344", "time": ["11:30-21:00"], "star": 3.81, "review": 8}, {"name": "カフェ イヴァーノ", "address": "栃木県宇都宮市ゆいの杜6-7-10 テクノポリス宇都宮", "lat": 36.5712495, "lon": 139.99387398, "category": "カフェ・喫茶", "category_id": "0100344", "time": ["11:30-14:30", "17:30-21:15"], "star": 4.09, "review": 27}, {"name": "Mori no Cafe", "address": "栃木県宇都宮市ゆいの杜5-15-2 ヤクルトサービスセンター ゆいの杜 2F", "lat": 36.567417500076, "lon": 139.99679242853, "category": "カフェ・喫茶", "category_id": "0100344", "time": ["10:30-19:00"], "star": 3.68, "review": 9}, {"name": "スターバックス コーヒー 宇都宮ゆいの杜店", "address": "栃木県宇都宮市ゆいの杜4-12-17", "lat": 36.568056, "lon": 139.991936, "category": "コーヒー店", "category_id": "0100496", "time": ["07:00-23:00"], "star": 4.34, "review": 99}, {"name": "カフェ・パルチーノ", "address": "栃木県宇都宮市清原台3丁目9-33", "lat": 36.561461, "lon": 139.992833, "category": "カフェ・喫茶", "category_id": "0100344", "time": [], "star": 0.0, "review": 0}, {"name": "ジョイフル 宇都宮テクノポリス店", "address": "栃木県宇都宮市ゆいの杜4-14-13", "lat": 36.567956, "lon": 139.9922043, "category": "ファミリーレストラン", "category_id": "0100788", "time": ["00:00-24:00"], "star": 3.71, "review": 35}, {"name": "創作中華 自宅レストラン 木陰のトカゲ", "address": "栃木県宇都宮市清原台3-25-5", "lat": 36.55896677823, "lon": 139.98924490309, "category": "中華料理店", "category_id": "0100990", "time": ["11:30-15:00", "17:30-21:00"], "star": 4.2, "review": 27}], "ドラッグストア": [{"name": "マツモトキヨシ ドラッグストア 宇都宮テクノポリス店", "address": "栃木県宇都宮市ゆいの杜4-2-32", "lat": 36.5689891, "lon": 139.9872881, "category": "ドラッグストア", "category_id": "0200699", "time": ["10:00-22:00"], "star": 3.94, "review": 40}, {"name": "ウエルシア宇都宮清原台店", "address": "栃木県宇都宮市清原台1-14-1", "lat": 36.564631, "lon": 139.986125, "category": "ドラッグストア", "category_id": "0200699", "time": ["08:00-24:00"], "star": 4.22, "review": 22}, {"name": "カワチ薬品 ゆいの杜店", "address": "栃木県宇都宮市ゆいの杜6-8-4", "lat": 36.5713278, "lon": 139.9942512, "category": "ドラッグストア", "category_id": "0200699", "time": ["09:00-21:00"], "star": 4.04, "review": 56}, {"name": "ツルハドラッグ 宇都宮ゆいの杜店", "address": "栃木県宇都宮市ゆいの杜7丁目1番28号", "lat": 36.57161388, "lon": 139.99320959, "category": "ドラッグストア", "category_id": "0200699", "time": ["09:00-23:00"], "star": 4.12, "review": 36}, {"name": "とちぎ薬局清原台店", "address": "栃木県宇都宮市清原台1丁目9", "lat": 36.56624992, "lon": 139.98616198, "category": "調剤薬局", "category_id": "0202315", "time": ["09:00-18:30"], "star": 0.0, "review": 0}, {"name": "ウエルシア宇都宮清原台店 (調剤薬局)", "address": "栃木県宇都宮市清原台1-14-1ウエルシア宇都宮清原台店内", "lat": 36.564631, "lon": 139.986125, "category": "調剤薬局", "category_id": "0202315", "time": ["10:00-14:00", "15:00-18:30"], "star": 0.0, "review": 0}, {"name": "ピノキオ薬局 ゆいの杜店", "address": "栃木県宇都宮市ゆいの杜6-2-30", "lat": 36.56922417, "lon": 139.99309859, "category": "調剤薬局", "category_id": "0202315", "time": ["09:00-18:00"], "star": 0.0, "review": 1}, {"name": "とちの木薬局清原台店", "address": "栃木県宇都宮市清原台3丁目3-7", "lat": 36.56018351, "lon": 139.98995742, "category": "調剤薬局", "category_id": "0202315", "time": [], "star": 0.0, "review": 0}], "ATM": [{"name": "栃木銀行 テクノポリス支店", "address": "栃木県宇都宮市ゆいの杜3-2-20", "lat": 36.5707527, "lon": 139.9873686, "category": "銀行", "category_id": "0402596", "time": ["09:00-11:30", "12:30-15:00"], "star": 4.5, "review": 1}, {"name": "足利銀行 ATM かましんゆいの杜店", "address": "栃木県宇都宮市ゆいの杜1-2-21 1F 入口", "lat": 36.569506, "lon": 139.985998, "category": "ATM", "category_id": "0402785", "time": [], "star": 0.0, "review": 0}, {"name": "栃木銀行 ATM テクノポリス支店", "address": "栃木県宇都宮市ゆいの杜3-2-20", "lat": 36.5707761, "lon": 139.987365, "category": "ATM", "category_id": "0402785", "time": [], "star": 0.0, "review": 0}, {"name": "ゆうちょ銀行 ATM ファミリーマート清原テクノ店内出張所", "address": "栃木県宇都宮市ゆいの杜4-1-47", "lat": 36.5679196, "lon": 139.987713, "category": "ATM", "category_id": "0402785", "time": [], "star": 0.0, "review": 0}, {"name": "栃木銀行 ATM かましん ゆいの杜店", "address": "栃木県宇都宮市ゆいの杜1-2-21", "lat": 36.5693181, "lon": 139.986029, "category": "ATM", "category_id": "0402785", "time": [], "star": 0.0, "review": 0}, {"name": "銀行ATM イーネット ファミリーマートレイト宇都宮テクノ共同出張所", "address": "栃木県宇都宮市ゆいの杜1-2-46 ", "lat": 36.56779196, "lon": 139.98590499, "category": "ATM", "category_id": "0402785", "time": ["09:00-22:45"], "star": 0.0, "review": 0}, {"name": "セブン銀行 宇都宮刈沼店", "address": "栃木県宇都宮市ゆいの杜3-1-35", "lat": 36.5703857, "lon": 139.98748, "category": "ATM", "category_id": "0402785", "time": ["00:00-24:00"], "star": 0.0, "review": 0}, {"name": "ゆうちょ銀行 ATM ゆいの杜郵便局", "address": "栃木県宇都宮市ゆいの杜5-15-5", "lat": 36.5672807, "lon": 139.996326, "category": "ATM", "category_id": "0402785", "time": [], "star": 0.0, "review": 0}, {"name": "セブン銀行 宇都宮ゆいの杜5丁目店", "address": "栃木県宇都宮市ゆいの杜5-14-3", "lat": 36.5673875, "lon": 139.995007, "category": "ATM", "category_id": "0402785", "time": ["00:00-24:00"], "star": 0.0, "review": 0}, {"name": "ゆうちょ銀行 ゆいの杜郵便局", "address": "栃木県宇都宮市ゆいの杜5-15-5", "lat": 36.5673189, "lon": 139.996278, "category": "銀行", "category_id": "0402596", "time": [], "star": 0.0, "review": 0}, {"name": "宝くじ ATM 足利銀行かましんゆいの杜店", "address": "栃木県宇都宮市ゆいの杜1-2-21", "lat": 36.5694643, "lon": 139.986006, "category": "宝くじ売り場", "category_id": "0401442", "time": ["09:30-21:00"], "star": 0.0, "review": 0}, {"name": "ローソン銀行 宇都宮テクノポリスセンター共同出張所", "address": "栃木県宇都宮市ゆいの杜7-8-4", "lat": 36.5740566, "lon": 139.990755, "category": "ATM", "category_id": "0402785", "time": ["00:00-24:00"], "star": 0.0, "review": 0}], "スーパーマーケット": [{"name": "かましん ゆいの杜店", "address": "栃木県宇都宮市ゆいの杜1-2-21", "lat": 36.569239, "lon": 139.9856744, "category": "スーパー", "category_id": "0200612", "time": ["09:30-22:00"], "star": 4.06, "review": 148}, {"name": "エコス たいらやゆいの杜店", "address": "栃木県宇都宮市ゆいの杜4-12-2", "lat": 36.5680865, "lon": 139.9906267, "category": "スーパー", "category_id": "0200612", "time": ["09:00-23:00"], "star": 3.91, "review": 62}, {"name": "業務スーパー ゆいの杜店", "address": "栃木県宇都宮市ゆいの杜5-10-5", "lat": 36.5674394, "lon": 139.9928043, "category": "スーパー", "category_id": "0200612", "time": ["09:00-20:00"], "star": 3.0, "review": 1}, {"name": "カワチ薬品 ゆいの杜店", "address": "栃木県宇都宮市ゆいの杜6-8-4", "lat": 36.5713278, "lon": 139.9942512, "category": "ドラッグストア", "category_id": "0200699", "time": ["09:00-21:00"], "star": 4.04, "review": 56}]}, "top_restaurant": {"name": "肉将軍", "category": "ホルモン焼肉店", "star": 4.5, "review": 1}}, {"name": "ゆいの杜西", "name_en": "Yuinomori-west", "lat": 36.5674513, "lon": 139.9872795, "osm_id": 11133420833, "operator": "宇都宮ライトレール", "railway": "tram_stop", "wikidata": "Q108195032", "wikipedia_tag": "ja:ゆいの杜西停留場", "lines": [], "pref": "栃木県", "nearby_bus_stops": [{"name": "ゆいの杜かましん前", "lat": 36.5688745, "lon": 139.9869475, "distance_m": 161, "operator": "宇都宮市地域内交通"}, {"name": "イベントホール前", "lat": 36.5657066, "lon": 139.986189, "distance_m": 217, "operator": "宇都宮市地域内交通"}, {"name": "斉藤内科クリニック", "lat": 36.5656818, "lon": 139.9860656, "distance_m": 225, "operator": "宇都宮市地域内交通"}, {"name": "清原台入口", "lat": 36.5656663, "lon": 139.9860599, "distance_m": 226, "operator": "宇都宮市地域内交通"}, {"name": "かましん", "lat": 36.5694375, "lon": 139.9861036, "distance_m": 245, "operator": "宇都宮市地域内交通"}], "nearest_convenience": {"name": "セブン-イレブン", "lat": 36.5750747, "lon": 139.9931485, "address": "", "distance_m": 997, "brand": "セブン-イレブン"}, "nearest_restaurant": {"name": "焼肉きんぐ", "lat": 36.5669675, "lon": 139.9864246, "address": "", "distance_m": 93, "cuisine": "japanese"}, "nearby_pois": {"コンビニ": [{"name": "ファミリーマート 清原テクノ店", "address": "栃木県宇都宮市ゆいの杜4-1-47", "lat": 36.5679253, "lon": 139.9875965, "category": "コンビニ", "category_id": "0200487", "time": ["00:00-24:00"], "star": 3.82, "review": 25},