[{"name": "七ツ屋", "name_en": "Nanatsuya", "lat": 36.5830997, "lon": 136.6517842, "osm_id": 8606216813, "operator": "北陸鉄道株式会社", "railway": "halt", "wikidata": "Q11353350", "wikipedia_tag": "ja:七ツ屋駅", "lines": [], "pref": "石川県", "nearby_bus_stops": [{"name": "中島大橋", "lat": 36.579385, "lon": 136.654885, "distance_m": 497, "operator": "ふらっとバス"}], "wikipedia_text": "七ツ屋駅（ななつやえき）は、石川県金沢市北安江にある北陸鉄道浅野川線の駅である。駅番号はA02。", "wikipedia_image": "https://upload.wikimedia.org/wikipedia/commons/9/90/Nanatsuya-STA_Entrance.jpg", "nearest_convenience": {"name": "サークルK 金沢諸江通り店", "lat": 36.5828987, "lon": 136.6481732, "address": "", "distance_m": 323, "brand": ""}, "nearest_restaurant": {"name": "ステーキ片瀬", "lat": 36.5815784, "lon": 136.6489893, "address": "", "distance_m": 301, "cuisine": "steak_house"}, "nearby_pois": {"コンビニ": [{"name": "100banマート", "address": "石川県金沢市木ノ新保町1-1 金沢百番街 あんと西 2F", "lat": 36.578342037153, "lon": 136.64798269563, "category": "スーパー", "category_id": "0200612", "time": ["09:00-20:30"], "star": 3.73, "review": 30}, {"name": "ファミリーマート 金沢堀川店", "address": "石川県金沢市堀川町976-5", "lat": 36.5803556, "lon": 136.6523378, "category": "コンビニ", "category_id": "0200487", "time": ["00:00-24:00"], "star": 4.13, "review": 15}, {"name": "セブンイレブン 金沢店", "address": "石川県金沢市木ノ新保町1-1", "lat": 36.578506117153, "lon": 136.64836940563, "category": "", "category_id": "", "time": [], "star": 0.0, "review": 0}, {"name": "セブンイレブン 金沢京町", "address": "石川県金沢市京町2-26", "lat": 36.5810361, "lon": 136.6565875, "category": "コンビニ", "category_id": "0200487", "time": ["00:00-24:00"], "star": 4.07, "review": 14}, {"name": "ファミリーマート 金沢リファーレ店", "address": "石川県金沢市本町1-5-3", "lat": 36.5760172, "lon": 136.6514658, "category": "コンビニ", "category_id": "0200487", "time": ["00:00-24:00"], "star": 4.24, "review": 32}, {"name": "ファミリーマート 金沢諸江通り店", "address": "石川県金沢市北安江1-14-1", "lat": 36.5828718, "lon": 136.6482185, "category": "コンビニ", "category_id": "0200487", "time": ["00:00-24:00"], "star": 3.44, "review": 16}, {"name": "ファミリーマート 金沢駅西口店", "address": "石川県金沢市北安江1-2-15", "lat": 36.5813831, "lon": 136.6486741, "category": "コンビニ", "category_id": "0200487", "time": ["00:00-24:00"], "star": 2.64, "review": 39}, {"name": "セブンイレブン ハートインJR金沢駅西NKビル", "address": "石川県金沢市広岡3-3-77", "lat": 36.5812609, "lon": 136.646627, "category": "コンビニ", "category_id": "0200487", "time": ["00:00-24:00"], "star": 3.98, "review": 13}, {"name": "セブンイレブン ハートインJR金沢駅", "address": "石川県金沢市広岡1-7-1", "lat": 36.5785696, "lon": 136.6474493, "category": "コンビニ", "category_id": "0200487", "time": ["05:00-25:30"], "star": 3.96, "review": 281}, {"name": "セブンイレブン 金沢北安江4丁目", "address": "石川県金沢市北安江4-11-27", "lat": 36.5881099, "lon": 136.646935, "category": "コンビニ", "category_id": "0200487", "time": ["00:00-24:00"], "star": 4.08, "review": 40}, {"name": "ファミリーマート 金沢東大通り店", "address": "石川県金沢市昌永町17-8", "lat": 36.5808139, "lon": 136.6576513, "category": "コンビニ", "category_id": "0200487", "time": ["00:00-24:00"], "star": 3.26, "review": 10}, {"name": "セブンイレブン ハートイン金沢けやき通り", "address": "石川県金沢市広岡2-13-33", "lat": 36.5798804, "lon": 136.6438105, "category": "コンビニ", "category_id": "0200487", "time": ["00:00-24:00"], "star": 4.05, "review": 19}, {"name": "ローソン 金沢駅金沢港口", "address": "石川県金沢市広岡1-9-25", "lat": 36.5780197, "lon": 136.646541, "category": "コンビニ", "category_id": "0200487", "time": ["00:00-24:00"], "star": 3.94, "review": 72}, {"name": "セブンイレブン 金沢昭和町", "address": "石川県金沢市昭和町16-1", "lat": 36.5760727, "lon": 136.6483965, "category": "コンビニ", "category_id": "0200487", "time": ["00:00-24:00"], "star": 3.7, "review": 45}, {"name": "kanazawa food market", "address": "石川県金沢市堀川新町1-11", "lat": 36.57871, "lon": 136.65006, "category": "コンビニ", "category_id": "0200487", "time": ["11:30-19:00"], "star": 3.0, "review": 0}, {"name": "ファミリーマート 金沢本町店", "address": "石川県金沢市本町2-20-28", "lat": 36.5755867, "lon": 136.6510464, "category": "コンビニ", "category_id": "0200487", "time": ["00:00-24:00"], "star": 3.71, "review": 22}, {"name": "セブンイレブン キヨスクIR金沢駅中2階", "address": "石川県金沢市木ノ新保町1-1 キヨスク JR金沢駅 M2F", "lat": 36.5784085, "lon": 136.6478604, "category": "コンビニ", "category_id": "0200487", "time": ["06:30-20:30"], "star": 3.87, "review": 58}, {"name": "ファミリーマート 金沢広岡三丁目店", "address": "石川県金沢市広岡3-3-47", "lat": 36.5829328, "lon": 136.6455714, "category": "コンビニ", "category_id": "0200487", "time": ["00:00-24:00"], "star": 3.58, "review": 13}, {"name": "ファミリーマート 金沢本町二丁目店", "address": "石川県金沢市本町2-11-7 金沢フコク生命駅前ビル 1F", "lat": 36.5755034, "lon": 136.6487354, "category": "コンビニ", "category_id": "0200487", "time": ["00:00-24:00"], "star": 3.89, "review": 20}, {"name": "セブンイレブン キヨスクJR金沢駅幹線中2階", "address": "石川県金沢市木ノ新保町1-1 キヨスク JR金沢駅 M2F", "lat": 36.5787501, "lon": 136.6482659, "category": "コンビニ", "category_id": "0200487", "time": ["05:40-21:00"], "star": 3.77, "review": 43}], "ラーメン": [{"name": "博多ラーメン べすとん", "address": "石川県金沢市堀川町27-2", "lat": 36.581176237153, "lon": 136.65257827566, "category": "ラーメン店", "category_id": "0100097", "time": ["11:00-15:00", "18:00-23:30"], "star": 3.78, "review": 10}, {"name": "旨壱麺", "address": "石川県金沢市広岡3-301-2", "lat": 36.580513992159, "lon": 136.64609986994, "category": "ラーメン店", "category_id": "0100097", "time": [], "star": 4.0, "review": 1}, {"name": "晴れのち時雨", "address": "石川県金沢市此花町8-15", "lat": 36.578079847154, "lon": 136.65138829563, "category": "ラーメン店", "category_id": "0100097", "time": ["11:30-14:30", "18:00-20:00"], "star": 3.74, "review": 28}, {"name": "ご当地ラーメン巡", "address": "石川県金沢市堀川町27-2", "lat": 36.58118906, "lon": 136.65261715, "category": "ラーメン店", "category_id": "0100097", "time": [], "star": 3.65, "review": 25}, {"name": "ラーメン太る", "address": "石川県金沢市広岡1-3-29", "lat": 36.58139143, "lon": 136.64776856, "category": "飲食店", "category_id": "0102732", "time": ["11:00-14:00", "18:00-21:00"], "star": 3.57, "review": 9}, {"name": "イカボン堂", "address": "石川県金沢市本町2-9-1", "lat": 36.574513198926, "lon": 136.64866361042, "category": "海鮮丼店", "category_id": "0101882", "time": [], "star": 4.0, "review": 2}, {"name": "丸三らーめん", "address": "石川県金沢市此花町10-18", "lat": 36.57856221, "lon": 136.6527392, "category": "ラーメン店", "category_id": "0100097", "time": ["12:00-14:00", "21:00-25:00"], "star": 3.96, "review": 17}, {"name": "弓月", "address": "石川県金沢市此花町5-6", "lat": 36.577286407155, "lon": 136.65093321562, "category": "ラーメン店", "category_id": "0100097", "time": ["18:00-23:30"], "star": 4.16, "review": 36}, {"name": "8番らーめん 金沢駅店", "address": "石川県金沢市木ノ新保町1-1 金沢百番街 あんと 1F", "lat": 36.577703, "lon": 136.647591, "category": "ラーメン店", "category_id": "0100097", "time": ["10:00-22:00"], "star": 4.02, "review": 338}, {"name": "万味", "address": "石川県金沢市本町2-9-29", "lat": 36.57456739, "lon": 136.64877103, "category": "ラーメン店", "category_id": "0100097", "time": ["18:00-25:00"], "star": 3.95, "review": 53}, {"name": "金澤濃厚甘えびラーメン 紅牡丹", "address": "石川県金沢市昭和町14-11", "lat": 36.575742077155, "lon": 136.64738602561, "category": "ラーメン店", "category_id": "0100097", "time": ["11:30-15:00", "18:00-22:00"], "star": 3.87, "review": 14}, {"name": "金沢吉宗 金沢駅前店", "address": "石川県金沢市此花町4-10 ファングスクエア 1F", "lat": 36.577368227155, "lon": 136.65109467562, "category": "ラーメン店", "category_id": "0100097", "time": ["11:00-14:30", "17:00-27:00"], "star": 3.76, "review": 42}, {"name": "十割そば 越前", "address": "石川県金沢市此花町3-2 ライブ1ビル1F", "lat": 36.576855247919, "lon": 136.65141568386, "category": "蕎麦店", "category_id": "0100034", "time": [], "star": 4.17, "review": 8}, {"name": "味噌専門 麺屋 大河", "address": "石川県金沢市堀川町6-3", "lat": 36.57881689, "lon": 136.65234171, "category": "味噌ラーメン店", "category_id": "0102949", "time": ["11:00-14:30", "17:30-22:30"], "star": 4.21, "review": 261}, {"name": "麺屋 白鷺", "address": "石川県金沢市木ノ新保町1-1 百番街あんと西 百番キッチン", "lat": 36.578457209928, "lon": 136.64740219431, "category": "ラーメン店", "category_id": "0100097", "time": ["11:00-21:00"], "star": 3.53, "review": 10}, {"name": "風花", "address": "石川県金沢市此花町2-4", "lat": 36.57667136, "lon": 136.65253763, "category": "ラーメン店", "category_id": "0100097", "time": ["11:00-14:00", "17:00-21:00"], "star": 3.82, "review": 41}, {"name": "らうめん 侍", "address": "石川県金沢市木ノ新保町1-1 金沢百番街 くつろぎ館 3F", "lat": 36.578387540812, "lon": 136.64721566101, "category": "ラーメン店", "category_id": "0100097", "time": ["11:00-22:00"], "star": 3.89, "review": 142}, {"name": "麺屋 達 金沢駅前店", "address": "石川県金沢市此花町9-18", "lat": 36.57844695450456, "lon": 136.6521790236983, "category": "ラーメン店", "category_id": "0100097", "time": ["11:00-14:00", "18:00-24:00"], "star": 3.53, "review": 8}, {"name": "一風堂 金沢FORUS店", "address": "石川県金沢市堀川新町3-1 6F", "lat": 36.5793362, "lon": 136.6498018, "category": "とんこつラーメン店", "category_id": "0102948", "time": ["11:00-22:00"], "star": 3.72, "review": 19}, {"name": "手揉み中華そば まるもも", "address": "石川県金沢市本町2丁目9-1", "lat": 36.57456738, "lon": 136.64868547, "category": "ラーメン店", "category_id": "0100097", "time": ["07:00-14:00"], "star": 4.55, "review": 3}], "飲食店": [{"name": "Doctor’s Creation Cafe87", "address": "石川県金沢市広岡3-3-70", "lat": 36.581815153606, "lon": 136.64706623552, "category": "カフェ・喫茶", "category_id": "0100344", "time": [], "star": 3.9, "review": 16}, {"name": "べルーガカフェ 金沢店", "address": "石川県金沢市堀川新町8-16 ユニゾインエクスプレス金沢駅前1F", "lat": 36.5806976, "lon": 136.650472, "category": "カフェ・喫茶", "category_id": "0100344", "time": [], "star": 4.21, "review": 2}, {"name": "はた中season3", "address": "石川県金沢市此花町4-21", "lat": 36.577839207155, "lon": 136.65143509562, "category": "寿司店", "category_id": "0100101", "time": ["11:30-15:00"], "star": 4.01, "review": 13}, {"name": "和洋創菜レストラン 万咲 金沢マンテンホテル駅前", "address": "石川県金沢市北安江1-6-1 金沢マンテンホテル駅前1F", "lat": 36.581580837596, "lon": 136.64969403781, "category": "居酒屋", "category_id": "0101495", "time": [], "star": 3.0, "review": 3}, {"name": "お味噌汁食堂 そらみそ 金沢百番街リント店", "address": "石川県金沢市木ノ新保町1-1 金沢百番街 RINTO", "lat": 36.578691307153, "lon": 136.64833083564, "category": "和食店", "category_id": "0100126", "time": ["10:00-20:00"], "star": 4.13, "review": 64}, {"name": "ロンヴェット", "address": "石川県金沢市七ツ屋町12-2 2F", "lat": 36.584356505183, "lon": 136.65214223157, "category": "ベトナム料理店", "category_id": "0100834", "time": ["11:00-21:00"], "star": 2.95, "review": 2}, {"name": "町の踊場 蔵カフェ", "address": "石川県金沢市瓢箪町7-6", "lat": 36.578290136351, "lon": 136.65720779446, "category": "カフェ・喫茶", "category_id": "0100344", "time": ["11:00-17:00"], "star": 4.08, "review": 5}, {"name": "インフュージョン", "address": "石川県金沢市堀川町6-20", "lat": 36.578787636349, "lon": 136.65252489447, "category": "バー", "category_id": "0100536", "time": [], "star": 3.65, "review": 4}, {"name": "BELUGA CAFE", "address": "石川県金沢市堀川新町8-16", "lat": 36.580698184899, "lon": 136.6505305571, "category": "カフェ・喫茶", "category_id": "0100344", "time": [], "star": 3.0, "review": 1}, {"name": "金沢かつぞう 金沢駅あんと店", "address": "石川県金沢市木ノ新保町1-1 金沢百番街あんと", "lat": 36.577804147153, "lon": 136.64718005563, "category": "とんかつ店", "category_id": "0100159", "time": ["11:00-22:00"], "star": 4.23, "review": 40}, {"name": "ユナイテッドシネマ金沢 売店", "address": "石川県金沢市高柳町1-70-1 ユナイテッドシネマ金沢 1F", "lat": 36.589648136344, "lon": 136.65870039458, "category": "カフェ・喫茶", "category_id": "0100344", "time": [], "star": 2.94, "review": 6}, {"name": "異世界CAFEパブロフの犬", "address": "石川県金沢市本町1-8-18 リヴ･アレン 1F シュレディンガーの猫内", "lat": 36.576398988545, "lon": 136.65362103748, "category": "カフェ・喫茶", "category_id": "0100344", "time": [], "star": 4.5, "review": 1}, {"name": "はるまき家 本店", "address": "石川県金沢市京町25-20 ソフトオフィスビル 1F", "lat": 36.581433377155, "lon": 136.65863474566, "category": "飲茶・点心店", "category_id": "0101493", "time": [], "star": 3.91, "review": 7}, {"name": "オアシス", "address": "石川県金沢市堀川新町3-1-6F", "lat": 36.5793514, "lon": 136.6498149, "category": "カフェ・喫茶", "category_id": "0100344", "time": [], "star": 0.0, "review": 1}, {"name": "鮨 髙森", "address": "石川県金沢市本町1-3-12", "lat": 36.574836817157, "lon": 136.65249464559, "category": "寿司店", "category_id": "0100101", "time": [], "star": 3.88, "review": 6}, {"name": "WAFLA クロスゲート金沢店", "address": "石川県金沢市広岡1-5-3 クロスゲート金沢1F", "lat": 36.580067761867, "lon": 136.64793007732, "category": "カフェ・喫茶", "category_id": "0100344", "time": [], "star": 4.11, "review": 9}, {"name": "十割そば 越前", "address": "石川県金沢市此花町3-2 ライブ1ビル1F", "lat": 36.576855247919, "lon": 136.65141568386, "category": "蕎麦店", "category_id": "0100034", "time": [], "star": 4.17, "review": 8}, {"name": "TOMATO HOUSE", "address": "石川県金沢市堀川町5-2", "lat": 36.578653599009, "lon": 136.65194130441, "category": "レストラン", "category_id": "0100111", "time": [], "star": 3.4, "review": 2}, {"name": "鮨きのした", "address": "石川県金沢市此花町3-2 ライブ1ビル 1F", "lat": 36.576916407155, "lon": 136.65166387562, "category": "寿司店", "category_id": "0100101", "time": ["17:30-23:00"], "star": 3.88, "review": 10}, {"name": "H レストラン", "address": "石川県金沢市広岡1-5-2 ハイアット セントリック 金沢 3F", "lat": 36.579962957152, "lon": 136.64838698565, "category": "レストラン", "category_id": "0100111", "time": [], "star": 3.4, "review": 2}], "カフェ": [{"name": "Doctor’s Creation Cafe87", "address": "石川県金沢市広岡3-3-70", "lat": 36.581815153606, "lon": 136.64706623552, "category": "カフェ・喫茶", "category_id": "0100344", "time": [], "star": 3.9, "review": 16}, {"name": "町の踊場 蔵カフェ", "address": "石川県金沢市瓢箪町7-6", "lat": 36.578290136351, "lon": 136.65720779446, "category": "カフェ・喫茶", "category_id": "0100344", "time": ["11:00-17:00"], "star": 4.08, "review": 5}, {"name": "べルーガカフェ 金沢店", "address": "石川県金沢市堀川新町8-16 ユニゾインエクスプレス金沢駅前1F", "lat": 36.5806976, "lon": 136.650472, "category": "カフェ・喫茶", "category_id": "0100344", "time": [], "star": 4.21, "review": 2}, {"name": "異世界CAFEパブロフの犬", "address": "石川県金沢市本町1-8-18 リヴ･アレン 1F シュレディンガーの猫内", "lat": 36.576398988545, "lon": 136.65362103748, "category": "カフェ・喫茶", "category_id": "0100344", "time": [], "star": 4.5, "review": 1}, {"name": "BELUGA CAFE", "address": "石川県金沢市堀川新町8-16", "lat": 36.580698184899, "lon": 136.6505305571, "category": "カフェ・喫茶", "category_id": "0100344", "time": [], "star": 3.0, "review": 1}, {"name": "オアシス", "address": "石川県金沢市堀川新町3-1-6F", "lat": 36.5793514, "lon": 136.6498149, "category": "カフェ・喫茶", "category_id": "0100344", "time": [], "star": 0.0, "review": 1}, {"name": "WAFLA クロスゲート金沢店", "address": "石川県金沢市広岡1-5-3 クロスゲート金沢1F", "lat": 36.580067761867, "lon": 136.64793007732, "category": "カフェ・喫茶", "category_id": "0100344", "time": [], "star": 4.11, "review": 9}, {"name": "つちのこ舎", "address": "石川県金沢市七ツ屋町1-3", "lat": 36.5837537, "lon": 136.65246344, "category": "カフェ・喫茶", "category_id": "0100344", "time": [], "star": 4.5, "review": 1}, {"name": "ブレディット カフェ&ベーカリーコー", "address": "石川県金沢市堀川新町3-1 金沢フォーラス 1F", "lat": 36.579347537153, "lon": 136.64981039564, "category": "ベーカリー", "category_id": "0100522", "time": ["10:00-21:00"], "star": 3.29, "review": 8}, {"name": "ユナイテッドシネマ金沢 売店", "address": "石川県金沢市高柳町1-70-1 ユナイテッドシネマ金沢 1F", "lat": 36.589648136344, "lon": 136.65870039458, "category": "カフェ・喫茶", "category_id": "0100344", "time": [], "star": 2.94, "review": 6}, {"name": "マジックカフェ&バー BELIEVE", "address": "石川県金沢市本町2-1-20 金城ビル1F", "lat": 36.5746661, "lon": 136.6510484, "category": "", "category_id": "", "time": [], "star": 2.75, "review": 0}, {"name": "Herb&CafeCoCo", "address": "石川県金沢市笠市町4-10", "lat": 36.577691082582, "lon": 136.65451717439, "category": "カフェ・喫茶", "category_id": "0100344", "time": [], "star": 0.0, "review": 0}, {"name": "アンゴロカフェ", "address": "石川県金沢市笠市町10-1", "lat": 36.578185907156, "lon": 136.65551921563, "category": "カフェ・喫茶", "category_id": "0100344", "time": ["08:00-16:30"], "star": 4.27, "review": 58}, {"name": "百年珈琲 POP UP marche", "address": "石川県金沢市木ノ新保町1-1 金沢百番街Rinto1F", "lat": 36.579018823664, "lon": 136.64875248231, "category": "カフェ・喫茶", "category_id": "0100344", "time": [], "star": 3.9, "review": 1}, {"name": "オムライスとパフェ 胡京 komachi 金沢駅西店", "address": "石川県金沢市北安江1-5-35 K-2ウエスト片瀬ビル2F", "lat": 36.58157198, "lon": 136.64907958, "category": "カフェ・喫茶", "category_id": "0100344", "time": [], "star": 3.05, "review": 15}, {"name": "カフェ 加賀麩不室屋", "address": "石川県金沢市木ノ新保町7-1-1 JR金沢駅 金沢百番街･あんと 西 百番キッチン 1F", "lat": 36.578438646384, "lon": 136.64721149234, "category": "カフェ・喫茶", "category_id": "0100344", "time": ["09:00-21:00"], "star": 4.1, "review": 101}, {"name": "洋菓子工房ぶどうの森 金沢百番街店", "address": "石川県金沢市木ノ新保町1-1 金沢百番街あんと 1F", "lat": 36.578460325835, "lon": 136.64807614175, "category": "洋菓子店", "category_id": "0101856", "time": [], "star": 4.38, "review": 5}, {"name": "謎屋珈琲店 金沢本店", "address": "石川県金沢市安江町19-6", "lat": 36.57639588, "lon": 136.65425364, "category": "コーヒー店", "category_id": "0100496", "time": ["07:00-22:00"], "star": 4.27, "review": 66}, {"name": "カフェ 安江町ジャルダン", "address": "石川県金沢市安江町18-12 Machiya5 1F", "lat": 36.57623145, "lon": 136.65390422, "category": "カフェ・喫茶", "category_id": "0100344", "time": [], "star": 4.11, "review": 24}, {"name": "サニーベルコーヒー", "address": "石川県金沢市笠市町5-8", "lat": 36.57647921, "lon": 136.6546, "category": "カフェ・喫茶", "category_id": "0100344", "time": ["11:00-18:00"], "star": 4.09, "review": 15}], "ドラッグストア": [{"name": "マツモトキヨシ 薬 金沢駅西口店", "address": "石川県金沢市木ノ新保町1-1 金沢百番街 あんと西 2F", "lat": 36.5785446, "lon": 136.6474326, "category": "ドラッグストア", "category_id": "0200699", "time": [], "star": 3.68, "review": 23}, {"name": "クスリのアオキ 浅野本町店", "address": "石川県金沢市昌永町15-50", "lat": 36.5808223, "lon": 136.6585679, "category": "ドラッグストア", "category_id": "0200699", "time": ["09:00-22:00"], "star": 4.0, "review": 73}, {"name": "マツモトキヨシ 薬 金沢駅西口店", "address": "石川県金沢市木ノ新保町1-1 金沢百番街 あんと西 2F", "lat": 36.5783091, "lon": 136.648153, "category": "調剤薬局", "category_id": "0202315", "time": ["09:30-20:30"], "star": 4.0, "review": 3}, {"name": "なの花薬局 金沢駅前はあと薬局", "address": "石川県金沢市本町2-15-1 ポルテ金沢 1F", "lat": 36.5762728, "lon": 136.649409, "category": "調剤薬局", "category_id": "0202315", "time": ["09:00-19:00"], "star": 4.6, "review": 1}, {"name": "クスリのアオキ調剤 浅野本町店", "address": "石川県金沢市昌永町15-50", "lat": 36.5808505, "lon": 136.658577, "category": "調剤薬局", "category_id": "0202315", "time": ["09:00-22:00"], "star": 3.0, "review": 3}, {"name": "京町とくひさ薬局", "address": "石川県金沢市京町207-1", "lat": 36.58058547973633, "lon": 136.6561737060547, "category": "調剤薬局", "category_id": "0202315", "time": ["09:00-19:00"], "star": 0.0, "review": 0}, {"name": "あおぞら薬局 広岡店", "address": "石川県金沢市広岡1丁目12-1", "lat": 36.576263427734375, "lon": 136.6460723876953, "category": "調剤薬局", "category_id": "0202315", "time": ["08:30-17:30"], "star": 4.25, "review": 0}, {"name": "菜の花薬局", "address": "石川県金沢市京町2-18", "lat": 36.58113137, "lon": 136.6565144, "category": "調剤薬局", "category_id": "0202315", "time": ["09:00-19:30"], "star": 0.0, "review": 0}, {"name": "若葉らいふ薬局", "address": "石川県金沢市沖町二31", "lat": 36.59015146, "lon": 136.6563232, "category": "薬局・薬店関連", "category_id": "0202317", "time": ["08:30-18:00"], "star": 0.0, "review": 0}, {"name": "ラン薬局 広岡店", "address": "石川県金沢市広岡3丁目1-1", "lat": 36.580064205811, "lon": 136.64519711914, "category": "調剤薬局", "category_id": "0202315", "time": ["09:00-17:00"], "star": 0.0, "review": 1}, {"name": "ムライ薬局", "address": "石川県金沢市此花町3-2", "lat": 36.57686521, "lon": 136.65130525, "category": "調剤薬局", "category_id": "0202315", "time": [], "star": 0.0, "review": 0}, {"name": "あおぞら薬局 スコール店", "address": "石川県金沢市広岡3丁目3番70号", "lat": 36.582008361816406, "lon": 136.64674377441406, "category": "薬店", "category_id": "0202316", "time": ["09:00-18:00"], "star": 0.0, "review": 0}, {"name": "グランファルマ株式会社", "address": "石川県金沢市本町1丁目5-2", "lat": 36.57551243, "lon": 136.65181636, "category": "調剤薬局", "category_id": "0202315", "time": [], "star": 0.0, "review": 0}, {"name": "あおぞら薬局 金沢駅西口店", "address": "石川県金沢市広岡1丁目1-5", "lat": 36.57801818847656, "lon": 136.64511108398438, "category": "調剤薬局", "category_id": "0202315", "time": ["09:00-18:00"], "star": 0.0, "review": 0}, {"name": "田中屋薬局", "address": "石川県金沢市堀川町10-5", "lat": 36.5796893, "lon": 136.65406879, "category": "漢方", "category_id": "0201946", "time": [], "star": 0.0, "review": 0}, {"name": "アルプ薬局本町", "address": "石川県金沢市本町1丁目3-38", "lat": 36.57499854, "lon": 136.65259969, "category": "調剤薬局", "category_id": "0202315", "time": [], "star": 0.0, "review": 0}, {"name": "北陸クオール株式会社", "address": "石川県金沢市沖町ニ31", "lat": 36.59203794, "lon": 136.65234337, "category": "調剤薬局", "category_id": "0202315", "time": [], "star": 0.0, "review": 0}, {"name": "太陽薬草院", "address": "石川県金沢市七ツ屋町ニ1", "lat": 36.58954449, "lon": 136.64975029, "category": "漢方", "category_id": "0201946", "time": [], "star": 0.0, "review": 0}], "ATM": [{"name": "北國銀行 ATM JR金沢駅", "address": "石川県金沢市木ノ新保町7-5-12", "lat": 36.5776015, "lon": 136.64742, "category": "ATM", "category_id": "0402785", "time": [], "star": 4.33, "review": 3}, {"name": "北陸銀行 ATM 金沢フォーラス", "address": "石川県金沢市堀川新町3-1", "lat": 36.5793575, "lon": 136.649824, "category": "ATM", "category_id": "0402785", "time": [], "star": 0.0, "review": 0}, {"name": "北國銀行北安江支店", "address": "石川県金沢市北安江2丁目24-5", "lat": 36.5873017, "lon": 136.6483071, "category": "銀行", "category_id": "0402596", "time": ["09:00-15:00"], "star": 3.8, "review": 5}, {"name": "北國銀行 本店営業部", "address": "石川県金沢市広岡2-12-6", "lat": 36.5790834, "lon": 136.644855, "category": "銀行", "category_id": "0402596", "time": ["09:00-15:00"], "star": 3.56, "review": 5}, {"name": "イオン銀行 ATM 金沢フォーラス出張所(1F エレベーター前)", "address": "石川県金沢市堀川新町3-1", "lat": 36.5791764, "lon": 136.649747, "category": "ATM", "category_id": "0402785", "time": ["10:00-20:00"], "star": 3.75, "review": 0}, {"name": "北陸銀行 ATM 金沢駅前支店", "address": "石川県金沢市本町2-15-1", "lat": 36.5767754, "lon": 136.6496048, "category": "銀行", "category_id": "0402596", "time": [], "star": 3.0, "review": 2}, {"name": "日本銀行 金沢支店", "address": "石川県金沢市広岡3-3-12", "lat": 36.58144899813893, "lon": 136.64500998416514, "category": "銀行", "category_id": "0402596", "time": [], "star": 3.25, "review": 2}, {"name": "みずほ銀行 ATM 金沢フォーラス出張所", "address": "石川県金沢市堀川新町3-1", "lat": 36.5792787, "lon": 136.649849, "category": "ATM", "category_id": "0402785", "time": [], "star": 2.88, "review": 0}, {"name": "ゆうちょ銀行 金沢駅内郵便局", "address": "石川県金沢市木ノ新保町1-1", "lat": 36.5783103, "lon": 136.647834, "category": "銀行", "category_id": "0402596", "time": [], "star": 4.5, "review": 0}, {"name": "みずほ銀行 ATM 金沢フォーラス第二出張所", "address": "石川県金沢市堀川新町3-1", "lat": 36.5794172, "lon": 136.649751, "category": "ATM", "category_id": "0402785", "time": [], "star": 4.5, "review": 0}, {"name": "北陸銀行 金沢中央支店", "address": "石川県金沢市駅西本町1-15-35", "lat": 36.5815107, "lon": 136.641194, "category": "銀行", "category_id": "0402596", "time": ["09:00-15:00"], "star": 4.0, "review": 3}, {"name": "北陸銀行 東大通支店", "address": "石川県金沢市元町2-16-2", "lat": 36.58202941, "lon": 136.66276699, "category": "銀行", "category_id": "0402596", "time": ["09:00-15:00"], "star": 4.29, "review": 3}, {"name": "JAバンク ATM 石川県信用農業協同組合連合会(JA石川信連)JR金沢駅", "address": "石川県金沢市木ノ新保町7-5-12", "lat": 36.5782304, "lon": 136.647944, "category": "ATM", "category_id": "0402785", "time": [], "star": 4.0, "review": 0}, {"name": "ゆうちょ銀行 ATM ファミリーマート金沢堀川店内出張所", "address": "石川県金沢市堀川町976-5", "lat": 36.5803511, "lon": 136.652336, "category": "ATM", "category_id": "0402785", "time": [], "star": 0.0, "review": 0}, {"name": "北國銀行 増泉支店", "address": "石川県金沢市広岡2-12-6", "lat": 36.5790945, "lon": 136.6448744, "category": "銀行", "category_id": "0402596", "time": ["09:00-15:00"], "star": 3.71, "review": 5}, {"name": "北國銀行 笠市支店", "address": "石川県金沢市広岡2-12-6", "lat": 36.5790945, "lon": 136.6448744, "category": "銀行", "category_id": "0402596", "time": [], "star": 3.0, "review": 3}, {"name": "銀行ATM イーネット ファミリーマート金沢駅西口 共同出張所", "address": "石川県金沢市北安江1-2-15 ", "lat": 36.581397, "lon": 136.648684, "category": "ATM", "category_id": "0402785", "time": ["00:00-24:00"], "star": 2.0, "review": 1}, {"name": "北陸銀行 金沢駅前支店", "address": "石川県金沢市本町2-15-1", "lat": 36.5767977, "lon": 136.6495909, "category": "銀行", "category_id": "0402596", "time": ["09:00-12:30"], "star": 0.0, "review": 1}, {"name": "北陸銀行 ATM JR西日本金沢駅", "address": "石川県金沢市木ノ新保町1-1", "lat": 36.5782382, "lon": 136.647842, "category": "ATM", "category_id": "0402785", "time": [], "star": 0.0, "review": 0}, {"name": "北國銀行 英町支店", "address": "石川県金沢市広岡2-12-6", "lat": 36.5791179, "lon": 136.644976, "category": "銀行", "category_id": "0402596", "time": [], "star": 4.67, "review": 0}], "銭湯 温泉": [{"name": "日帰り入浴 アパスパ金沢駅前", "address": "石川県金沢市広岡1-9-28", "lat": 36.5776253, "lon": 136.6466799, "category": "日帰り入浴", "category_id": "0401679", "time": ["06:00-24:00"], "star": 0.0, "review": 0}, {"name": "アパホテル 金沢駅前 玄要の湯", "address": "石川県金沢市広岡1-9-28", "lat": 36.57757573114506, "lon": 136.64658572694935, "category": "日帰り入浴", "category_id": "0401679", "time": ["06:00-24:00"], "star": 0.0, "review": 0}], "スーパーマーケット": [{"name": "100banマート", "address": "石川県金沢市木ノ新保町1-1 金沢百番街 あんと西 2F", "lat": 36.578342037153, "lon": 136.64798269563, "category": "スーパー", "category_id": "0200612", "time": ["09:00-20:30"], "star": 3.73, "review": 30}, {"name": "エーガイヤ", "address": "石川県金沢市木ノ新保町1-1 金沢百番街", "lat": 36.5785113, "lon": 136.6474132, "category": "スーパー", "category_id": "0200612", "time": ["09:00-20:30"], "star": 4.12, "review": 25}, {"name": "金沢フォーラス", "address": "石川県金沢市堀川新町3-1", "lat": 36.57926028, "lon": 136.6497221, "category": "スーパー", "category_id": "0200612", "time": ["10:00-20:00"], "star": 4.09, "review": 310}, {"name": "KAJIMARTクロスゲート店", "address": "石川県金沢市広岡1丁目5-3", "lat": 36.5797778, "lon": 136.6481158, "category": "スーパー", "category_id": "0200612", "time": [], "star": 3.9, "review": 6}, {"name": "ete 金沢フォーラス店", "address": "石川県金沢市堀川新町3-1 金沢フォーラス 2F", "lat": 36.579451, "lon": 136.650091, "category": "スーパー", "category_id": "0200612", "time": [], "star": 4.33, "review": 3}, {"name": "SLY 金沢フォーラス店", "address": "石川県金沢市堀川新町3-1 金沢フォーラス 3F", "lat": 36.5792596, "lon": 136.649583, "category": "スーパー", "category_id": "0200612", "time": ["10:00-20:00"], "star": 4.5, "review": 3}, {"name": "マルエー 彦三店", "address": "石川県金沢市彦三町2-9-9", "lat": 36.5756535, "lon": 136.6566321, "category": "スーパー", "category_id": "0200612", "time": ["09:30-22:30"], "star": 3.66, "review": 70}, {"name": "MOUSSY 金沢フォーラス店", "address": "石川県金沢市堀川新町3-1 金沢フォーラス 3F", "lat": 36.5791382, "lon": 136.649799, "category": "スーパー", "category_id": "0200612", "time": [], "star": 4.08, "review": 4}, {"name": "金沢フォーラス2Fビス(V.I.S)", "address": "石川県金沢市堀川新町3-1", "lat": 36.57934743, "lon": 136.64981042, "category": "スーパー", "category_id": "0200612", "time": [], "star": 4.5, "review": 2}, {"name": "金沢フォーラス4F エクストララージ", "address": "石川県金沢市堀川新町3-1", "lat": 36.57934743, "lon": 136.64981042, "category": "スーパー", "category_id": "0200612", "time": [], "star": 4.18, "review": 2}, {"name": "金沢フォーラス2F サンクメゾンパリ", "address": "石川県金沢市堀川新町3-1", "lat": 36.57934743, "lon": 136.64981042, "category": "スーパー", "category_id": "0200612", "time": [], "star": 4.0, "review": 1}, {"name": "金沢フォーラス1F マリメッコ", "address": "石川県金沢市堀川新町3-1", "lat": 36.57934743, "lon": 136.64981042, "category": "衣料品店", "category_id": "0201401", "time": [], "star": 4.5, "review": 6}, {"name": "PORTER CLASSIC KANAZAWA", "address": "石川県金沢市堀川新町3-1", "lat": 36.579396427532, "lon": 136.64978370768, "category": "スーパー", "category_id": "0200612", "time": ["10:00-20:00"], "star": 3.1, "review": 4}, {"name": "aimerfeel 金沢フォーラス店", "address": "石川県金沢市堀川新町3-1 金沢フォーラス 3F", "lat": 36.5797007, "lon": 136.650143, "category": "スーパー", "category_id": "0200612", "time": ["10:00-20:00"], "star": 3.88, "review": 2}, {"name": "金沢フォーラス 3FRNAメディア", "address": "石川県金沢市堀川新町3-1", "lat": 36.57914743, "lon": 136.64975209, "category": "スーパー", "category_id": "0200612", "time": [], "star": 3.5, "review": 1}, {"name": "金沢フォーラス3F ロペピクニック", "address": "石川県金沢市堀川新町3-1", "lat": 36.57934743, "lon": 136.64981042, "category": "スーパー", "category_id": "0200612", "time": [], "star": 3.88, "review": 6}, {"name": "金沢フォーラス3F エックスガール", "address": "石川県金沢市堀川新町3-1", "lat": 36.57934743, "lon": 136.64981042, "category": "スーパー", "category_id": "0200612", "time": [], "star": 3.88, "review": 3}, {"name": "金沢フォーラス1FQ", "address": "石川県金沢市堀川新町3-1", "lat": 36.57934743, "lon": 136.64981042, "category": "スーパー", "category_id": "0200612", "time": [], "star": 3.75, "review": 0}, {"name": "金沢フォーラス4Fレイジーブルー", "address": "石川県金沢市堀川新町3-1", "lat": 36.57934743, "lon": 136.64981042, "category": "スーパー", "category_id": "0200612", "time": [], "star": 0.0, "review": 1}, {"name": "金沢フォーラス事務所", "address": "石川県金沢市堀川新町3-1", "lat": 36.57934743, "lon": 136.64981042, "category": "スーパー", "category_id": "0200612", "time": [], "star": 0.0, "review": 0}]}, "top_restaurant": {"name": "手揉み中華そば まるもも", "category": "ラーメン店", "star": 4.55, "review": 3}}, {"name": "七尾", "name_en": "Nanao", "lat": 37.0419859, "lon": 136.9639832, "osm_id": 6641863484, "operator": "", "railway": "station", "wikidata": "Q6962435", "wikipedia_tag": "ja:七尾駅", "lines": [], "pref": "石川県", "nearby_bus_stops": [{"name": "七尾駅前 わくライナーバスのりば", "lat": 37.0426218, "lon": 136.9649114, "distance_m": 109, "operator": ""}], "wikipedia_text": "七尾駅（ななおえき）は、石川県七尾市御祓町にある、西日本旅客鉄道（JR西日本）・のと鉄道の駅である。", "wikipedia_image": "https://upload.wikimedia.org/wikipedia/commons/a/a9/Nanao_Station_2021.jpg", "nearest_convenience": {"name": "ファミリーマート", "lat": 37.0441582, "lon": 136.9639482, "address": "", "distance_m": 242, "brand": "FamilyMart"}, "nearest_restaurant": {"name": "がんばり屋", "lat": 37.0422163, "lon": 136.9646286, "address": "", "distance_m": 63, "cuisine": ""}, "nearby_pois": {"コンビニ": [{"name": "ファミリーマート 七尾駅前店", "address": "石川県七尾市御祓町ホ6-13", "lat": 37.0441264, "lon": 136.9638928, "category": "コンビニ", "category_id": "0200487", "time": ["00:00-24:00"], "star": 3.98, "review": 13}, {"name": "ファミリーマート 七尾川原町店", "address": "石川県七尾市川原町20-1", "lat": 37.0417741, "lon": 136.9694062, "category": "コンビニ", "category_id": "0200487", "time": ["00:00-24:00"], "star": 3.93, "review": 8}, {"name": "セブンイレブン 七尾本府中", "address": "石川県七尾市本府中町ヲ25-1", "lat": 37.0348999, "lon": 136.9691454, "category": "コンビニ", "category_id": "0200487", "time": ["00:00-24:00"], "star": 4.16, "review": 11}, {"name": "ファミリーマート 七尾藤橋町店", "address": "石川県七尾市藤橋町申47-1", "lat": 37.0400099, "lon": 136.9543217, "category": "コンビニ", "category_id": "0200487", "time": ["00:00-24:00"], "star": 3.92, "review": 5}, {"name": "セブンイレブン 七尾小島町", "address": "石川県七尾市小島町ヘ130-4", "lat": 37.0489256, "lon": 136.9574876, "category": "コンビニ", "category_id": "0200487", "time": ["00:00-24:00"], "star": 4.16, "review": 14}, {"name": "セブンイレブン 七尾常盤町", "address": "石川県七尾市常盤町6-4", "lat": 37.0493119, "lon": 136.963437, "category": "コンビニ", "category_id": "0200487", "time": ["00:00-24:00"], "star": 3.93, "review": 14}, {"name": "ローソン 恵寿病院", "address": "石川県七尾市富岡町94", "lat": 37.0507839, "lon": 136.9618288, "category": "コンビニ", "category_id": "0200487", "time": ["07:00-19:00"], "star": 3.5, "review": 5}, {"name": "どんたく アスティ店", "address": "石川県七尾市藤橋町申部4", "lat": 37.0402294, "lon": 136.9562992, "category": "スーパー", "category_id": "0200612", "time": ["09:30-21:00"], "star": 3.31, "review": 33}, {"name": "どんたく 東部店", "address": "石川県七尾市大和町チ部12-1", "lat": 37.0444851, "lon": 136.974675, "category": "スーパー", "category_id": "0200612", "time": ["08:00-20:00"], "star": 3.72, "review": 33}], "ラーメン": [{"name": "がんばり屋", "address": "石川県七尾市神明町イ-19-5", "lat": 37.04221692, "lon": 136.96462053, "category": "ラーメン店", "category_id": "0100097", "time": ["11:00-22:00"], "star": 3.91, "review": 21}, {"name": "うれしのきんちゃん", "address": "石川県七尾市神明町ト34-1", "lat": 37.0420407, "lon": 136.9655048, "category": "ラーメン店", "category_id": "0100097", "time": [], "star": 4.3, "review": 4}, {"name": "8番らーめん 七尾西店", "address": "石川県七尾市藤橋町申51-1", "lat": 37.0405737, "lon": 136.9548299, "category": "ラーメン店", "category_id": "0100097", "time": ["11:00-21:30"], "star": 3.95, "review": 65}, {"name": "らーめん亭", "address": "石川県七尾市府中町員外13-1 能登食祭市場", "lat": 37.049154446956, "lon": 136.96881953016, "category": "ラーメン店", "category_id": "0100097", "time": ["11:00-15:00", "17:00-20:00"], "star": 3.43, "review": 11}, {"name": "らーめん 誠や 七尾店", "address": "石川県七尾市藤橋町亥7-1", "lat": 37.03747857, "lon": 136.9554, "category": "ラーメン店", "category_id": "0100097", "time": ["11:00-15:00", "17:30-21:30"], "star": 3.78, "review": 26}, {"name": "香華園 川原町支店", "address": "石川県七尾市川原町1", "lat": 37.04323782, "lon": 136.96996355, "category": "中華料理店", "category_id": "0100990", "time": ["11:00-15:00", "17:30-20:00"], "star": 3.78, "review": 9}, {"name": "ふあんてん", "address": "石川県七尾市大手町135-1", "lat": 37.04355708, "lon": 136.96562593, "category": "中華料理店", "category_id": "0100990", "time": ["11:00-17:00"], "star": 3.62, "review": 25}, {"name": "大谷食堂", "address": "石川県七尾市袖ケ江町5", "lat": 37.04381264, "lon": 136.96685357, "category": "定食屋", "category_id": "0101441", "time": [], "star": 3.8, "review": 1}, {"name": "中華の家彩食酒家", "address": "石川県七尾市神明町1", "lat": 37.043491136959, "lon": 136.96480920011, "category": "中華料理店", "category_id": "0100990", "time": [], "star": 3.82, "review": 14}, {"name": "喜多", "address": "石川県七尾市山王町ミ77", "lat": 37.0427019, "lon": 136.9729153, "category": "中華料理店", "category_id": "0100990", "time": [], "star": 0.0, "review": 0}, {"name": "山藤家 食堂", "address": "石川県七尾市府中町25-5", "lat": 37.04792691, "lon": 136.96806299, "category": "うどん店", "category_id": "0100033", "time": ["11:00-20:00"], "star": 3.89, "review": 17}, {"name": "ことぶき食堂", "address": "石川県七尾市三島町79", "lat": 37.04856561, "lon": 136.96491273, "category": "飲食店", "category_id": "0102732", "time": [], "star": 0.0, "review": 0}, {"name": "ステーキの田中屋", "address": "石川県七尾市府中町員外13-1 能登食祭市場", "lat": 37.049139086956, "lon": 136.96922220016, "category": "ステーキ店", "category_id": "0100570", "time": [], "star": 3.26, "review": 16}, {"name": "能登食祭市場 浜焼きコーナー", "address": "石川県七尾市府中町員外13-1 能登食祭市場 1F", "lat": 37.049106616956, "lon": 136.96920878016, "category": "シーフード・海鮮料理店", "category_id": "0100542", "time": ["10:00-16:00"], "star": 4.02, "review": 25}, {"name": "能登食祭市場コーヒー&カレーAWABI", "address": "石川県七尾市府中町員外13-1", "lat": 37.04898451, "lon": 136.96898484, "category": "洋食店", "category_id": "0100129", "time": [], "star": 3.0, "review": 1}], "飲食店": [{"name": "パウパウ亭", "address": "石川県七尾市南藤橋町子34-3", "lat": 37.042949236958, "lon": 136.9620053001, "category": "レストラン", "category_id": "0100111", "time": [], "star": 0.0, "review": 0}, {"name": "Pasta&Pizza オレンジガーデン", "address": "石川県七尾市府中町員外13-1 食祭市場2F", "lat": 37.048653142424, "lon": 136.96866348805, "category": "パスタ料理店", "category_id": "0100575", "time": [], "star": 4.29, "review": 4}, {"name": "アバローニ", "address": "石川県七尾市府中町員外13-1 能登食祭市場 2F", "lat": 37.048847336151, "lon": 136.968523699, "category": "カフェ・喫茶", "category_id": "0100344", "time": [], "star": 4.19, "review": 8}, {"name": "NANAMURU 能登屋台村", "address": "石川県七尾市御祓町1 パトリア 1F", "lat": 37.0434958, "lon": 136.9633857, "category": "屋台", "category_id": "0102780", "time": [], "star": 0.0, "review": 0}, {"name": "一本杉通り仮設商店街 中央茶廊", "address": "石川県七尾市一本杉町100-2", "lat": 37.046782602271, "lon": 136.96378874981, "category": "カフェ・喫茶", "category_id": "0100344", "time": [], "star": 0.0, "review": 0}, {"name": "のとや", "address": "石川県七尾市西藤橋町未21", "lat": 37.042888050969, "lon": 136.95775317538, "category": "鍋料理店", "category_id": "0101817", "time": [], "star": 3.67, "review": 3}, {"name": "芝寿し 七尾どんたく店", "address": "石川県七尾市作事町80 七尾どんたく", "lat": 37.046002436958, "lon": 136.96695524013, "category": "寿司店", "category_id": "0100101", "time": ["10:00-17:00"], "star": 3.0, "review": 0}, {"name": "coffee KUKURI", "address": "石川県七尾市所口町ハ47-1", "lat": 37.03813632762641, "lon": 136.96410063329927, "category": "カフェ・喫茶", "category_id": "0100344", "time": ["10:00-17:00"], "star": 4.41, "review": 8}, {"name": "すずめのおやど", "address": "石川県七尾市神明町ロ11", "lat": 37.04161286, "lon": 136.96554657, "category": "居酒屋", "category_id": "0101495", "time": [], "star": 4.67, "review": 2}, {"name": "宅蔵", "address": "石川県七尾市一本杉町46", "lat": 37.047612036955, "lon": 136.96164580015, "category": "和食店", "category_id": "0100126", "time": [], "star": 0.0, "review": 0}, {"name": "雅亭", "address": "石川県七尾市神明町ロ-19-8", "lat": 37.04295994, "lon": 136.96602091, "category": "うどん店", "category_id": "0100033", "time": ["11:00-15:00", "17:00-20:00"], "star": 4.02, "review": 15}, {"name": "居酒屋ダイニング きたの", "address": "石川県七尾市相生町63", "lat": 37.044030156959, "lon": 136.96725681011, "category": "飲食店", "category_id": "0102732", "time": ["17:00-24:00"], "star": 3.55, "review": 2}, {"name": "金太郎", "address": "石川県七尾市御祓町1 パトリア 1F", "lat": 37.043144787629814, "lon": 136.96330838524509, "category": "飲食店", "category_id": "0102732", "time": [], "star": 0.0, "review": 0}, {"name": "割烹居酒屋 朝漁れ一番 哲", "address": "石川県七尾市神明町ロ22-4", "lat": 37.043337545665, "lon": 136.96607027302, "category": "居酒屋", "category_id": "0101495", "time": ["18:00-22:00"], "star": 4.15, "review": 8}, {"name": "葵", "address": "石川県七尾市神明町ト34-1", "lat": 37.04192571696, "lon": 136.96553589009, "category": "居酒屋", "category_id": "0101495", "time": ["17:00-22:00"], "star": 3.9, "review": 3}, {"name": "美松", "address": "石川県七尾市大手町80", "lat": 37.04409394, "lon": 136.96511457, "category": "定食屋", "category_id": "0101441", "time": [], "star": 4.3, "review": 4}, {"name": "串滿斎やきとり家竹松", "address": "石川県七尾市郡町東2-62", "lat": 37.045351, "lon": 136.973626, "category": "焼き鳥店", "category_id": "0101960", "time": ["17:00-23:00"], "star": 0.0, "review": 0}, {"name": "ミスタードーナツ 七尾", "address": "石川県七尾市御祓町1 パトリア 1F", "lat": 37.0434459, "lon": 136.9633262, "category": "ドーナツ店", "category_id": "0100701", "time": ["09:00-21:00"], "star": 4.08, "review": 58}, {"name": "カフェ リボン", "address": "石川県七尾市神明町1 ミナ.クル 1F", "lat": 37.043399896959, "lon": 136.96448325011, "category": "カフェ・喫茶", "category_id": "0100344", "time": ["07:00-15:00"], "star": 3.31, "review": 14}, {"name": "おふくろの味と酒 ごっつぉ家", "address": "石川県七尾市御祓町イ部5-7", "lat": 37.044464176958, "lon": 136.96458158012, "category": "飲食店", "category_id": "0102732", "time": ["11:00-14:00", "17:30-21:30"], "star": 4.1, "review": 1}], "カフェ": [{"name": "カフェ リボン", "address": "石川県七尾市神明町1 ミナ.クル 1F", "lat": 37.043399896959, "lon": 136.96448325011, "category": "カフェ・喫茶", "category_id": "0100344", "time": ["07:00-15:00"], "star": 3.31, "review": 14}, {"name": "アバローニ", "address": "石川県七尾市府中町員外13-1 能登食祭市場 2F", "lat": 37.048847336151, "lon": 136.968523699, "category": "カフェ・喫茶", "category_id": "0100344", "time": [], "star": 4.19, "review": 8}, {"name": "一本杉通り仮設商店街 中央茶廊", "address": "石川県七尾市一本杉町100-2", "lat": 37.046782602271, "lon": 136.96378874981, "category": "カフェ・喫茶", "category_id": "0100344", "time": [], "star": 0.0, "review": 0}, {"name": "coffee KUKURI", "address": "石川県七尾市所口町ハ47-1", "lat": 37.03813632762641, "lon": 136.96410063329927, "category": "カフェ・喫茶", "category_id": "0100344", "time": ["10:00-17:00"], "star": 4.41, "review": 8}, {"name": "Pasta&Pizza オレンジガーデン", "address": "石川県七尾市府中町員外13-1 食祭市場2F", "lat": 37.048653142424, "lon": 136.96866348805, "category": "パスタ料理店", "category_id": "0100575", "time": [], "star": 4.29, "review": 4}, {"name": "ぱいんの家", "address": "石川県七尾市神明町1 ミナクル 1F", "lat": 37.042994225994, "lon": 136.96475012069, "category": "ケーキ店", "category_id": "0100460", "time": ["11:00-19:00"], "star": 3.33, "review": 5}, {"name": "中央茶廊", "address": "石川県七尾市府中町12", "lat": 37.04610763, "lon": 136.9664524, "category": "カフェ・喫茶", "category_id": "0100344", "time": ["07:00-16:00"], "star": 4.0, "review": 13}, {"name": "あっさんぷらーじゅ", "address": "石川県七尾市大手町28番地 ", "lat": 37.044555886490826, "lon": 136.96557147830413, "category": "カフェ・喫茶", "category_id": "0100344", "time": ["10:30-18:00"], "star": 3.25, "review": 0}, {"name": "カフェオール", "address": "石川県七尾市馬出町イ55", "lat": 37.04534842, "lon": 136.96239896, "category": "コーヒー豆店", "category_id": "0200497", "time": ["10:00-18:00"], "star": 3.5, "review": 0}, {"name": "茜屋珈琲茶房", "address": "石川県七尾市一本杉町31-12", "lat": 37.047031, "lon": 136.96277941, "category": "カフェ・喫茶", "category_id": "0100344", "time": [], "star": 3.86, "review": 7}, {"name": "コーヒー待夢", "address": "石川県七尾市神明町ロ-22-1", "lat": 37.04339488, "lon": 136.96575676, "category": "カフェ・喫茶", "category_id": "0100344", "time": ["13:30-23:00"], "star": 2.57, "review": 2}, {"name": "サンバ", "address": "石川県七尾市御祓町ホ-6-9", "lat": 37.04443885, "lon": 136.96357221, "category": "カフェ・喫茶", "category_id": "0100344", "time": [], "star": 0.0, "review": 0}, {"name": "お茶の北島屋", "address": "石川県七尾市一本杉町54", "lat": 37.04802389, "lon": 136.96137895, "category": "カフェ・喫茶", "category_id": "0100344", "time": ["09:00-17:00"], "star": 4.25, "review": 1}, {"name": "喫茶カトレア", "address": "石川県七尾市神明町ロ19-13", "lat": 37.04293218, "lon": 136.96633338, "category": "カフェ・喫茶", "category_id": "0100344", "time": [], "star": 0.0, "review": 0}, {"name": "ポケット", "address": "石川県七尾市大手町135-1", "lat": 37.0436045, "lon": 136.9655936, "category": "カフェ・喫茶", "category_id": "0100344", "time": [], "star": 0.0, "review": 0}, {"name": "ミスタードーナツ 七尾", "address": "石川県七尾市御祓町1 パトリア 1F", "lat": 37.0434459, "lon": 136.9633262, "category": "ドーナツ店", "category_id": "0100701", "time": ["09:00-21:00"], "star": 4.08, "review": 58}, {"name": "ジェラートジェラート", "address": "石川県七尾市府中町員外13-1 能登食祭市場 1F", "lat": 37.049139197175, "lon": 136.96892338007, "category": "カフェ・喫茶", "category_id": "0100344", "time": ["08:30-18:00"], "star": 3.83, "review": 16}, {"name": "サンライフオフィスコーヒーサービス", "address": "石川県七尾市神明町1", "lat": 37.04340773, "lon": 136.96456296, "category": "コーヒー店", "category_id": "0100496", "time": [], "star": 0.0, "review": 0}, {"name": "トップワン", "address": "石川県七尾市小丸山台1-87", "lat": 37.045331106955, "lon": 136.95699758013, "category": "洋食店", "category_id": "0100129", "time": ["11:00-14:00"], "star": 3.9, "review": 19}, {"name": "パトリア", "address": "石川県七尾市御祓町1", "lat": 37.0434709, "lon": 136.9633484, "category": "ショッピングセンター・モール", "category_id": "0200537", "time": ["08:30-24:00"], "star": 3.82, "review": 17}], "ドラッグストア": [{"name": "中山薬局", "address": "石川県七尾市生駒町6-1", "lat": 37.04584011, "lon": 136.96496757, "category": "ドラッグストア", "category_id": "0200699", "time": ["09:00-18:00"], "star": 2.75, "review": 2}, {"name": "ゲンキー 本府中店", "address": "石川県七尾市本府中町ヲ35", "lat": 37.0344583, "lon": 136.9695592, "category": "ドラッグストア", "category_id": "0200699", "time": ["09:00-21:00"], "star": 3.96, "review": 27}, {"name": "スギ薬局 コトブキ薬局七尾店", "address": "石川県七尾市桜町40-2", "lat": 37.0505886, "lon": 136.9624, "category": "ドラッグストア", "category_id": "0200699", "time": [], "star": 4.0, "review": 1}, {"name": "モリ薬局", "address": "石川県七尾市桧物町28", "lat": 37.04507076, "lon": 136.96494705, "category": "調剤薬局", "category_id": "0202315", "time": ["08:00-18:30"], "star": 4.5, "review": 1}, {"name": "パトリア中山薬局", "address": "石川県七尾市御祓町1パトリア1階", "lat": 37.04346535, "lon": 136.9633845, "category": "薬局・薬店関連", "category_id": "0202317", "time": ["09:00-19:00"], "star": 4.0, "review": 1}, {"name": "あおぞら薬局 神明店", "address": "石川県七尾市神明町ロ17-4", "lat": 37.04243600472264, "lon": 136.9657411043686, "category": "調剤薬局", "category_id": "0202315", "time": ["09:00-18:00"], "star": 0.0, "review": 1}, {"name": "くすりのマルミ", "address": "石川県七尾市神明町ロ19-13", "lat": 37.04294662, "lon": 136.96613518, "category": "薬店", "category_id": "0202316", "time": [], "star": 0.0, "review": 0}, {"name": "せがわ薬局", "address": "石川県七尾市鍜冶町50", "lat": 37.04416579, "lon": 136.97060567, "category": "調剤薬局", "category_id": "0202315", "time": ["08:00-19:00"], "star": 0.0, "review": 0}, {"name": "あおぞら薬局 府中店", "address": "石川県七尾市作事町58-2", "lat": 37.04548617625372, "lon": 136.9679346595245, "category": "調剤薬局", "category_id": "0202315", "time": ["09:00-18:30"], "star": 4.0, "review": 0}, {"name": "ふじはしまち薬局", "address": "石川県七尾市藤橋町戌15-4", "lat": 37.03891837, "lon": 136.95470113, "category": "調剤薬局", "category_id": "0202315", "time": ["09:00-18:00"], "star": 0.0, "review": 0}, {"name": "アイン 七尾店", "address": "石川県七尾市府中町211-2", "lat": 37.04808659, "lon": 136.96750054, "category": "調剤薬局", "category_id": "0202315", "time": [], "star": 0.0, "review": 0}, {"name": "どんたく アスティ店", "address": "石川県七尾市藤橋町申部4", "lat": 37.0402294, "lon": 136.9562992, "category": "スーパー", "category_id": "0200612", "time": ["09:30-21:00"], "star": 3.31, "review": 33}, {"name": "みそぎ薬局", "address": "石川県七尾市小島町ニ50", "lat": 37.04839876, "lon": 136.95904112, "category": "調剤薬局", "category_id": "0202315", "time": ["09:00-17:00"], "star": 0.0, "review": 0}, {"name": "本府中アルプ薬局", "address": "石川県七尾市本府中町ワ5-6", "lat": 37.03639138, "lon": 136.96909476, "category": "調剤薬局", "category_id": "0202315", "time": [], "star": 0.0, "review": 0}, {"name": "坂本薬局", "address": "石川県七尾市塗師町6-1", "lat": 37.04451606, "lon": 136.97010463, "category": "調剤薬局", "category_id": "0202315", "time": [], "star": 0.0, "review": 0}], "ATM": [{"name": "北陸銀行 七尾支店", "address": "石川県七尾市一本杉町118", "lat": 37.0464095, "lon": 136.9648648, "category": "銀行", "category_id": "0402596", "time": ["09:00-15:00"], "star": 3.25, "review": 2}, {"name": "ゆうちょ銀行 ATM 七尾郵便局", "address": "石川県七尾市生駒町1-1", "lat": 37.0452887, "lon": 136.964334, "category": "ATM", "category_id": "0402785", "time": [], "star": 0.0, "review": 0}, {"name": "北國銀行 七尾支店", "address": "石川県七尾市生駒町30-1", "lat": 37.047215, "lon": 136.9659785, "category": "銀行", "category_id": "0402596", "time": ["09:00-15:00"], "star": 3.0, "review": 1}, {"name": "北陸銀行 ATM 七尾支店", "address": "石川県七尾市一本杉町118", "lat": 37.0462484, "lon": 136.96464, "category": "ATM", "category_id": "0402785", "time": [], "star": 0.0, "review": 0}, {"name": "北國銀行 ATM 七尾支店", "address": "石川県七尾市生駒町30-1", "lat": 37.0472452, "lon": 136.965923, "category": "ATM", "category_id": "0402785", "time": [], "star": 0.0, "review": 0}, {"name": "ゆうちょ銀行 ATM ファミリーマート七尾駅前店内出張所", "address": "石川県七尾市御祓町ホ6-13", "lat": 37.0441481, "lon": 136.963865, "category": "ATM", "category_id": "0402785", "time": [], "star": 0.0, "review": 0}, {"name": "北陸銀行 ATM アスティ", "address": "石川県七尾市藤橋町申部4", "lat": 37.0404749, "lon": 136.956307, "category": "ATM", "category_id": "0402785", "time": [], "star": 0.0, "review": 0}, {"name": "ろうきん ATM 北陸労働金庫 七尾支店", "address": "石川県七尾市袖ヶ江町ハ部42-2", "lat": 37.0436553, "lon": 136.966541, "category": "ATM", "category_id": "0402785", "time": [], "star": 0.0, "review": 0}, {"name": "のと共栄信用金庫 本店営業部", "address": "石川県七尾市桧物町35", "lat": 37.0452485, "lon": 136.9652315, "category": "信用金庫", "category_id": "0401098", "time": ["00:00-24:00"], "star": 0.0, "review": 0}, {"name": "銀行ATM イーネット ファミリーマート七尾川原町 共同出張所", "address": "石川県七尾市川原町20-1 ", "lat": 37.0417963, "lon": 136.96940895, "category": "ATM", "category_id": "0402785", "time": ["00:00-24:00"], "star": 0.0, "review": 0}, {"name": "ろうきん 北陸労働金庫 七尾支店", "address": "石川県七尾市袖ヶ江町ハ部42-2", "lat": 37.0436553, "lon": 136.966541, "category": "労働金庫", "category_id": "0401099", "time": [], "star": 4.5, "review": 0}, {"name": "ゆうちょ銀行 ATM 七尾府中郵便局", "address": "石川県七尾市本府中町レ部12-3", "lat": 37.0386456, "lon": 136.969337, "category": "ATM", "category_id": "0402785", "time": [], "star": 0.0, "review": 0}, {"name": "ゆうちょ銀行 七尾郵便局", "address": "石川県七尾市生駒町1-1", "lat": 37.0452887, "lon": 136.964334, "category": "銀行", "category_id": "0402596", "time": [], "star": 0.0, "review": 0}, {"name": "北國銀行 鍛冶町支店", "address": "石川県七尾市生駒町30-1", "lat": 37.0472205, "lon": 136.9659896, "category": "銀行", "category_id": "0402596", "time": [], "star": 0.0, "review": 0}, {"name": "興能信用金庫 七尾支店", "address": "石川県七尾市大手町132", "lat": 37.0438404, "lon": 136.9650621, "category": "信用金庫", "category_id": "0401098", "time": ["09:00-15:00"], "star": 0.0, "review": 0}, {"name": "株式会社北國銀行 七尾支店七尾市役所詰所", "address": "石川県七尾市袖ケ江町イ25", "lat": 37.04310217, "lon": 136.96752129, "category": "銀行", "category_id": "0402596", "time": [], "star": 0.0, "review": 0}, {"name": "ゆうちょ銀行 七尾府中郵便局", "address": "石川県七尾市本府中町レ部12-3", "lat": 37.0386456, "lon": 136.969337, "category": "銀行", "category_id": "0402596", "time": [], "star": 0.0, "review": 0}, {"name": "ゆうちょ銀行 七尾松本郵便局", "address": "石川県七尾市松本町72-1", "lat": 37.0494805, "lon": 136.959141, "category": "銀行", "category_id": "0402596", "time": [], "star": 2.5, "review": 0}, {"name": "ゆうちょ銀行 ATM 七尾松本郵便局", "address": "石川県七尾市松本町72-1", "lat": 37.0494805, "lon": 136.959141, "category": "ATM", "category_id": "0402785", "time": [], "star": 0.0, "review": 0}, {"name": "銀行ATM イーネット ファミリーマート七尾藤橋町 共同出張所", "address": "石川県七尾市藤橋町47-1 ", "lat": 37.040009, "lon": 136.954313, "category": "ATM", "category_id": "0402785", "time": ["00:00-24:00"], "star": 0.0, "review": 0}], "スーパーマーケット": [{"name": "北野エース 大和七尾サテライトショップ", "address": "石川県七尾市神明町1 七尾ミナ・クル 1F", "lat": 37.0433265, "lon": 136.9645427, "category": "スーパー", "category_id": "0200612", "time": [], "star": 4.0, "review": 1}, {"name": "どんたく アスティ店", "address": "石川県七尾市藤橋町申部4", "lat": 37.0402294, "lon": 136.9562992, "category": "スーパー", "category_id": "0200612", "time": ["09:30-21:00"], "star": 3.31, "review": 33}, {"name": "どんたく 東部店", "address": "石川県七尾市大和町チ部12-1", "lat": 37.0444851, "lon": 136.974675, "category": "スーパー", "category_id": "0200612", "time": ["08:00-20:00"], "star": 3.72, "review": 33}, {"name": "どんたく惣菜センター", "address": "石川県七尾市常盤町8-1", "lat": 37.04908633, "lon": 136.96327093, "category": "スーパー", "category_id": "0200612", "time": [], "star": 0.0, "review": 1}, {"name": "能登食祭市場 どんたく", "address": "石川県七尾市府中町員外13-1", "lat": 37.04898451, "lon": 136.96898484, "category": "食料品卸売業", "category_id": "0502722", "time": [], "star": 4.4, "review": 3}, {"name": "アスティ", "address": "石川県七尾市藤橋町申4", "lat": 37.0402294, "lon": 136.9562992, "category": "ショッピングセンター・モール", "category_id": "0200537", "time": [], "star": 3.61, "review": 9}, {"name": "ゲンキー 本府中店", "address": "石川県七尾市本府中町ヲ35", "lat": 37.0344583, "lon": 136.9695592, "category": "ドラッグストア", "category_id": "0200699", "time": ["09:00-21:00"], "star": 3.96, "review": 27}, {"name": "川端鮮魚店", "address": "石川県七尾市郡町1-39", "lat": 37.04336982, "lon": 136.97217082, "category": "鮮魚店", "category_id": "0202771", "time": [], "star": 0.0, "review": 0}]}, "top_restaurant": {"name": "すずめのおやど", "category": "居酒屋", "star": 4.67, "review": 2}}, {"name": "三ツ屋", "name_en": "Mitsuya", "lat": 36.6119834, "lon": 136.6455252, "osm_id": 9009657749, "operator": "北陸鉄道株式会社", "railway": "station", "wikidata": "Q11354011", "wikipedia_tag": "ja:三ツ屋駅", "lines": [], "pref": "石川県", "wikipedia_text": "三ツ屋駅（みつやえき）は、石川県金沢市三ツ屋町にある北陸鉄道浅野川線の駅である。駅番号はA07。", "wikipedia_image": "https://upload.wikimedia.org/wikipedia/commons/7/7e/Mitsuya-STA.jpg", "nearest_convenience": {"name": "ファミリーマート", "lat": 36.6182003, "lon": 136.6394043, "address": "", "distance_m": 881, "brand": "ファミリーマート"}, "nearest_restaurant": {"name": "8番ラーメン", "lat": 36.6240746, "lon": 136.6360546, "address": "", "distance_m": 1588, "cuisine": "ramen"}, "nearby_pois": {"コンビニ": [{"name": "セブンイレブン 金沢三ツ屋町", "address": "石川県金沢市三ツ屋町ロ42-1", "lat": 36.6115343, "lon": 136.6440118, "category": "コンビニ", "category_id": "0200487", "time": ["06:00-24:00"], "star": 4.19, "review": 20}, {"name": "セブンイレブン 金沢問屋町2丁目", "address": "石川県金沢市問屋町2-84-1", "lat": 36.6062378, "lon": 136.6408094, "category": "コンビニ", "category_id": "0200487", "time": ["00:00-24:00"], "star": 4.34, "review": 47}, {"name": "ファミリーマート 金沢大河端町店", "address": "石川県金沢市大河端西2-74", "lat": 36.6182555, "lon": 136.6393646, "category": "コンビニ", "category_id": "0200487", "time": ["00:00-24:00"], "star": 4.26, "review": 15}, {"name": "ファミリーマート 金沢問屋町二丁目店", "address": "石川県金沢市問屋町2-15-2", "lat": 36.6047463, "lon": 136.6434538, "category": "コンビニ", "category_id": "0200487", "time": ["00:00-24:00"], "star": 3.82, "review": 17}], "ラーメン": [{"name": "ラーメン我楽", "address": "石川県金沢市大河端西2丁目142", "lat": 36.6192112, "lon": 136.63909069, "category": "ラーメン店", "category_id": "0100097", "time": [], "star": 3.97, "review": 24}, {"name": "すた丼屋 金沢大河端店", "address": "石川県金沢市大河端西1-33-2", "lat": 36.61483684, "lon": 136.64139738, "category": "豚丼店", "category_id": "0102822", "time": ["11:00-23:30"], "star": 3.79, "review": 19}], "飲食店": [{"name": "季節のおやつとお食事 Infiniment-アンフィニモン-", "address": "石川県金沢市北寺町ニ114-1アンファンB", "lat": 36.61383677, "lon": 136.64630053, "category": "飲食店", "category_id": "0102732", "time": ["17:00-20:00"], "star": 4.0, "review": 0}, {"name": "居酒屋檪", "address": "石川県金沢市三ツ屋町ロ28-1", "lat": 36.61117543, "lon": 136.64327824, "category": "居酒屋", "category_id": "0101495", "time": [], "star": 3.88, "review": 2}, {"name": "世界で2番目においしい焼きたてメロンパンアイス ohana号", "address": "石川県金沢市松寺町卯 78-1 5-307", "lat": 36.61027145385742, "lon": 136.64955139160156, "category": "飲食店", "category_id": "0102732", "time": [], "star": 3.0, "review": 1}, {"name": "ダートコーヒー 煎りたて珈房 ディーズ 大河端店", "address": "石川県金沢市大河端西2-15", "lat": 36.6159448, "lon": 136.640069, "category": "コーヒー店", "category_id": "0100496", "time": ["09:30-19:00"], "star": 3.98, "review": 11}, {"name": "株式会社和商", "address": "石川県金沢市三口町火26", "lat": 36.60993032, "lon": 136.64278109, "category": "飲食店", "category_id": "0102732", "time": [], "star": 4.0, "review": 0}, {"name": "四季庵", "address": "石川県金沢市三口町火325", "lat": 36.60689603, "lon": 136.64265039, "category": "寿司店", "category_id": "0100101", "time": ["17:00-22:00"], "star": 4.36, "review": 6}, {"name": "株式会社アートフード", "address": "石川県金沢市三口町火271-1", "lat": 36.60732401, "lon": 136.64157375, "category": "レストラン", "category_id": "0100111", "time": [], "star": 4.0, "review": 0}, {"name": "ノブ", "address": "石川県金沢市三口町火24-1", "lat": 36.60995337, "lon": 136.64250277, "category": "焼肉店", "category_id": "0101963", "time": [], "star": 4.2, "review": 2}, {"name": "焼き鳥 とと", "address": "石川県金沢市割出町168-1", "lat": 36.604099137135, "lon": 136.6424951059, "category": "焼き鳥店", "category_id": "0101960", "time": ["17:30-23:00"], "star": 4.16, "review": 10}, {"name": "すた丼屋 金沢大河端店", "address": "石川県金沢市大河端西1-33-2", "lat": 36.61483684, "lon": 136.64139738, "category": "豚丼店", "category_id": "0102822", "time": ["11:00-23:30"], "star": 3.79, "review": 19}, {"name": "コメダ珈琲 金沢直江店", "address": "石川県金沢市直江東1-158", "lat": 36.6134228, "lon": 136.6351816, "category": "コーヒー店", "category_id": "0100496", "time": ["07:00-23:00"], "star": 3.83, "review": 70}, {"name": "インデアンカレー 本店", "address": "石川県金沢市三口町火353", "lat": 36.60670607, "lon": 136.64323565, "category": "カレー店", "category_id": "0100359", "time": ["11:00-21:00"], "star": 3.74, "review": 19}, {"name": "むつごろう", "address": "石川県金沢市諸江町下丁227-5", "lat": 36.60468557, "lon": 136.64611644, "category": "居酒屋", "category_id": "0101495", "time": [], "star": 3.1, "review": 6}, {"name": "ビストロ レガーレ", "address": "石川県金沢市直江町18街区4-1", "lat": 36.612642819649, "lon": 136.63439959266, "category": "ビストロ", "category_id": "0100760", "time": ["11:30-14:30", "18:00-21:30"], "star": 3.99, "review": 37}, {"name": "備長扇屋 金沢直江店", "address": "石川県金沢市直江西1-20", "lat": 36.612355, "lon": 136.635629, "category": "居酒屋", "category_id": "0101495", "time": ["17:00-23:00"], "star": 3.2, "review": 7}, {"name": "シエル エ メール", "address": "石川県金沢市諸江町下丁87-4", "lat": 36.604330247135, "lon": 136.6437291159, "category": "ベーカリー", "category_id": "0100522", "time": ["09:00-15:00"], "star": 3.94, "review": 26}, {"name": "ラーメン我楽", "address": "石川県金沢市大河端西2丁目142", "lat": 36.6192112, "lon": 136.63909069, "category": "ラーメン店", "category_id": "0100097", "time": [], "star": 3.97, "review": 24}, {"name": "アゼリア", "address": "石川県金沢市三口町火353", "lat": 36.6067233, "lon": 136.6431711, "category": "カフェ・喫茶", "category_id": "0100344", "time": [], "star": 0.0, "review": 0}, {"name": "菜香楼 アルプラフーズマーケット大河端店", "address": "石川県金沢市大河端町8街区1 アルプラフーズマーケット大河端店", "lat": 36.616018940614, "lon": 136.6397345497, "category": "中華料理店", "category_id": "0100990", "time": ["09:30-21:00"], "star": 3.79, "review": 24}, {"name": "FRESH STREET CURRY", "address": "石川県金沢市諸江町下丁114-9", "lat": 36.60520881, "lon": 136.64473564, "category": "カレー店", "category_id": "0100359", "time": ["10:30-14:00"], "star": 3.84, "review": 11}], "カフェ": [{"name": "ダートコーヒー 煎りたて珈房 ディーズ 大河端店", "address": "石川県金沢市大河端西2-15", "lat": 36.6159448, "lon": 136.640069, "category": "コーヒー店", "category_id": "0100496", "time": ["09:30-19:00"], "star": 3.98, "review": 11}, {"name": "コメダ珈琲 金沢直江店", "address": "石川県金沢市直江東1-158", "lat": 36.6134228, "lon": 136.6351816, "category": "コーヒー店", "category_id": "0100496", "time": ["07:00-23:00"], "star": 3.83, "review": 70}, {"name": "アゼリア", "address": "石川県金沢市三口町火353", "lat": 36.6067233, "lon": 136.6431711, "category": "カフェ・喫茶", "category_id": "0100344", "time": [], "star": 0.0, "review": 0}, {"name": "洋菓子工房 ぶどうの木 アルプラフーズマーケット大河端店", "address": "石川県金沢市大河端西2-15 アルプラフーズマーケット大河端内", "lat": 36.615962007127, "lon": 136.64010241602, "category": "ケーキ店", "category_id": "0100460", "time": [], "star": 3.81, "review": 15}, {"name": "シエル エ メール", "address": "石川県金沢市諸江町下丁87-4", "lat": 36.604330247135, "lon": 136.6437291159, "category": "ベーカリー", "category_id": "0100522", "time": ["09:00-15:00"], "star": 3.94, "review": 26}], "ドラッグストア": [{"name": "クスリのアオキ 大河端店", "address": "石川県金沢市大河端西1-111", "lat": 36.6154031, "lon": 136.6404507, "category": "ドラッグストア", "category_id": "0200699", "time": ["09:00-22:00"], "star": 3.73, "review": 17}, {"name": "Ｖ・drug 直江店", "address": "石川県金沢市直江東一丁目110番地", "lat": 36.61289508, "lon": 136.63581212, "category": "ドラッグストア", "category_id": "0200699", "time": ["08:45-18:30"], "star": 4.18, "review": 46}, {"name": "ゲンキー 諸江店", "address": "石川県金沢市諸江町下丁225-1", "lat": 36.6048714, "lon": 136.6462342, "category": "ドラッグストア", "category_id": "0200699", "time": ["09:00-21:00"], "star": 3.0, "review": 1}, {"name": "クスリのアオキ調剤 大河端店", "address": "石川県金沢市大河端西1-111", "lat": 36.6153543, "lon": 136.640476, "category": "調剤薬局", "category_id": "0202315", "time": [], "star": 4.32, "review": 25}, {"name": "浅野川はなの木薬局", "address": "石川県金沢市三口町土358", "lat": 36.608025, "lon": 136.643782, "category": "調剤薬局", "category_id": "0202315", "time": ["09:00-17:30"], "star": 4.0, "review": 1}, {"name": "Ｖ・drug 直江薬局", "address": "石川県金沢市直江東一丁目110番地", "lat": 36.61289508, "lon": 136.63581212, "category": "調剤薬局", "category_id": "0202315", "time": [], "star": 0.0, "review": 0}, {"name": "グリーン直江中央薬局", "address": "石川県金沢市直江西1丁目91", "lat": 36.61267037, "lon": 136.63492328, "category": "調剤薬局", "category_id": "0202315", "time": [], "star": 0.0, "review": 0}, {"name": "リフル大浦薬局", "address": "石川県金沢市大浦町ロ1-3", "lat": 36.61552689, "lon": 136.6535276, "category": "調剤薬局", "category_id": "0202315", "time": [], "star": 0.0, "review": 0}], "ATM": [{"name": "北國銀行 問屋町支店", "address": "石川県金沢市問屋町2-67", "lat": 36.6058323, "lon": 136.6402816, "category": "銀行", "category_id": "0402596", "time": ["09:00-15:00"], "star": 4.43, "review": 2}, {"name": "セブン銀行 金沢三ツ屋町店", "address": "石川県金沢市三ツ屋町ロ42-1", "lat": 36.611463, "lon": 136.643978, "category": "ATM", "category_id": "0402785", "time": ["00:00-24:00"], "star": 0.0, "review": 0}, {"name": "セブン銀行 アルプラフーズマーケット 大河端", "address": "石川県金沢市副都心北部大河端土地区画整理事業地8街", "lat": 36.6159752, "lon": 136.639685, "category": "ATM", "category_id": "0402785", "time": ["09:30-21:00"], "star": 0.0, "review": 0}, {"name": "北國銀行 ATM 問屋町支店", "address": "石川県金沢市問屋町2-67", "lat": 36.6058659, "lon": 136.640346, "category": "ATM", "category_id": "0402785", "time": [], "star": 0.0, "review": 0}, {"name": "ゆうちょ銀行 金沢問屋町郵便局", "address": "石川県金沢市問屋町2-68-3", "lat": 36.6054879, "lon": 136.640244, "category": "銀行", "category_id": "0402596", "time": [], "star": 4.67, "review": 0}, {"name": "ゆうちょ銀行 ATM ファミリーマート金沢大河端町店内出張所", "address": "石川県金沢市大河端西2-74", "lat": 36.6182589, "lon": 136.639346, "category": "ATM", "category_id": "0402785", "time": [], "star": 0.0, "review": 0}, {"name": "ゆうちょ銀行 ATM 金沢問屋町郵便局", "address": "石川県金沢市問屋町2-68-3", "lat": 36.6054879, "lon": 136.640244, "category": "ATM", "category_id": "0402785", "time": [], "star": 0.0, "review": 0}, {"name": "セブン銀行 金沢問屋町2丁目店", "address": "石川県金沢市問屋町2-84-1", "lat": 36.6062542, "lon": 136.640552, "category": "ATM", "category_id": "0402785", "time": ["00:00-24:00"], "star": 0.0, "review": 0}, {"name": "ゆうちょ銀行 ATM ファミリーマート金沢問屋町二丁目店内出張所", "address": "石川県金沢市問屋町2-15-2", "lat": 36.6047365, "lon": 136.643449, "category": "ATM", "category_id": "0402785", "time": [], "star": 0.0, "review": 0}, {"name": "金沢信用金庫 問屋町支店", "address": "石川県金沢市問屋町2-14", "lat": 36.605238, "lon": 136.6435676, "category": "信用金庫", "category_id": "0401098", "time": ["09:00-15:00"], "star": 0.0, "review": 0}, {"name": "宝くじ ATM 北國銀行問屋町支店", "address": "石川県金沢市問屋町2-67", "lat": 36.6058648, "lon": 136.640336, "category": "宝くじ売り場", "category_id": "0401442", "time": ["08:00-19:00"], "star": 0.0, "review": 0}, {"name": "金沢問屋町郵便局", "address": "石川県金沢市問屋町2-68-3", "lat": 36.60548788, "lon": 136.64024, "category": "郵便局", "category_id": "0400993", "time": ["09:00-17:00"], "star": 3.42, "review": 3}], "スーパーマーケット": [{"name": "アルプラフーズマーケット大河端", "address": "石川県金沢市大河端西二丁目15番地", "lat": 36.616276, "lon": 136.639946, "category": "スーパー", "category_id": "0200612", "time": ["09:30-21:00"], "star": 3.97, "review": 141}, {"name": "菜香楼 アルプラフーズマーケット大河端店", "address": "石川県金沢市大河端町8街区1 アルプラフーズマーケット大河端店", "lat": 36.616018940614, "lon": 136.6397345497, "category": "中華料理店", "category_id": "0100990", "time": ["09:30-21:00"], "star": 3.79, "review": 24}, {"name": "クスリのアオキ 大河端店", "address": "石川県金沢市大河端西1-111", "lat": 36.6154031, "lon": 136.6404507, "category": "ドラッグストア", "category_id": "0200699", "time": ["09:00-22:00"], "star": 3.73, "review": 17}]}, "top_restaurant": {"name": "四季庵", "category": "寿司店", "star": 4.36, "review": 6}}, {"name": "三口", "name_en": "Mitsukuchi", "lat": 36.6065596, "lon": 136.6476596, "osm_id": 8568997247, "operator": "北陸鉄道株式会社", "railway": "halt", "wikidata": "Q11354598", "wikipedia_tag": "ja:三口駅", "lines": [], "pref": "石川県", "wikipedia_text": "三口駅（みつくちえき）は、石川県金沢市三口町にある北陸鉄道浅野川線の駅である。駅番号はA06。\n1980年（昭和55年）に廃止された能美線にも同音の三ツ口駅が存在した。", "wikipedia_image": "https://upload.wikimedia.org/wikipedia/commons/2/2b/Hokutetsu_Mitsukuchi-STA.jpg", "nearest_convenience": {"name": "ファミリーマート", "lat": 36.6022199, "lon": 136.6446107, "address": "金沢市諸江町下丁46-1", "distance_m": 554, "brand": "ファミリーマート"}, "nearest_restaurant": {"name": "ちゃーしゅうや武蔵", "lat": 36.5915027, "lon": 136.6449429, "address": "", "distance_m": 1692, "cuisine": "ramen"}, "nearby_pois": {"コンビニ": [{"name": "セブンイレブン 金沢三ツ屋町", "address": "石川県金沢市三ツ屋町ロ42-1", "lat": 36.6115343, "lon": 136.6440118, "category": "コンビニ", "category_id": "0200487", "time": ["06:00-24:00"], "star": 4.19, "review": 20}, {"name": "ファミリーマート 金沢諸江町店", "address": "石川県金沢市諸江町下丁46-1", "lat": 36.6022023, "lon": 136.6446011, "category": "コンビニ", "category_id": "0200487", "time": ["00:00-24:00"], "star": 4.25, "review": 10}, {"name": "ファミリーマート 金沢問屋町二丁目店", "address": "石川県金沢市問屋町2-15-2", "lat": 36.6047463, "lon": 136.6434538, "category": "コンビニ", "category_id": "0200487", "time": ["00:00-24:00"], "star": 3.82, "review": 17}, {"name": "セブンイレブン 金沢問屋町2丁目", "address": "石川県金沢市問屋町2-84-1", "lat": 36.6062378, "lon": 136.6408094, "category": "コンビニ", "category_id": "0200487", "time": ["00:00-24:00"], "star": 4.34, "review": 47}, {"name": "ローソン 金沢諸江町", "address": "石川県金沢市諸江町中丁348-1", "lat": 36.5987, "lon": 136.6450568, "category": "コンビニ", "category_id": "0200487", "time": ["00:00-24:00"], "star": 3.79, "review": 23}], "飲食店": [{"name": "クロスロード", "address": "石川県金沢市諸江町下丁46-1", "lat": 36.602429887137, "lon": 136.64494067588, "category": "カフェ・喫茶", "category_id": "0100344", "time": [], "star": 3.78, "review": 4}, {"name": "オルゴールカフェ あいりす", "address": "石川県金沢市諸江町下丁327-1 エクセルコート", "lat": 36.601706687138, "lon": 136.64783216587, "category": "カフェ・喫茶", "category_id": "0100344", "time": [], "star": 3.5, "review": 0}, {"name": "四季庵", "address": "石川県金沢市三口町火325", "lat": 36.60689603, "lon": 136.64265039, "category": "寿司店", "category_id": "0100101", "time": ["17:00-22:00"], "star": 4.36, "review": 6}, {"name": "むつごろう", "address": "石川県金沢市諸江町下丁227-5", "lat": 36.60468557, "lon": 136.64611644, "category": "居酒屋", "category_id": "0101495", "time": [], "star": 3.1, "review": 6}, {"name": "あんやとや 諸江町キッチンCAR店", "address": "石川県金沢市諸江町中丁341-1", "lat": 36.5999163, "lon": 136.6448439, "category": "お好み焼き店", "category_id": "0100046", "time": [], "star": 0.0, "review": 0}, {"name": "世界で2番目においしい焼きたてメロンパンアイス ohana号", "address": "石川県金沢市松寺町卯 78-1 5-307", "lat": 36.61027145385742, "lon": 136.64955139160156, "category": "飲食店", "category_id": "0102732", "time": [], "star": 3.0, "review": 1}, {"name": "焼き鳥 とと", "address": "石川県金沢市割出町168-1", "lat": 36.604099137135, "lon": 136.6424951059, "category": "焼き鳥店", "category_id": "0101960", "time": ["17:30-23:00"], "star": 4.16, "review": 10}, {"name": "インデアンカレー 本店", "address": "石川県金沢市三口町火353", "lat": 36.60670607, "lon": 136.64323565, "category": "カレー店", "category_id": "0100359", "time": ["11:00-21:00"], "star": 3.74, "review": 19}, {"name": "株式会社アートフード", "address": "石川県金沢市三口町火271-1", "lat": 36.60732401, "lon": 136.64157375, "category": "レストラン", "category_id": "0100111", "time": [], "star": 4.0, "review": 0}, {"name": "シエル エ メール", "address": "石川県金沢市諸江町下丁87-4", "lat": 36.604330247135, "lon": 136.6437291159, "category": "ベーカリー", "category_id": "0100522", "time": ["09:00-15:00"], "star": 3.94, "review": 26}, {"name": "FRESH STREET CURRY", "address": "石川県金沢市諸江町下丁114-9", "lat": 36.60520881, "lon": 136.64473564, "category": "カレー店", "category_id": "0100359", "time": ["10:30-14:00"], "star": 3.84, "review": 11}, {"name": "ぎゃらりぃきのこ", "address": "石川県金沢市割出町117", "lat": 36.60235253, "lon": 136.64344055, "category": "カフェ・喫茶", "category_id": "0100344", "time": [], "star": 3.8, "review": 1}, {"name": "茶ろんあいりす", "address": "石川県金沢市諸江町下丁327-1-102 茶ろんあいりす", "lat": 36.60172185, "lon": 136.64782038, "category": "飲食店", "category_id": "0102732", "time": [], "star": 0.0, "review": 0}, {"name": "凱旋麻辣湯", "address": "石川県金沢市割出町168-1", "lat": 36.604101827135, "lon": 136.6422683059, "category": "中華料理店", "category_id": "0100990", "time": ["11:00-14:30", "17:00-21:30"], "star": 3.48, "review": 9}, {"name": "株式会社和商", "address": "石川県金沢市三口町火26", "lat": 36.60993032, "lon": 136.64278109, "category": "飲食店", "category_id": "0102732", "time": [], "star": 4.0, "review": 0}, {"name": "アゼリア", "address": "石川県金沢市三口町火353", "lat": 36.6067233, "lon": 136.6431711, "category": "カフェ・喫茶", "category_id": "0100344", "time": [], "star": 0.0, "review": 0}, {"name": "ぎん", "address": "石川県金沢市割出町168-1", "lat": 36.604076, "lon": 136.642443, "category": "居酒屋", "category_id": "0101495", "time": [], "star": 0.0, "review": 1}, {"name": "家庭料理しおん", "address": "石川県金沢市諸江町下丁216-2", "lat": 36.60535213, "lon": 136.64570726, "category": "定食屋", "category_id": "0101441", "time": [], "star": 0.0, "review": 0}, {"name": "居酒屋檪", "address": "石川県金沢市三ツ屋町ロ28-1", "lat": 36.61117543, "lon": 136.64327824, "category": "居酒屋", "category_id": "0101495", "time": [], "star": 3.88, "review": 2}, {"name": "ノブ", "address": "石川県金沢市三口町火24-1", "lat": 36.60995337, "lon": 136.64250277, "category": "焼肉店", "category_id": "0101963", "time": [], "star": 4.2, "review": 2}], "カフェ": [{"name": "クロスロード", "address": "石川県金沢市諸江町下丁46-1", "lat": 36.602429887137, "lon": 136.64494067588, "category": "カフェ・喫茶", "category_id": "0100344", "time": [], "star": 3.78, "review": 4}, {"name": "オルゴールカフェ あいりす", "address": "石川県金沢市諸江町下丁327-1 エクセルコート", "lat": 36.601706687138, "lon": 136.64783216587, "category": "カフェ・喫茶", "category_id": "0100344", "time": [], "star": 3.5, "review": 0}, {"name": "ぎゃらりぃきのこ", "address": "石川県金沢市割出町117", "lat": 36.60235253, "lon": 136.64344055, "category": "カフェ・喫茶", "category_id": "0100344", "time": [], "star": 3.8, "review": 1}, {"name": "アゼリア", "address": "石川県金沢市三口町火353", "lat": 36.6067233, "lon": 136.6431711, "category": "カフェ・喫茶", "category_id": "0100344", "time": [], "star": 0.0, "review": 0}, {"name": "シエル エ メール", "address": "石川県金沢市諸江町下丁87-4", "lat": 36.604330247135, "lon": 136.6437291159, "category": "ベーカリー", "category_id": "0100522", "time": ["09:00-15:00"], "star": 3.94, "review": 26}, {"name": "みかづき", "address": "石川県金沢市松寺町申88-1", "lat": 36.6040492, "lon": 136.6577979, "category": "カフェ・喫茶", "category_id": "0100344", "time": [], "star": 0.0, "review": 0}], "ドラッグストア": [{"name": "ゲンキー 諸江店", "address": "石川県金沢市諸江町下丁225-1", "lat": 36.6048714, "lon": 136.6462342, "category": "ドラッグストア", "category_id": "0200699", "time": ["09:00-21:00"], "star": 3.0, "review": 1}, {"name": "浅野川はなの木薬局", "address": "石川県金沢市三口町土358", "lat": 36.608025, "lon": 136.643782, "category": "調剤薬局", "category_id": "0202315", "time": ["09:00-17:30"], "star": 4.0, "review": 1}], "ATM": [{"name": "北國銀行 問屋町支店", "address": "石川県金沢市問屋町2-67", "lat": 36.6058323, "lon": 136.6402816, "category": "銀行", "category_id": "0402596", "time": ["09:00-15:00"], "star": 4.43, "review": 2}, {"name": "ゆうちょ銀行 金沢問屋町郵便局", "address": "石川県金沢市問屋町2-68-3", "lat": 36.6054879, "lon": 136.640244, "category": "銀行", "category_id": "0402596", "time": [], "star": 4.67, "review": 0}, {"name": "北國銀行 ATM 問屋町支店", "address": "石川県金沢市問屋町2-67", "lat": 36.6058659, "lon": 136.640346, "category": "ATM", "category_id": "0402785", "time": [], "star": 0.0, "review": 0}, {"name": "銀行ATM イーネット ファミリーマート金沢諸江町 共同出張所", "address": "石川県金沢市諸江町下丁46-1 ", "lat": 36.602186, "lon": 136.644608, "category": "ATM", "category_id": "0402785", "time": ["00:00-24:00"], "star": 3.0, "review": 1}, {"name": "ゆうちょ銀行 ATM ファミリーマート金沢問屋町二丁目店内出張所", "address": "石川県金沢市問屋町2-15-2", "lat": 36.6047365, "lon": 136.643449, "category": "ATM", "category_id": "0402785", "time": [], "star": 0.0, "review": 0}, {"name": "金沢信用金庫 問屋町支店", "address": "石川県金沢市問屋町2-14", "lat": 36.605238, "lon": 136.6435676, "category": "信用金庫", "category_id": "0401098", "time": ["09:00-15:00"], "star": 0.0, "review": 0}, {"name": "ゆうちょ銀行 ATM 金沢問屋町郵便局", "address": "石川県金沢市問屋町2-68-3", "lat": 36.6054879, "lon": 136.640244, "category": "ATM", "category_id": "0402785", "time": [], "star": 0.0, "review": 0}, {"name": "JAバンク 金沢市農業協同組合(JA金沢市)弓取支店", "address": "石川県金沢市諸江町中丁347-1", "lat": 36.5989336, "lon": 136.644958, "category": "銀行", "category_id": "0402596", "time": [], "star": 2.5, "review": 1}, {"name": "セブン銀行 金沢三ツ屋町店", "address": "石川県金沢市三ツ屋町ロ42-1", "lat": 36.611463, "lon": 136.643978, "category": "ATM", "category_id": "0402785", "time": ["00:00-24:00"], "star": 0.0, "review": 0}, {"name": "セブン銀行 金沢問屋町2丁目店", "address": "石川県金沢市問屋町2-84-1", "lat": 36.6062542, "lon": 136.640552, "category": "ATM", "category_id": "0402785", "time": ["00:00-24:00"], "star": 0.0, "review": 0}, {"name": "JAバンク ATM 金沢市農業協同組合(JA金沢市)弓取支店", "address": "石川県金沢市諸江町中丁347-1", "lat": 36.5989139, "lon": 136.6449318, "category": "ATM", "category_id": "0402785", "time": [], "star": 0.0, "review": 0}, {"name": "ローソン銀行 金沢諸江町共同出張所", "address": "石川県金沢市諸江町中丁348-1", "lat": 36.5987187, "lon": 136.645026, "category": "ATM", "category_id": "0402785", "time": ["00:00-24:00"], "star": 0.0, "review": 0}, {"name": "宝くじ ATM 北國銀行問屋町支店", "address": "石川県金沢市問屋町2-67", "lat": 36.6058648, "lon": 136.640336, "category": "宝くじ売り場", "category_id": "0401442", "time": ["08:00-19:00"], "star": 0.0, "review": 0}, {"name": "金沢問屋町郵便局", "address": "石川県金沢市問屋町2-68-3", "lat": 36.60548788, "lon": 136.64024, "category": "郵便局", "category_id": "0400993", "time": ["09:00-17:00"], "star": 3.42, "review": 3}], "スーパーマーケット": [{"name": "グルメプラザマルシン金沢店", "address": "石川県金沢市松寺町子30-1", "lat": 36.60057294, "lon": 136.6542412, "category": "食料品卸売業", "category_id": "0502722", "time": [], "star": 4.0, "review": 9}]}, "top_restaurant": {"name": "四季庵", "category": "寿司店", "star": 4.36, "review": 6}}, {"name": "上諸江", "name_en": "Kamimoroe", "lat": 36.5908926, "lon": 136.6489453, "osm_id": 8568997253, "operator": "北陸鉄道株式会社", "railway": "halt", "wikidata": "Q11360123", "wikipedia_tag": "ja:上諸江駅", "lines": [], "pref": "石川県", "wikipedia_text": "上諸江駅（かみもろええき）は、石川県金沢市諸江町にある北陸鉄道浅野川線の駅である。駅番号はA03。", "wikipedia_image": "https://upload.wikimedia.org/wikipedia/commons/7/7f/Kamimoroe-STA.jpg", "nearest_convenience": {"name": "ローソン", "lat": 36.596876, "lon": 136.642971, "address": "", "distance_m": 853, "brand": "ローソン"}, "nearest_restaurant": {"name": "ココス", "lat": 36.5907804, "lon": 136.6456555, "address": "", "distance_m": 294, "cuisine": "western;japanese"}, "nearby_pois": {"コンビニ": [{"name": "セブンイレブン 金沢北安江4丁目", "address": "石川県金沢市北安江4-11-27", "lat": 36.5881099, "lon": 136.646935, "category": "コンビニ", "category_id": "0200487", "time": ["00:00-24:00"], "star": 4.08, "review": 40}, {"name": "ローソン 金沢諸江中丁", "address": "石川県金沢市諸江町中丁250-1", "lat": 36.596717, "lon": 136.6430153, "category": "コンビニ", "category_id": "0200487", "time": ["00:00-24:00"], "star": 4.33, "review": 20}, {"name": "ローソン 金沢諸江町", "address": "石川県金沢市諸江町中丁348-1", "lat": 36.5987, "lon": 136.6450568, "category": "コンビニ", "category_id": "0200487", "time": ["00:00-24:00"], "star": 3.79, "review": 23}, {"name": "ファミリーマート 金沢西念二丁目店", "address": "石川県金沢市西念2-27-17", "lat": 36.5852658, "lon": 136.6434742, "category": "コンビニ", "category_id": "0200487", "time": ["00:00-24:00"], "star": 3.66, "review": 29}, {"name": "セブンイレブン金沢諸江町店", "address": "石川県金沢市諸江町中丁163-4", "lat": 36.5973126, "lon": 136.6451613, "category": "コンビニ", "category_id": "0200487", "time": [], "star": 4.67, "review": 2}, {"name": "ファミリーマート 金沢諸江通り店", "address": "石川県金沢市北安江1-14-1", "lat": 36.5828718, "lon": 136.6482185, "category": "コンビニ", "category_id": "0200487", "time": ["00:00-24:00"], "star": 3.44, "review": 16}, {"name": "ファミリーマート 金沢西念三丁目店", "address": "石川県金沢市西念3-32-16", "lat": 36.5917953, "lon": 136.6378491, "category": "コンビニ", "category_id": "0200487", "time": ["00:00-24:00"], "star": 3.0, "review": 15}, {"name": "ファミリーマート 金沢広岡三丁目店", "address": "石川県金沢市広岡3-3-47", "lat": 36.5829328, "lon": 136.6455714, "category": "コンビニ", "category_id": "0200487", "time": ["00:00-24:00"], "star": 3.58, "review": 13}, {"name": "ヤマザキショップ 金沢病院店", "address": "石川県金沢市沖町ハ15", "lat": 36.5922761, "lon": 136.6540038, "category": "コンビニ", "category_id": "0200487", "time": [], "star": 3.0, "review": 2}, {"name": "平和堂 アル・プラザ金沢", "address": "石川県金沢市諸江町30-1", "lat": 36.59122242, "lon": 136.6435489, "category": "スーパー", "category_id": "0200612", "time": ["10:00-21:00"], "star": 3.45, "review": 445}], "ラーメン": [{"name": "昇龍 諸江店", "address": "石川県金沢市諸江町30-1 アルプラザ金沢 別棟 1F", "lat": 36.59152751446324, "lon": 136.64430947902852, "category": "台湾料理店", "category_id": "0101283", "time": ["11:30-15:00", "17:00-22:00"], "star": 3.0, "review": 14}, {"name": "支那そば 元祖 諸江", "address": "石川県金沢市諸江町中丁251-1", "lat": 36.5954144, "lon": 136.64512914, "category": "飲食店", "category_id": "0102732", "time": ["06:00-16:00"], "star": 3.74, "review": 62}, {"name": "ちゃーしゅうや武蔵 アルプラザ金沢店", "address": "石川県金沢市諸江町30ー1 アルプラザ金沢", "lat": 36.5913805, "lon": 136.644937, "category": "ラーメン店", "category_id": "0100097", "time": ["11:00-15:00", "18:00-24:00"], "star": 3.8, "review": 43}, {"name": "8番らーめん 諸江店", "address": "石川県金沢市諸江町上丁452-1", "lat": 36.5934674, "lon": 136.6443209, "category": "ラーメン店", "category_id": "0100097", "time": ["11:00-24:30"], "star": 3.54, "review": 77}, {"name": "麺屋道楽 金沢高柳店", "address": "石川県金沢市沖町イ55-5 メガワールド内", "lat": 36.592590137147, "lon": 136.65851769577, "category": "ラーメン店", "category_id": "0100097", "time": [], "star": 0.0, "review": 0}, {"name": "くるまやラーメン 金沢諸江店", "address": "石川県金沢市諸江町中丁207-1", "lat": 36.5978057, "lon": 136.6433319, "category": "ラーメン店", "category_id": "0100097", "time": ["11:00-26:30"], "star": 3.17, "review": 48}, {"name": "麺家 八星", "address": "石川県金沢市沖町イ55-5 DSGメガワールド", "lat": 36.59111137, "lon": 136.6586789, "category": "ラーメン店", "category_id": "0100097", "time": ["11:00-20:00"], "star": 3.69, "review": 7}, {"name": "仁吉家。", "address": "石川県金沢市沖町イ55-5 DSGメガワールド内", "lat": 36.59070308965, "lon": 136.65863414568, "category": "ラーメン店", "category_id": "0100097", "time": ["11:00-21:00"], "star": 3.75, "review": 2}, {"name": "風星", "address": "石川県金沢市駅西新町1-39-5", "lat": 36.593000977141, "lon": 136.64008550579, "category": "中華料理店", "category_id": "0100990", "time": ["11:30-14:30", "17:30-22:00"], "star": 3.12, "review": 18}, {"name": "村田屋", "address": "石川県金沢市諸江町上丁307-15", "lat": 36.59167828, "lon": 136.64580151, "category": "蕎麦店", "category_id": "0100034", "time": ["11:00-15:00", "17:00-20:00"], "star": 3.97, "review": 51}, {"name": "お食事処 飛鳥", "address": "石川県金沢市駅西新町1-13-5", "lat": 36.58897247, "lon": 136.64085025, "category": "定食屋", "category_id": "0101441", "time": ["11:00-14:00", "17:30-22:00"], "star": 3.16, "review": 14}, {"name": "焼き鳥こしむら", "address": "石川県金沢市諸江町6-17", "lat": 36.590532, "lon": 136.645844, "category": "焼き鳥店", "category_id": "0101960", "time": ["17:00-25:00"], "star": 4.19, "review": 12}, {"name": "菜香楼 新館", "address": "石川県金沢市駅西新町2-8-15", "lat": 36.593957, "lon": 136.640749, "category": "中華料理店", "category_id": "0100990", "time": ["11:00-15:00", "17:00-21:00"], "star": 3.48, "review": 46}, {"name": "菜香樓 事務所", "address": "石川県金沢市駅西新町2丁目8-15", "lat": 36.59391828, "lon": 136.64077464, "category": "中華料理店", "category_id": "0100990", "time": [], "star": 4.0, "review": 1}, {"name": "ＷＡＧＯＭＥ", "address": "石川県金沢市駅西新町1丁目4-1 ロイヤルコート駅西105", "lat": 36.58842311122561, "lon": 136.64126520684306, "category": "パン製造業", "category_id": "0500746", "time": ["11:30-16:30"], "star": 0.0, "review": 0}], "飲食店": [{"name": "昇龍 諸江店", "address": "石川県金沢市諸江町30-1 アルプラザ金沢 別棟 1F", "lat": 36.59152751446324, "lon": 136.64430947902852, "category": "台湾料理店", "category_id": "0101283", "time": ["11:30-15:00", "17:00-22:00"], "star": 3.0, "review": 14}, {"name": "天ぷら 七福 金沢店", "address": "石川県金沢市諸江町30-1 アル･プラザ金沢敷地内", "lat": 36.5912217, "lon": 136.6435418, "category": "天ぷら店", "category_id": "0100155", "time": [], "star": 2.66, "review": 21}, {"name": "ユナイテッドシネマ金沢 売店", "address": "石川県金沢市高柳町1-70-1 ユナイテッドシネマ金沢 1F", "lat": 36.589648136344, "lon": 136.65870039458, "category": "カフェ・喫茶", "category_id": "0100344", "time": [], "star": 2.94, "review": 6}, {"name": "ベイズ カフェ グルメコートアルプラザ金沢店", "address": "石川県金沢市諸江町30-1", "lat": 36.591266377144, "lon": 136.64402725577, "category": "カフェ・喫茶", "category_id": "0100344", "time": ["10:00-20:30"], "star": 3.3, "review": 1}, {"name": "金沢病院 外来食堂", "address": "石川県金沢市沖町ハ15 独立行政法人 地域医療機能推進機構 金沢病院 1F", "lat": 36.592519137146, "lon": 136.65323695577, "category": "定食屋", "category_id": "0101441", "time": ["10:30-15:00"], "star": 3.25, "review": 2}, {"name": "MIRACLE CAFE", "address": "石川県金沢市諸江町33-10 オークラ諸江店", "lat": 36.592707636337, "lon": 136.64428079462, "category": "定食屋", "category_id": "0101441", "time": ["12:00-16:00"], "star": 0.0, "review": 1}, {"name": "花ずし", "address": "石川県金沢市諸江町6-23", "lat": 36.591952683965, "lon": 136.6430606593, "category": "寿司店", "category_id": "0100101", "time": [], "star": 2.0, "review": 1}, {"name": "ロンヴェット", "address": "石川県金沢市七ツ屋町12-2 2F", "lat": 36.584356505183, "lon": 136.65214223157, "category": "ベトナム料理店", "category_id": "0100834", "time": ["11:00-21:00"], "star": 2.95, "review": 2}, {"name": "鉄板焼 川本", "address": "石川県金沢市北安江4-8-31", "lat": 36.58644626, "lon": 136.64647951, "category": "鉄板焼き店", "category_id": "0101964", "time": [], "star": 0.0, "review": 3}, {"name": "海鮮炭火酒場 じょう", "address": "石川県金沢市北安江3-13-5", "lat": 36.585886247148, "lon": 136.64633819571, "category": "居酒屋", "category_id": "0101495", "time": ["18:00-27:00"], "star": 3.0, "review": 1}, {"name": "ちゃんこ江戸沢金沢駅西店", "address": "石川県金沢市西念2-30-16", "lat": 36.58784597, "lon": 136.64112418, "category": "ちゃんこ料理店", "category_id": "0100145", "time": [], "star": 0.0, "review": 0}, {"name": "金龍寿司", "address": "石川県金沢市西念2-35-23", "lat": 36.586348557744, "lon": 136.63983374834, "category": "寿司店", "category_id": "0100101", "time": [], "star": 3.0, "review": 4}, {"name": "ビリオン珈琲 金沢諸江店", "address": "石川県金沢市諸江町上丁453-1", "lat": 36.59372879, "lon": 136.64431871, "category": "コーヒー店", "category_id": "0100496", "time": ["07:30-24:00"], "star": 4.02, "review": 80}, {"name": "のと路", "address": "石川県金沢市諸江町6-27", "lat": 36.58982661, "lon": 136.64630463, "category": "カフェ・喫茶", "category_id": "0100344", "time": ["11:00-19:00"], "star": 3.52, "review": 26}, {"name": "いな葉村", "address": "石川県金沢市諸江町上丁321", "lat": 36.59258092, "lon": 136.64534149, "category": "居酒屋", "category_id": "0101495", "time": ["17:30-23:00"], "star": 3.99, "review": 29}, {"name": "ビッグボーイ 金沢北安江店", "address": "石川県金沢市北安江2-24-11", "lat": 36.5878239, "lon": 136.648121, "category": "ファミリーレストラン", "category_id": "0100788", "time": [], "star": 3.66, "review": 110}, {"name": "村田屋", "address": "石川県金沢市諸江町上丁307-15", "lat": 36.59167828, "lon": 136.64580151, "category": "蕎麦店", "category_id": "0100034", "time": ["11:00-15:00", "17:00-20:00"], "star": 3.97, "review": 51}, {"name": "魚笑", "address": "石川県金沢市諸江町30番1号 アルプラザ金沢 別棟1階", "lat": 36.59147328, "lon": 136.64442104, "category": "シーフード・海鮮料理店", "category_id": "0100542", "time": ["11:00-14:30", "18:00-22:00"], "star": 3.72, "review": 35}, {"name": "つちのこ舎", "address": "石川県金沢市七ツ屋町1-3", "lat": 36.5837537, "lon": 136.65246344, "category": "カフェ・喫茶", "category_id": "0100344", "time": [], "star": 4.5, "review": 1}, {"name": "ココス 諸江店", "address": "石川県金沢市諸江町30-1", "lat": 36.590779, "lon": 136.6456016, "category": "ファミリーレストラン", "category_id": "0100788", "time": ["11:00-22:00"], "star": 3.59, "review": 67}], "カフェ": [{"name": "ベイズ カフェ グルメコートアルプラザ金沢店", "address": "石川県金沢市諸江町30-1", "lat": 36.591266377144, "lon": 136.64402725577, "category": "カフェ・喫茶", "category_id": "0100344", "time": ["10:00-20:30"], "star": 3.3, "review": 1}, {"name": "ユナイテッドシネマ金沢 売店", "address": "石川県金沢市高柳町1-70-1 ユナイテッドシネマ金沢 1F", "lat": 36.589648136344, "lon": 136.65870039458, "category": "カフェ・喫茶", "category_id": "0100344", "time": [], "star": 2.94, "review": 6}, {"name": "金沢病院 外来食堂", "address": "石川県金沢市沖町ハ15 独立行政法人 地域医療機能推進機構 金沢病院 1F", "lat": 36.592519137146, "lon": 136.65323695577, "category": "定食屋", "category_id": "0101441", "time": ["10:30-15:00"], "star": 3.25, "review": 2}, {"name": "ビリオン珈琲 金沢諸江店", "address": "石川県金沢市諸江町上丁453-1", "lat": 36.59372879, "lon": 136.64431871, "category": "コーヒー店", "category_id": "0100496", "time": ["07:30-24:00"], "star": 4.02, "review": 80}, {"name": "のと路", "address": "石川県金沢市諸江町6-27", "lat": 36.58982661, "lon": 136.64630463, "category": "カフェ・喫茶", "category_id": "0100344", "time": ["11:00-19:00"], "star": 3.52, "review": 26}, {"name": "つちのこ舎", "address": "石川県金沢市七ツ屋町1-3", "lat": 36.5837537, "lon": 136.65246344, "category": "カフェ・喫茶", "category_id": "0100344", "time": [], "star": 4.5, "review": 1}, {"name": "ハグ ミトン ワークス", "address": "石川県金沢市駅西新町1-1-29", "lat": 36.587821187145, "lon": 136.64026985573, "category": "カフェ・喫茶", "category_id": "0100344", "time": [], "star": 4.18, "review": 40}, {"name": "書林カフェ", "address": "石川県金沢市諸江町30-1 アル･プラザ金沢2F", "lat": 36.591207236338, "lon": 136.6438868946, "category": "カフェ・喫茶", "category_id": "0100344", "time": ["10:00-19:00"], "star": 3.51, "review": 6}, {"name": "Onomatope.riposo", "address": "石川県金沢市諸江町30-1 アル･プラザ金沢 1F", "lat": 36.591267497144, "lon": 136.64402656577, "category": "カフェ・喫茶", "category_id": "0100344", "time": ["10:00-20:30"], "star": 4.15, "review": 5}, {"name": "綾・珈琲", "address": "石川県金沢市磯部町ヲ4-1", "lat": 36.595299, "lon": 136.65144899999996, "category": "カフェ・喫茶", "category_id": "0100344", "time": [], "star": 4.8, "review": 0}, {"name": "ダートコーヒー アル・プラザ金沢店", "address": "石川県金沢市諸江町30-1", "lat": 36.5913614, "lon": 136.642506, "category": "カフェ・喫茶", "category_id": "0100344", "time": ["10:00-20:00"], "star": 3.61, "review": 3}, {"name": "歌謡レストラン幸", "address": "石川県金沢市北安江4丁目13-12", "lat": 36.5891556, "lon": 136.64662854, "category": "カフェ・喫茶", "category_id": "0100344", "time": [], "star": 0.0, "review": 0}, {"name": "綾珈琲", "address": "石川県金沢市磯部町ヲ4-3", "lat": 36.59527508, "lon": 136.65143189, "category": "カフェ・喫茶", "category_id": "0100344", "time": [], "star": 0.0, "review": 0}, {"name": "マイユリ", "address": "石川県金沢市諸江町30-1 アルプラザ金沢別棟", "lat": 36.5915494, "lon": 136.6443347, "category": "カフェ・喫茶", "category_id": "0100344", "time": [], "star": 0.0, "review": 0}, {"name": "ホワイトニングカフェ 金沢店", "address": "石川県金沢市北安江1-4-12 ダイアパレス北安江１Ｆ", "lat": 36.58254407, "lon": 136.64846846, "category": "理容・美容関連", "category_id": "0401993", "time": ["10:00-19:00"], "star": 0.0, "review": 0}, {"name": "ぼくんち", "address": "石川県金沢市諸江町中丁156", "lat": 36.5959995, "lon": 136.6451325, "category": "カフェ・喫茶", "category_id": "0100344", "time": [], "star": 0.0, "review": 0}, {"name": "フェルヴェール 金沢本店", "address": "石川県金沢市西念1-16-9", "lat": 36.58418626, "lon": 136.64434196, "category": "洋菓子店", "category_id": "0101856", "time": ["10:00-21:00"], "star": 3.32, "review": 5}, {"name": "唄のお店・KEIKO", "address": "石川県金沢市駅西新町1丁目17-15", "lat": 36.590289, "lon": 136.639169, "category": "カフェ・喫茶", "category_id": "0100344", "time": [], "star": 0.0, "review": 0}, {"name": "本家とんとん亭", "address": "石川県金沢市北安江3-16-17", "lat": 36.58441546, "lon": 136.64802923, "category": "とんかつ店", "category_id": "0100159", "time": ["11:00-21:30"], "star": 4.0, "review": 108}, {"name": "ONLY・ONE", "address": "石川県金沢市駅西新町1丁目17-15", "lat": 36.590293, "lon": 136.63916, "category": "カフェ・喫茶", "category_id": "0100344", "time": [], "star": 0.0, "review": 0}], "ドラッグストア": [{"name": "クスリのアオキ 西念店", "address": "石川県金沢市西念3-14-12", "lat": 36.5882792, "lon": 136.639252, "category": "ドラッグストア", "category_id": "0200699", "time": ["09:00-22:00"], "star": 3.78, "review": 88}, {"name": "キリン堂ドラッグストア 金沢駅西店", "address": "石川県金沢市駅西新町2-7-34", "lat": 36.5929674, "lon": 136.6390712, "category": "ドラッグストア", "category_id": "0200699", "time": ["09:00-21:45"], "star": 3.9, "review": 54}, {"name": "ファーマライズ薬局 沖町", "address": "石川県金沢市沖町二33", "lat": 36.59225692, "lon": 136.65234114, "category": "調剤薬局", "category_id": "0202315", "time": [], "star": 0.0, "review": 0}, {"name": "クスリのアオキ調剤 西念店", "address": "石川県金沢市西念3-14-12", "lat": 36.5883519, "lon": 136.639151, "category": "調剤薬局", "category_id": "0202315", "time": ["09:00-22:00"], "star": 4.2, "review": 5}, {"name": "北陸クオール株式会社", "address": "石川県金沢市沖町ニ31", "lat": 36.59203794, "lon": 136.65234337, "category": "調剤薬局", "category_id": "0202315", "time": [], "star": 0.0, "review": 0}, {"name": "若葉らいふ薬局", "address": "石川県金沢市沖町二31", "lat": 36.59015146, "lon": 136.6563232, "category": "薬局・薬店関連", "category_id": "0202317", "time": ["08:30-18:00"], "star": 0.0, "review": 0}, {"name": "アイリスあおぞら薬局", "address": "石川県金沢市西念2丁目36-5", "lat": 36.58700051, "lon": 136.63982763, "category": "調剤薬局", "category_id": "0202315", "time": ["09:00-18:00"], "star": 4.33, "review": 1}, {"name": "ファーマみらい 共創未来 いそべ薬局", "address": "石川県金沢市磯部町ヌ32-1", "lat": 36.59568476, "lon": 136.65229266, "category": "調剤薬局", "category_id": "0202315", "time": [], "star": 0.0, "review": 0}, {"name": "太陽薬草院", "address": "石川県金沢市七ツ屋町ニ1", "lat": 36.58954449, "lon": 136.64975029, "category": "漢方", "category_id": "0201946", "time": [], "star": 0.0, "review": 0}], "ATM": [{"name": "北陸銀行 ATM アル・プラザ金沢", "address": "石川県金沢市諸江町30-1", "lat": 36.5910677, "lon": 136.643239, "category": "ATM", "category_id": "0402785", "time": [], "star": 4.0, "review": 1}, {"name": "北國銀行北安江支店", "address": "石川県金沢市北安江2丁目24-5", "lat": 36.5873017, "lon": 136.6483071, "category": "銀行", "category_id": "0402596", "time": ["09:00-15:00"], "star": 3.8, "review": 5}, {"name": "北國銀行 ATM アルプラザ金沢", "address": "石川県金沢市諸江町30-1", "lat": 36.5910273, "lon": 136.64339, "category": "ATM", "category_id": "0402785", "time": [], "star": 0.0, "review": 0}, {"name": "ゆうちょ銀行 金沢諸江郵便局", "address": "石川県金沢市諸江町上丁233-1", "lat": 36.5903118, "lon": 136.646611, "category": "銀行", "category_id": "0402596", "time": [], "star": 3.33, "review": 1}, {"name": "ゆうちょ銀行 ATM 金沢諸江郵便局", "address": "石川県金沢市諸江町上丁233-1", "lat": 36.5903118, "lon": 136.646611, "category": "ATM", "category_id": "0402785", "time": [], "star": 0.0, "review": 0}, {"name": "ゆうちょ銀行 ATM アル・プラザ金沢内出張所", "address": "石川県金沢市諸江町30-1 1F ATMコーナー", "lat": 36.5910261, "lon": 136.6432572, "category": "ATM", "category_id": "0402785", "time": [], "star": 0.0, "review": 0}, {"name": "銀行ATM イーネット （銀行ＬＰ）アルプラザ金沢１号機 共同出張所", "address": "石川県金沢市諸江町30-1 ", "lat": 36.590942, "lon": 136.642478, "category": "ATM", "category_id": "0402785", "time": ["09:00-21:00"], "star": 0.0, "review": 0}, {"name": "セブン銀行 金沢北安江4丁目店", "address": "石川県金沢市北安江4-11-27", "lat": 36.5881113, "lon": 136.647016, "category": "ATM", "category_id": "0402785", "time": ["00:00-24:00"], "star": 0.0, "review": 0}, {"name": "銀行ATM イーネット （銀行ＬＰ）アルプラザ金沢２号機 共同出張所", "address": "石川県金沢市諸江町30-1 ", "lat": 36.590929, "lon": 136.642413, "category": "ATM", "category_id": "0402785", "time": ["09:00-21:00"], "star": 0.0, "review": 0}, {"name": "銀行ATM イーネット 全日本食品金沢沖町 共同出張所", "address": "石川県金沢市沖町イ55-5 ", "lat": 36.590584, "lon": 136.658633, "category": "ATM", "category_id": "0402785", "time": ["09:00-22:00"], "star": 0.0, "review": 0}, {"name": "銀行ATM イーネット ファミリーマート金沢広岡三丁目 共同出張所", "address": "石川県金沢市広岡3-3-47 ", "lat": 36.58293007, "lon": 136.64558806, "category": "ATM", "category_id": "0402785", "time": ["00:00-24:00"], "star": 0.0, "review": 0}, {"name": "JAバンク 金沢市農業協同組合(JA金沢市)弓取支店", "address": "石川県金沢市諸江町中丁347-1", "lat": 36.5989336, "lon": 136.644958, "category": "銀行", "category_id": "0402596", "time": [], "star": 2.5, "review": 1}, {"name": "ゆうちょ銀行 ATM ファミリーマート金沢西念二丁目店内出張所", "address": "石川県金沢市西念2-27-17", "lat": 36.5852548, "lon": 136.643492, "category": "ATM", "category_id": "0402785", "time": [], "star": 0.0, "review": 0}, {"name": "JAバンク ATM 金沢市農業協同組合(JA金沢市)弓取支店", "address": "石川県金沢市諸江町中丁347-1", "lat": 36.5989139, "lon": 136.6449318, "category": "ATM", "category_id": "0402785", "time": [], "star": 0.0, "review": 0}, {"name": "金沢諸江郵便局", "address": "石川県金沢市諸江町上丁233-1", "lat": 36.59031236, "lon": 136.6466071, "category": "郵便局", "category_id": "0400993", "time": ["09:00-17:00"], "star": 3.86, "review": 7}, {"name": "ゆうちょ銀行 ATM ファミリーマート金沢諸江通り店内出張所", "address": "石川県金沢市北安江1-14-1", "lat": 36.5828732, "lon": 136.648225, "category": "ATM", "category_id": "0402785", "time": [], "star": 0.0, "review": 0}, {"name": "ゆうちょ銀行 ATM ファミリーマート金沢西念三丁目店内出張所", "address": "石川県金沢市西念3-32-16", "lat": 36.591781, "lon": 136.637853, "category": "ATM", "category_id": "0402785", "time": [], "star": 0.0, "review": 0}, {"name": "宝くじ ATM 北陸銀行アル・プラザ金沢", "address": "石川県金沢市諸江町30-1", "lat": 36.59106, "lon": 136.64323, "category": "宝くじ売り場", "category_id": "0401442", "time": ["10:00-21:00"], "star": 0.0, "review": 0}, {"name": "ローソン銀行 金沢諸江中丁共同出張所", "address": "石川県金沢市諸江町中丁250-1", "lat": 36.5967545, "lon": 136.642706, "category": "ATM", "category_id": "0402785", "time": ["00:00-24:00"], "star": 0.0, "review": 0}, {"name": "ローソン銀行 金沢諸江町共同出張所", "address": "石川県金沢市諸江町中丁348-1", "lat": 36.5987187, "lon": 136.645026, "category": "ATM", "category_id": "0402785", "time": ["00:00-24:00"], "star": 0.0, "review": 0}], "銭湯 温泉": [{"name": "pocapoca 諸江の湯", "address": "石川県金沢市諸江町中丁180-3", "lat": 36.59574017, "lon": 136.64462248, "category": "銭湯", "category_id": "0400578", "time": ["06:00-24:00"], "star": 3.76, "review": 28}, {"name": "双葉湯", "address": "石川県金沢市駅西新町1丁目14番24号", "lat": 36.58881054, "lon": 136.64052083, "category": "銭湯", "category_id": "0400578", "time": ["13:00-23:30"], "star": 3.44, "review": 12}], "スーパーマーケット": [{"name": "業務スーパー 諸江店", "address": "石川県金沢市諸江町中丁150-1", "lat": 36.5949422, "lon": 136.6451764, "category": "スーパー", "category_id": "0200612", "time": ["09:30-20:00"], "star": 3.84, "review": 212}, {"name": "平和堂 アル・プラザ金沢", "address": "石川県金沢市諸江町30-1", "lat": 36.59122242, "lon": 136.6435489, "category": "スーパー", "category_id": "0200612", "time": ["10:00-21:00"], "star": 3.45, "review": 445}, {"name": "クスリのアオキ諸江店", "address": "石川県金沢市諸江町中丁150-1", "lat": 36.5949802, "lon": 136.6451466, "category": "スーパー", "category_id": "0200612", "time": [], "star": 4.5, "review": 2}, {"name": "全日食チェーン 金沢沖町店", "address": "石川県金沢市沖町イ55-5", "lat": 36.59119024, "lon": 136.6585964, "category": "スーパー", "category_id": "0200612", "time": ["09:00-22:00"], "star": 3.39, "review": 1}, {"name": "肉乃北安江店", "address": "石川県金沢市北安江3-14-20", "lat": 36.58628104, "lon": 136.64829885, "category": "精肉店", "category_id": "0202152", "time": ["09:00-19:00"], "star": 4.3, "review": 8}, {"name": "ダイソー アルプラザ金沢店", "address": "石川県金沢市諸江町３０番１号 アルプラザ金沢店内２階", "lat": 36.59157048, "lon": 136.64430159, "category": "100円ショップ", "category_id": "0200001", "time": ["10:00-21:00"], "star": 4.06, "review": 107}, {"name": "キリン堂ドラッグストア 金沢駅西店", "address": "石川県金沢市駅西新町2-7-34", "lat": 36.5929674, "lon": 136.6390712, "category": "ドラッグストア", "category_id": "0200699", "time": ["09:00-21:45"], "star": 3.9, "review": 54}, {"name": "クスリのアオキ 西念店", "address": "石川県金沢市西念3-14-12", "lat": 36.5882792, "lon": 136.639252, "category": "ドラッグストア", "category_id": "0200699", "time": ["09:00-22:00"], "star": 3.78, "review": 88}]}, "top_restaurant": {"name": "綾・珈琲", "category": "カフェ・喫茶", "star": 4.8, "review": 0}}, {"name": "中津幡", "name_en": "Naka-Tsubata", "lat": 36.6713908, "lon": 136.7404126, "osm_id": 267457138, "operator": "", "railway": "station", "wikidata": "Q6960100", "wikipedia_tag": "ja:中津幡駅", "lines": [], "pref": "石川県", "wikipedia_text": "中津幡駅（なかつばたえき）は、石川県河北郡津幡町字津幡にある、西日本旅客鉄道（JR西日本）七尾線の駅である。\n当駅と津幡駅との間にデッドセクション（交流・直流）が設置されている。", "wikipedia_image": "https://upload.wikimedia.org/wikipedia/commons/7/79/Naka-Tsubata_Station_2020.jpg", "nearest_convenience": {"name": "ファミリーマート", "lat": 36.6698986, "lon": 136.7304134, "address": "", "distance_m": 907, "brand": "FamilyMart"}, "nearest_restaurant": {"name": "カルビ大将津幡店", "lat": 36.6600712, "lon": 136.7273807, "address": "", "distance_m": 1713, "cuisine": ""}, "nearby_pois": {"コンビニ": [{"name": "ファミリーマート 津幡加賀爪店", "address": "石川県河北郡津幡町加賀爪ハ88-3", "lat": 36.6698626, "lon": 136.730372, "category": "コンビニ", "category_id": "0200487", "time": ["00:00-24:00"], "star": 4.25, "review": 2}, {"name": "セブンイレブン 津幡横浜", "address": "石川県河北郡津幡町字横浜い147-1", "lat": 36.6653021, "lon": 136.7344022, "category": "コンビニ", "category_id": "0200487", "time": ["00:00-24:00"], "star": 4.14, "review": 12}, {"name": "ファミリーマート 本津幡駅前店", "address": "石川県河北郡津幡町字清水チ374-4", "lat": 36.6754787, "lon": 136.7312801, "category": "コンビニ", "category_id": "0200487", "time": ["00:00-24:00"], "star": 4.06, "review": 6}, {"name": "カジマート みなみ店", "address": "石川県河北郡津幡町加賀爪ホ218", "lat": 36.6687017, "lon": 136.7352298, "category": "スーパー", "category_id": "0200612", "time": ["09:00-21:00"], "star": 3.79, "review": 24}], "ラーメン": [{"name": "らーめん全日本 津幡店", "address": "石川県河北郡津幡町横浜ろ64-1", "lat": 36.665082417125, "lon": 136.73242250645, "category": "ラーメン店", "category_id": "0100097", "time": ["11:00-14:00", "17:30-21:00"], "star": 3.52, "review": 12}, {"name": "Yahataすしべん 津幡店", "address": "石川県河北郡津幡町杉瀬イ150", "lat": 36.66672447, "lon": 136.74736081, "category": "定食屋", "category_id": "0101441", "time": ["07:00-21:00"], "star": 4.46, "review": 81}, {"name": "肉料理と酒の肴とおかず 焼肉亭 ポパイ", "address": "石川県河北郡津幡町清水イ140-1", "lat": 36.671936, "lon": 136.734208, "category": "焼肉店", "category_id": "0101963", "time": ["17:00-26:00"], "star": 4.13, "review": 13}, {"name": "しま", "address": "石川県河北郡 津幡町字加賀爪ホ68", "lat": 36.67010969, "lon": 136.73332008, "category": "おでん店", "category_id": "0100040", "time": [], "star": 0.0, "review": 0}], "飲食店": [{"name": "とんぼ", "address": "石川県河北郡津幡町津幡ハ37", "lat": 36.670533507124, "lon": 136.7388531065, "category": "定食屋", "category_id": "0101441", "time": ["11:00-14:00", "17:00-22:00"], "star": 4.81, "review": 12}, {"name": "miron", "address": "石川県河北郡津幡町字津幡ニ504-1", "lat": 36.67119354, "lon": 136.74005482, "category": "飲食店", "category_id": "0102732", "time": ["11:00-17:00"], "star": 4.0, "review": 5}, {"name": "サンマルコ", "address": "石川県河北郡津幡町浅田丙48", "lat": 36.665144706521, "lon": 136.73413389351, "category": "カフェ・喫茶", "category_id": "0100344", "time": [], "star": 4.0, "review": 1}, {"name": "Wind", "address": "石川県河北郡津幡町清水ア19", "lat": 36.675088927119, "lon": 136.73519057655, "category": "カフェ・喫茶", "category_id": "0100344", "time": ["10:00-16:00", "18:00-24:00"], "star": 0.0, "review": 0}, {"name": "より味ち", "address": "石川県河北郡津幡町字浅田丙41-3", "lat": 36.66508547, "lon": 136.73573156, "category": "飲食店", "category_id": "0102732", "time": [], "star": 0.0, "review": 0}, {"name": "茶房 いけ田", "address": "石川県河北郡津幡町庄ウ6", "lat": 36.672276899157, "lon": 136.73275401074, "category": "飲食店", "category_id": "0102732", "time": ["11:00-18:00"], "star": 4.5, "review": 1}, {"name": "季節料理 和", "address": "石川県河北郡津幡町加賀爪ル-201", "lat": 36.66900404, "lon": 136.73959742, "category": "和食店", "category_id": "0100126", "time": ["11:30-14:00", "17:00-22:00"], "star": 3.92, "review": 6}, {"name": "軽食・お茶処 たいほう", "address": "石川県河北郡津幡町津幡ニ558-3", "lat": 36.672842267121, "lon": 136.73660655652, "category": "カフェ・喫茶", "category_id": "0100344", "time": ["11:00-16:00"], "star": 3.93, "review": 9}, {"name": "Orange BOSS", "address": "石川県河北郡津幡町津幡ニ525", "lat": 36.67247582, "lon": 136.7372426, "category": "カフェ・喫茶", "category_id": "0100344", "time": ["14:00-23:30"], "star": 3.0, "review": 0}, {"name": "割烹大竹", "address": "石川県河北郡津幡町加賀爪ホ-435", "lat": 36.669310727123, "lon": 136.73577671649, "category": "和食店", "category_id": "0100126", "time": ["11:30-14:30", "16:30-23:30"], "star": 4.4, "review": 7}, {"name": "もみの木カフェ", "address": "石川県河北郡津幡町清水チ332-2", "lat": 36.67553786, "lon": 136.73234529, "category": "カフェ・喫茶", "category_id": "0100344", "time": ["10:00-18:30"], "star": 4.27, "review": 56}, {"name": "あま美や", "address": "石川県河北郡津幡町字津幡ニ530-3", "lat": 36.67222588, "lon": 136.73830193, "category": "カフェ・喫茶", "category_id": "0100344", "time": [], "star": 0.0, "review": 0}, {"name": "マロニエ", "address": "石川県河北郡津幡町字加賀爪ヌ3-5", "lat": 36.668780037124, "lon": 136.73603274648, "category": "ケーキ店", "category_id": "0100460", "time": ["09:00-21:30"], "star": 4.31, "review": 24}, {"name": "ハーレー", "address": "石川県河北郡津幡町字津幡ろ522-2", "lat": 36.67449669, "lon": 136.74528973, "category": "カフェ・喫茶", "category_id": "0100344", "time": [], "star": 3.4, "review": 2}, {"name": "タンバム", "address": "石川県河北郡 津幡町字津幡ハ8", "lat": 36.674786953614, "lon": 136.74202939453, "category": "レストラン", "category_id": "0100111", "time": [], "star": 0.0, "review": 0}, {"name": "蕎麦森乃庵", "address": "石川県河北郡津幡町津幡二536-1", "lat": 36.67123484, "lon": 136.73691849, "category": "蕎麦店", "category_id": "0100034", "time": [], "star": 3.5, "review": 4}, {"name": "Yahataすしべん 津幡店", "address": "石川県河北郡津幡町杉瀬イ150", "lat": 36.66672447, "lon": 136.74736081, "category": "定食屋", "category_id": "0101441", "time": ["07:00-21:00"], "star": 4.46, "review": 81}, {"name": "りょうか", "address": "石川県河北郡津幡町津幡ハ-23", "lat": 36.6709435, "lon": 136.73760315, "category": "レストラン", "category_id": "0100111", "time": [], "star": 0.0, "review": 0}, {"name": "GRILL せど", "address": "石川県河北郡津幡町加賀爪ホ218 カジマートみなみ店", "lat": 36.668658137124, "lon": 136.73530299648, "category": "カフェ・喫茶", "category_id": "0100344", "time": [], "star": 3.8, "review": 3}, {"name": "より味ち", "address": "石川県河北郡津幡町浅田丙41-3", "lat": 36.6650803, "lon": 136.7357248, "category": "飲食店", "category_id": "0102732", "time": ["11:30-24:00"], "star": 2.33, "review": 0}], "カフェ": [{"name": "サンマルコ", "address": "石川県河北郡津幡町浅田丙48", "lat": 36.665144706521, "lon": 136.73413389351, "category": "カフェ・喫茶", "category_id": "0100344", "time": [], "star": 4.0, "review": 1}, {"name": "軽食・お茶処 たいほう", "address": "石川県河北郡津幡町津幡ニ558-3", "lat": 36.672842267121, "lon": 136.73660655652, "category": "カフェ・喫茶", "category_id": "0100344", "time": ["11:00-16:00"], "star": 3.93, "review": 9}, {"name": "Wind", "address": "石川県河北郡津幡町清水ア19", "lat": 36.675088927119, "lon": 136.73519057655, "category": "カフェ・喫茶", "category_id": "0100344", "time": ["10:00-16:00", "18:00-24:00"], "star": 0.0, "review": 0}, {"name": "もみの木カフェ", "address": "石川県河北郡津幡町清水チ332-2", "lat": 36.67553786, "lon": 136.73234529, "category": "カフェ・喫茶", "category_id": "0100344", "time": ["10:00-18:30"], "star": 4.27, "review": 56}, {"name": "茶房 いけ田", "address": "石川県河北郡津幡町庄ウ6", "lat": 36.672276899157, "lon": 136.73275401074, "category": "飲食店", "category_id": "0102732", "time": ["11:00-18:00"], "star": 4.5, "review": 1}, {"name": "Orange BOSS", "address": "石川県河北郡津幡町津幡ニ525", "lat": 36.67247582, "lon": 136.7372426, "category": "カフェ・喫茶", "category_id": "0100344", "time": ["14:00-23:30"], "star": 3.0, "review": 0}, {"name": "マロニエ", "address": "石川県河北郡津幡町字加賀爪ヌ3-5", "lat": 36.668780037124, "lon": 136.73603274648, "category": "ケーキ店", "category_id": "0100460", "time": ["09:00-21:30"], "star": 4.31, "review": 24}, {"name": "madoかふぇ", "address": "石川県河北郡津幡町浅田丙45-3", "lat": 36.665196607126, "lon": 136.73490268645, "category": "カフェ・喫茶", "category_id": "0100344", "time": ["11:00-17:30"], "star": 3.62, "review": 7}, {"name": "あま美や", "address": "石川県河北郡津幡町字津幡ニ530-3", "lat": 36.67222588, "lon": 136.73830193, "category": "カフェ・喫茶", "category_id": "0100344", "time": [], "star": 0.0, "review": 0}, {"name": "GRILL せど", "address": "石川県河北郡津幡町加賀爪ホ218 カジマートみなみ店", "lat": 36.668658137124, "lon": 136.73530299648, "category": "カフェ・喫茶", "category_id": "0100344", "time": [], "star": 3.8, "review": 3}, {"name": "ハーレー", "address": "石川県河北郡津幡町字津幡ろ522-2", "lat": 36.67449669, "lon": 136.74528973, "category": "カフェ・喫茶", "category_id": "0100344", "time": [], "star": 3.4, "review": 2},