[{"name": "つくば", "name_en": "Tsukuba", "lat": 36.0826496, "lon": 140.1111943, "osm_id": 3349564794, "operator": "首都圏新都市鉄道", "railway": "station", "wikidata": "Q1069714", "wikipedia_tag": "ja:つくば駅", "lines": [], "pref": "茨城県", "nearby_bus_stops": [{"name": "つくばセンター", "lat": 36.082471, "lon": 140.1106247, "distance_m": 55, "operator": ""}, {"name": "つくばセンター", "lat": 36.0825838, "lon": 140.1119911, "distance_m": 72, "operator": "つくば市コミュニティバス"}, {"name": "つくばセンター", "lat": 36.082419, "lon": 140.1120663, "distance_m": 82, "operator": "関東鉄道;つくば市コミュニティバス"}, {"name": "つくばセンター", "lat": 36.0819885, "lon": 140.11263, "distance_m": 148, "operator": ""}, {"name": "つくばセンター", "lat": 36.0826158, "lon": 140.1130216, "distance_m": 164, "operator": ""}], "wikipedia_text": "つくば駅（つくばえき）は、茨城県つくば市吾妻二丁目にある首都圏新都市鉄道つくばエクスプレスの駅。同線の終点である。駅番号はTX20。", "wikipedia_image": "https://upload.wikimedia.org/wikipedia/commons/b/b1/TX_Tsukuba_station_exits.jpg", "nearest_convenience": {"name": "ファミリーマート", "lat": 36.0828213, "lon": 140.1114542, "address": "茨城県つくば市吾妻二丁目128", "distance_m": 30, "brand": "FamilyMart"}, "nearest_restaurant": {"name": "スターバックス", "lat": 36.082757, "lon": 140.1114135, "address": "茨城県つくば市吾妻二丁目128", "distance_m": 23, "cuisine": "coffee_shop"}, "nearby_pois": {"コンビニ": [{"name": "ファミリーマート TXつくば駅店", "address": "茨城県つくば市吾妻2-128", "lat": 36.0826914, "lon": 140.1113341, "category": "コンビニ", "category_id": "0200487", "time": ["06:00-23:00"], "star": 4.05, "review": 24}, {"name": "ファミリーマート つくばQ’t店", "address": "茨城県つくば市吾妻1-6-1", "lat": 36.0817693, "lon": 140.1115924, "category": "コンビニ", "category_id": "0200487", "time": ["00:00-24:00"], "star": 4.0, "review": 57}, {"name": "ローソン つくば駅バスターミナル", "address": "茨城県つくば市吾妻1-8-10", "lat": 36.0817415, "lon": 140.1128006, "category": "コンビニ", "category_id": "0200487", "time": ["00:00-24:00"], "star": 4.03, "review": 55}, {"name": "ファミリーマート つくば竹園店", "address": "茨城県つくば市竹園1-8-7", "lat": 36.078353, "lon": 140.1126507, "category": "コンビニ", "category_id": "0200487", "time": ["00:00-24:00"], "star": 4.36, "review": 40}, {"name": "セブンイレブン つくば吾妻3丁目", "address": "茨城県つくば市吾妻3-16-9", "lat": 36.0879907, "lon": 140.1150476, "category": "コンビニ", "category_id": "0200487", "time": ["00:00-24:00"], "star": 4.34, "review": 21}, {"name": "ローソン つくば東新井", "address": "茨城県つくば市東新井24-14", "lat": 36.0770837, "lon": 140.1142451, "category": "コンビニ", "category_id": "0200487", "time": ["00:00-24:00"], "star": 4.1, "review": 40}, {"name": "セブンイレブン つくば小野崎", "address": "茨城県つくば市小野崎161-3", "lat": 36.075734, "lon": 140.1061539, "category": "コンビニ", "category_id": "0200487", "time": ["00:00-24:00"], "star": 3.94, "review": 6}, {"name": "セブンイレブン つくば竹園", "address": "茨城県つくば市竹園2-8-13", "lat": 36.0784279, "lon": 140.1207225, "category": "コンビニ", "category_id": "0200487", "time": ["00:00-24:00"], "star": 4.39, "review": 34}, {"name": "セブンイレブン つくば国際会議場前", "address": "茨城県つくば市東新井32-6", "lat": 36.0750118, "lon": 140.1164339, "category": "コンビニ", "category_id": "0200487", "time": ["00:00-24:00"], "star": 4.02, "review": 16}, {"name": "ロピア トナリエクレオ店", "address": "茨城県つくば市吾妻1-7-1", "lat": 36.08064165, "lon": 140.11218683, "category": "スーパー", "category_id": "0200612", "time": ["10:00-20:00"], "star": 4.08, "review": 535}, {"name": "ダイワロイネットホテルつくば", "address": "茨城県つくば市吾妻1-5-7", "lat": 36.081911, "lon": 140.1105758, "category": "ビジネスホテル", "category_id": "0300758", "time": [], "star": 4.19, "review": 90}, {"name": "ヨークベニマル つくば竹園店", "address": "茨城県つくば市竹園1-3-1", "lat": 36.0806388, "lon": 140.1169504, "category": "スーパー", "category_id": "0200612", "time": ["10:00-22:00"], "star": 4.07, "review": 337}, {"name": "カスミ プルシェつくばキュート店", "address": "茨城県つくば市吾妻1-6-1 トナリエつくばスクエア キュート 1F", "lat": 36.0817804, "lon": 140.1113702, "category": "スーパー", "category_id": "0200612", "time": ["10:00-20:00"], "star": 3.94, "review": 51}, {"name": "ホテル山久", "address": "茨城県つくば市小野崎1番", "lat": 36.08214786, "lon": 140.1056352, "category": "ビジネスホテル", "category_id": "0300758", "time": ["09:00-21:00"], "star": 4.42, "review": 5}, {"name": "カスミ フードスクエア学園店", "address": "茨城県つくば市竹園2-12-1", "lat": 36.0769892, "lon": 140.1192309, "category": "スーパー", "category_id": "0200612", "time": ["09:00-24:00"], "star": 3.84, "review": 136}, {"name": "ホテルJALシティつくば", "address": "茨城県つくば市竹園2-20-1", "lat": 36.0772226, "lon": 140.1160367, "category": "ホテル", "category_id": "0300124", "time": ["09:00-21:00"], "star": 3.93, "review": 43}, {"name": "ホテルつくばヒルズ学園西大通り店", "address": "茨城県つくば市東新井8-7", "lat": 36.0754396, "lon": 140.1108898, "category": "ビジネスホテル", "category_id": "0300758", "time": ["00:00-24:00"], "star": 4.05, "review": 35}], "ラーメン": [{"name": "ご当地ラーメン DARAKE", "address": "茨城県つくば市吾妻1-6-1", "lat": 36.081872558571, "lon": 140.11151478819, "category": "ラーメン店", "category_id": "0100097", "time": [], "star": 0.0, "review": 0}, {"name": "クジラ食堂", "address": "茨城県つくば市天久保1-5-4 くいだおれビル 1F", "lat": 36.09087503776, "lon": 140.11018178712, "category": "定食屋", "category_id": "0101441", "time": [], "star": 3.72, "review": 10}, {"name": "ラーメン 龍郎", "address": "茨城県つくば市吾妻3-8-1", "lat": 36.08910453, "lon": 140.1103062, "category": "ラーメン店", "category_id": "0100097", "time": ["11:30-14:30", "17:30-22:00"], "star": 4.12, "review": 41}, {"name": "清六家 つくばキュート店", "address": "茨城県つくば市吾妻1-6-1 トナリエつくばスクエア キュート 3F", "lat": 36.0818949, "lon": 140.111469, "category": "ラーメン店", "category_id": "0100097", "time": ["11:00-23:00"], "star": 4.09, "review": 43}, {"name": "青葉 つくば店", "address": "茨城県つくば市竹園1-9-2", "lat": 36.0780025, "lon": 140.1147484, "category": "ラーメン店", "category_id": "0100097", "time": ["11:00-21:30"], "star": 4.2, "review": 50}, {"name": "ららららーめんや", "address": "茨城県つくば市天久保1-6-11", "lat": 36.09125428, "lon": 140.11024783, "category": "ラーメン店", "category_id": "0100097", "time": [], "star": 4.6, "review": 1}, {"name": "ラーメン山岡家 つくば中央店", "address": "茨城県つくば市小野崎127番地1", "lat": 36.07657829, "lon": 140.10589002, "category": "ラーメン店", "category_id": "0100097", "time": ["00:00-24:00"], "star": 4.16, "review": 78}, {"name": "俺の生きる道 つくば店", "address": "茨城県つくば市吾妻3-12-1", "lat": 36.09036548, "lon": 140.11150054, "category": "ラーメン店", "category_id": "0100097", "time": ["11:00-22:00"], "star": 4.18, "review": 66}, {"name": "麺や 蒼", "address": "茨城県つくば市竹園2-6-10", "lat": 36.077901858576, "lon": 140.11824110814, "category": "ラーメン店", "category_id": "0100097", "time": ["11:30-14:30", "17:30-21:00"], "star": 4.14, "review": 161}, {"name": "七福軒", "address": "茨城県つくば市天久保1丁目6-7", "lat": 36.09102654, "lon": 140.10962622, "category": "ラーメン店", "category_id": "0100097", "time": [], "star": 4.42, "review": 60}, {"name": "麺道 千里", "address": "茨城県つくば市吾妻3-13-9 スズキビル 1F", "lat": 36.089645448567, "lon": 140.11225842827, "category": "ラーメン店", "category_id": "0100097", "time": ["11:00-14:30", "17:30-21:30"], "star": 4.17, "review": 21}, {"name": "旭川らあめん やまる", "address": "茨城県つくば市竹園2-4-10 村田ビル103", "lat": 36.07881953, "lon": 140.1200364, "category": "ラーメン店", "category_id": "0100097", "time": ["11:00-14:00", "17:30-21:00"], "star": 4.11, "review": 12}, {"name": "大元", "address": "茨城県つくば市天久保1-6-15", "lat": 36.090764318565, "lon": 140.10926038828, "category": "ラーメン店", "category_id": "0100097", "time": ["20:30-27:00"], "star": 4.07, "review": 12}, {"name": "中華そばビート", "address": "茨城県つくば市竹園1-9-7 林ビル", "lat": 36.07807804, "lon": 140.11457564, "category": "飲食店", "category_id": "0102732", "time": ["11:30-14:00", "18:00-21:00"], "star": 4.29, "review": 20}, {"name": "ラーメン さごはち ヨークタウン竹園店", "address": "茨城県つくば市竹園1丁目3-1 ヨークタウン竹園", "lat": 36.0808084, "lon": 140.1170567, "category": "ラーメン店", "category_id": "0100097", "time": [], "star": 4.5, "review": 1}, {"name": "オリオン餃子 つくば駅前店", "address": "茨城県つくば市吾妻1-8-10BiViつくば 3F", "lat": 36.08171, "lon": 140.11276, "category": "餃子店", "category_id": "0102733", "time": ["11:30-15:00", "17:00-24:00"], "star": 3.43, "review": 10}, {"name": "活龍竹園店", "address": "茨城県つくば市竹園1丁目9-7", "lat": 36.07801861, "lon": 140.11453814, "category": "つけ麺店", "category_id": "0102844", "time": ["11:30-14:30", "17:30-22:00"], "star": 3.9, "review": 23}, {"name": "つくば 樓外樓 学園店", "address": "茨城県つくば市吾妻1-5-3 MOG 3F", "lat": 36.081675337766, "lon": 140.11111998703, "category": "中華料理店", "category_id": "0100990", "time": ["11:30-15:00", "17:00-23:00"], "star": 3.96, "review": 36}, {"name": "大成軒 学園店", "address": "茨城県つくば市天久保1-7-13", "lat": 36.09126957, "lon": 140.10885626, "category": "ラーメン店", "category_id": "0100097", "time": ["11:30-20:00"], "star": 4.03, "review": 63}, {"name": "中国料理 桃李", "address": "茨城県つくば市吾妻1-1364-1ホテル日航つくば 別館 2F", "lat": 36.082524, "lon": 140.113445, "category": "中華料理店", "category_id": "0100990", "time": ["11:30-14:30", "17:30-21:00"], "star": 4.34, "review": 20}], "飲食店": [{"name": "いばらき地酒バーつくば", "address": "茨城県つくば市吾妻2-128 TXつくば駅 改札正面", "lat": 36.082501555753, "lon": 140.11164178224, "category": "バー", "category_id": "0100536", "time": [], "star": 4.5, "review": 1}, {"name": "ベリーベリー カフェ", "address": "茨城県つくば市吾妻1-6-1 トナリエつくばスクエア tonarie Q't 1F", "lat": 36.081873537766, "lon": 140.11151388703, "category": "カフェ・喫茶", "category_id": "0100344", "time": ["10:00-20:00"], "star": 3.64, "review": 8}, {"name": "ザ・餃子亭 トナリエクレオ店", "address": "茨城県つくば市吾妻1-6-1", "lat": 36.081470920307, "lon": 140.11121363306, "category": "餃子店", "category_id": "0102733", "time": [], "star": 3.86, "review": 12}, {"name": "オハナ", "address": "茨城県つくば市吾妻2-8 つくば文化会館アルス", "lat": 36.084516888722, "lon": 140.1122902706, "category": "カフェ・喫茶", "category_id": "0100344", "time": ["10:00-18:00"], "star": 3.61, "review": 7}, {"name": "ジジ オステリア", "address": "茨城県つくば市東新井17-3 クローバー 2F", "lat": 36.078052858574, "lon": 140.11152048815, "category": "イタリア料理店", "category_id": "0100263", "time": ["18:00-23:00"], "star": 3.67, "review": 10}, {"name": "つくばパンケーキ88カフェ", "address": "茨城県つくば市竹園1-9-2", "lat": 36.0779867, "lon": 140.1148035, "category": "パンケーキ店", "category_id": "0100744", "time": [], "star": 4.0, "review": 39}, {"name": "ホテル日航つくば 宴会場", "address": "茨城県つくば市吾妻1-1364-1", "lat": 36.0823528, "lon": 140.1138591, "category": "会席・懐石料理店", "category_id": "0101064", "time": [], "star": 0.0, "review": 0}, {"name": "開運たこやき たま吉", "address": "茨城県つくば市吾妻1-10 つくばセンターマルシェ広場", "lat": 36.08208144456, "lon": 140.11316010997, "category": "たこ焼き店", "category_id": "0100134", "time": [], "star": 0.0, "review": 1}, {"name": "クジラ食堂", "address": "茨城県つくば市天久保1-5-4 くいだおれビル 1F", "lat": 36.09087503776, "lon": 140.11018178712, "category": "定食屋", "category_id": "0101441", "time": [], "star": 3.72, "review": 10}, {"name": "白木屋 つくば駅前店", "address": "茨城県つくば市吾妻1-5-7 ダイワロイネットホテルつくば 2階", "lat": 36.0819362, "lon": 140.1105454, "category": "居酒屋", "category_id": "0101495", "time": [], "star": 0.0, "review": 0}, {"name": "おんどり亭", "address": "茨城県つくば市吾妻1-6-1 つくばクレオスクエア 1F", "lat": 36.081654751798, "lon": 140.11165554542, "category": "串焼き店", "category_id": "0101001", "time": [], "star": 0.0, "review": 0}, {"name": "ご当地ラーメン DARAKE", "address": "茨城県つくば市吾妻1-6-1", "lat": 36.081872558571, "lon": 140.11151478819, "category": "ラーメン店", "category_id": "0100097", "time": [], "star": 0.0, "review": 0}, {"name": "筑波学院大学大食堂", "address": "茨城県つくば市吾妻3-1", "lat": 36.088644498566, "lon": 140.10755760826, "category": "定食屋", "category_id": "0101441", "time": [], "star": 3.27, "review": 6}, {"name": "北京老飯店 トナリエクレオ店", "address": "茨城県つくば市吾妻1-7-1 トナリエつくば 1F", "lat": 36.080590218572, "lon": 140.11217964818, "category": "中華料理店", "category_id": "0100990", "time": ["10:00-20:00"], "star": 3.08, "review": 5}, {"name": "Craft Beer BAR", "address": "茨城県つくば市竹園1-9-2 DAYZ TOWN B1F", "lat": 36.078013158575, "lon": 140.11545669815, "category": "ビアバー", "category_id": "0100443", "time": ["17:30-24:00"], "star": 0.0, "review": 0}, {"name": "スターバックス コーヒー つくば駅店", "address": "茨城県つくば市吾妻2-128", "lat": 36.082721, "lon": 140.111322, "category": "コーヒー店", "category_id": "0100496", "time": ["07:00-21:00"], "star": 4.13, "review": 58}, {"name": "Beer bar girlie shot", "address": "茨城県つくば市天久保1-6-1 ヤマキビル 1F", "lat": 36.090952137759, "lon": 140.10877888712, "category": "ビアバー", "category_id": "0100443", "time": ["17:00-24:00"], "star": 4.07, "review": 6}, {"name": "リュカオン", "address": "茨城県つくば市吾妻3-8-1 吾妻ハイツ103", "lat": 36.089112587166, "lon": 140.11031002294, "category": "バー", "category_id": "0100536", "time": ["20:00-30:00"], "star": 3.0, "review": 1}, {"name": "サンキュー焼UDON", "address": "茨城県つくば市天久保1-6-1 ヤマキビル 1F ガーリーショット内", "lat": 36.09089653797, "lon": 140.10887589324, "category": "うどん店", "category_id": "0100033", "time": ["11:30-14:30"], "star": 0.0, "review": 0}, {"name": "N's Dining & Cafe×和牛粗挽きハンバーグ ぱる", "address": "茨城県つくば市竹園1-3-1 竹園ヨークタウン 1F", "lat": 36.080279237769, "lon": 140.11657698701, "category": "ハンバーグ店", "category_id": "0100571", "time": ["11:00-21:30"], "star": 3.23, "review": 4}], "カフェ": [{"name": "つくばパンケーキ88カフェ", "address": "茨城県つくば市竹園1-9-2", "lat": 36.0779867, "lon": 140.1148035, "category": "パンケーキ店", "category_id": "0100744", "time": [], "star": 4.0, "review": 39}, {"name": "ベリーベリー カフェ", "address": "茨城県つくば市吾妻1-6-1 トナリエつくばスクエア tonarie Q't 1F", "lat": 36.081873537766, "lon": 140.11151388703, "category": "カフェ・喫茶", "category_id": "0100344", "time": ["10:00-20:00"], "star": 3.64, "review": 8}, {"name": "オハナ", "address": "茨城県つくば市吾妻2-8 つくば文化会館アルス", "lat": 36.084516888722, "lon": 140.1122902706, "category": "カフェ・喫茶", "category_id": "0100344", "time": ["10:00-18:00"], "star": 3.61, "review": 7}, {"name": "スターバックス コーヒー つくば駅店", "address": "茨城県つくば市吾妻2-128", "lat": 36.082721, "lon": 140.111322, "category": "コーヒー店", "category_id": "0100496", "time": ["07:00-21:00"], "star": 4.13, "review": 58}, {"name": "サザコーヒー つくば駅前店", "address": "茨城県つくば市吾妻1-8-10", "lat": 36.08163596, "lon": 140.11280621, "category": "コーヒー店", "category_id": "0100496", "time": ["08:00-19:00"], "star": 4.05, "review": 92}, {"name": "スターバックス コーヒー トナリエキュート つくば店", "address": "茨城県つくば市吾妻1-6-1トナリエキュート 2F", "lat": 36.082407, "lon": 140.111504, "category": "コーヒー店", "category_id": "0100496", "time": ["07:00-23:00"], "star": 4.2, "review": 86}, {"name": "高倉町珈琲 つくば店", "address": "茨城県つくば市小野崎502-30", "lat": 36.07948905, "lon": 140.10806209, "category": "カフェ・喫茶", "category_id": "0100344", "time": ["07:00-23:00"], "star": 4.18, "review": 151}, {"name": "Beer&Cafe Engi", "address": "茨城県つくば市吾妻1-10-1 つくばセンタービル 1F", "lat": 36.081283958291, "lon": 140.11425238282, "category": "飲食店", "category_id": "0102732", "time": ["00:00-02:00", "07:30-24:00"], "star": 4.5, "review": 1}, {"name": "N's Cafe", "address": "茨城県つくば市竹園1丁目3-1", "lat": 36.080472001109, "lon": 140.11702682209, "category": "飲食店", "category_id": "0102732", "time": ["09:30-22:00"], "star": 3.81, "review": 10}, {"name": "8代葵カフェ つくば学園店", "address": "茨城県つくば市小野崎612", "lat": 36.07396839, "lon": 140.11142482, "category": "コーヒー店", "category_id": "0100496", "time": ["08:00-18:30"], "star": 4.0, "review": 54}, {"name": "パルケ", "address": "茨城県つくば市天久保1-6-1 ヤマキビル 101", "lat": 36.090973473877, "lon": 140.10876706423, "category": "カフェ・喫茶", "category_id": "0100344", "time": [], "star": 0.0, "review": 0}, {"name": "BACK STREET", "address": "茨城県つくば市吾妻3-18-7 ミライエ吾妻1F 101", "lat": 36.088572646957, "lon": 140.11424303344, "category": "カフェ・喫茶", "category_id": "0100344", "time": [], "star": 0.0, "review": 0}, {"name": "N's Dining & Cafe×和牛粗挽きハンバーグ ぱる", "address": "茨城県つくば市竹園1-3-1 竹園ヨークタウン 1F", "lat": 36.080279237769, "lon": 140.11657698701, "category": "ハンバーグ店", "category_id": "0100571", "time": ["11:00-21:30"], "star": 3.23, "review": 4}, {"name": "コメダ珈琲 つくば店", "address": "茨城県つくば市小野崎129-1", "lat": 36.076595, "lon": 140.1061345, "category": "コーヒー店", "category_id": "0100496", "time": ["06:00-23:00"], "star": 4.0, "review": 72}, {"name": "そらいろLOUNGE", "address": "茨城県つくば市東新井19-6アシタエラボ", "lat": 36.077393, "lon": 140.11297, "category": "カフェ・喫茶", "category_id": "0100344", "time": ["11:30-15:00"], "star": 3.81, "review": 10}, {"name": "クライマックス・コーヒー DAYZTOWN店", "address": "茨城県つくば市竹園1丁目9-2", "lat": 36.0779904, "lon": 140.11479563, "category": "カフェ・喫茶", "category_id": "0100344", "time": [], "star": 4.75, "review": 0}, {"name": "カシュカシュ", "address": "茨城県つくば市東新井26-13 KAISHOIII 1F", "lat": 36.074548, "lon": 140.11281194, "category": "ケーキ店", "category_id": "0100460", "time": [], "star": 0.0, "review": 0}, {"name": "カフェリビング", "address": "茨城県つくば市東新井26-13 KAISHOIII 1階", "lat": 36.074513808577, "lon": 140.11284635811, "category": "カフェ・喫茶", "category_id": "0100344", "time": ["11:30-17:00"], "star": 3.79, "review": 13}, {"name": "つくばウクレレカフェ", "address": "茨城県 つくば市 吾妻1-8-10 BiViつくば2Fイベントスペース", "lat": 36.0816646, "lon": 140.1127226, "category": "", "category_id": "", "time": [], "star": 0.0, "review": 0}, {"name": "ジャングルドリンクス&カフェ", "address": "茨城県つくば市吾妻1丁目7-1 西武筑波店", "lat": 36.0805216, "lon": 140.1118117, "category": "カフェ・喫茶", "category_id": "0100344", "time": [], "star": 0.0, "review": 0}], "ドラッグストア": [{"name": "マツモトキヨシ 薬 トナリエキュートつくば店", "address": "茨城県つくば市吾妻1-6-1 トナリエつくばスクエア キュート 1F", "lat": 36.0817499, "lon": 140.1115757, "category": "ドラッグストア", "category_id": "0200699", "time": ["10:00-20:00"], "star": 4.63, "review": 4}, {"name": "マツモトキヨシ ドラッグストア ヨークタウンつくば竹園店", "address": "茨城県つくば市竹園1-3-1", "lat": 36.0806527, "lon": 140.1169004, "category": "ドラッグストア", "category_id": "0200699", "time": ["10:00-22:00"], "star": 4.38, "review": 10}, {"name": "サンドラッグつくば店", "address": "茨城県つくば市竹園1-9-2 ", "lat": 36.0776638, "lon": 140.115306, "category": "ドラッグストア", "category_id": "0200699", "time": ["10:00-21:00"], "star": 4.03, "review": 69}, {"name": "ウエルシアつくば学園吾妻店", "address": "茨城県つくば市吾妻3-14-1", "lat": 36.089161, "lon": 140.112725, "category": "ドラッグストア", "category_id": "0200699", "time": ["09:00-24:00"], "star": 4.12, "review": 20}, {"name": "ウエルシアつくば学園中央店", "address": "茨城県つくば市東新井24-6", "lat": 36.076642, "lon": 140.11532, "category": "ドラッグストア", "category_id": "0200699", "time": ["04:00-27:00"], "star": 4.19, "review": 71}, {"name": "マツモトキヨシ 薬 トナリエキュートつくば店", "address": "茨城県つくば市吾妻1-6-1 トナリエつくばスクエア キュート 1F", "lat": 36.0817858, "lon": 140.111687, "category": "調剤薬局", "category_id": "0202315", "time": [], "star": 4.0, "review": 3}, {"name": "さくら薬局 つくば駅前店", "address": "茨城県つくば市吾妻2-8-8 つくばシティアビル 1F", "lat": 36.0837917, "lon": 140.11264, "category": "調剤薬局", "category_id": "0202315", "time": ["09:00-19:00"], "star": 4.5, "review": 0}, {"name": "ふたば薬局", "address": "茨城県つくば市竹園1丁目4-1", "lat": 36.07958923, "lon": 140.11431484, "category": "調剤薬局", "category_id": "0202315", "time": [], "star": 4.0, "review": 0}, {"name": "トナリエQ’t", "address": "茨城県つくば市吾妻1丁目6-1", "lat": 36.0817499, "lon": 140.1116091, "category": "ショッピングセンター・モール", "category_id": "0200537", "time": ["10:00-20:00"], "star": 4.17, "review": 30}, {"name": "ウエルシア学園中央店(健康館内)", "address": "茨城県つくば市東新井25-2", "lat": 36.07622528076172, "lon": 140.1154022216797, "category": "調剤薬局", "category_id": "0202315", "time": [], "star": 4.0, "review": 0}, {"name": "ヨークベニマル つくば竹園店", "address": "茨城県つくば市竹園1-3-1", "lat": 36.0806388, "lon": 140.1169504, "category": "スーパー", "category_id": "0200612", "time": ["10:00-22:00"], "star": 4.07, "review": 337}, {"name": "つくばグリーン薬局", "address": "茨城県つくば市東新井5-2", "lat": 36.07657445, "lon": 140.10893045, "category": "調剤薬局", "category_id": "0202315", "time": ["09:00-18:00"], "star": 0.0, "review": 0}, {"name": "南山堂薬局 竹園薬局", "address": "茨城県つくば市竹園2-8-19", "lat": 36.07840292, "lon": 140.11992141, "category": "調剤薬局", "category_id": "0202315", "time": [], "star": 0.0, "review": 0}, {"name": "とちの木薬局 竹園店", "address": "茨城県つくば市竹園1丁目4-1", "lat": 36.07958923, "lon": 140.11431484, "category": "調剤薬局", "category_id": "0202315", "time": [], "star": 0.0, "review": 0}, {"name": "協和調剤薬局つくば支局", "address": "茨城県つくば市苅間1927-3", "lat": 36.08284693, "lon": 140.10377167, "category": "調剤薬局", "category_id": "0202315", "time": [], "star": 0.0, "review": 0}, {"name": "すばる薬局", "address": "茨城県つくば市東新井26-13", "lat": 36.074593723674, "lon": 140.11278114421, "category": "調剤薬局", "category_id": "0202315", "time": [], "star": 0.0, "review": 0}, {"name": "デイズタウンつくば", "address": "茨城県つくば市竹園1丁目9-2", "lat": 36.0777086, "lon": 140.1153256, "category": "ショッピングセンター・モール", "category_id": "0200537", "time": [], "star": 3.82, "review": 88}, {"name": "快生堂薬局", "address": "茨城県つくば市東新井13-3", "lat": 36.07790592, "lon": 140.11007868, "category": "漢方", "category_id": "0201946", "time": [], "star": 3.0, "review": 0}], "ATM": [{"name": "筑波銀行 中根支店", "address": "茨城県つくば市竹園1-7", "lat": 36.0793277, "lon": 140.111912, "category": "銀行", "category_id": "0402596", "time": ["09:00-15:00"], "star": 4.75, "review": 0}, {"name": "ゆうちょ銀行 ATM ファミリーマートつくばQ’t店内出張所", "address": "茨城県つくば市吾妻1-6-1", "lat": 36.0817803, "lon": 140.111391, "category": "ATM", "category_id": "0402785", "time": [], "star": 0.0, "review": 0}, {"name": "りそな銀行 ATM つくば出張所", "address": "茨城県つくば市吾妻1-6-1 トナリエつくばスクエア キュート 1F", "lat": 36.0818321, "lon": 140.111172, "category": "ATM", "category_id": "0402785", "time": [], "star": 0.0, "review": 0}, {"name": "三井住友銀行 ATM つくば駅出張所", "address": "茨城県つくば市吾妻1-6-1 トナリエつくばスクエア キュート 1F ATMコーナー", "lat": 36.0818972, "lon": 140.111161, "category": "ATM", "category_id": "0402785", "time": [], "star": 0.0, "review": 0}, {"name": "三菱UFJ銀行 ATM つくば研究学園", "address": "茨城県つくば市東新井18-9", "lat": 36.07776868, "lon": 140.11250132, "category": "ATM", "category_id": "0402785", "time": [], "star": 3.0, "review": 1}, {"name": "ゆうちょ銀行　つくば店", "address": "茨城県つくば市吾妻1-13-2", "lat": 36.08284966, "lon": 140.11573654, "category": "銀行", "category_id": "0402596", "time": ["09:00-16:00"], "star": 4.75, "review": 4}, {"name": "みずほ銀行 つくば支店", "address": "茨城県つくば市竹園1-4-1 ", "lat": 36.07958897, "lon": 140.11431449, "category": "銀行", "category_id": "0402596", "time": ["09:00-15:00"], "star": 3.25, "review": 7}, {"name": "セブン銀行 つくばエクスプレスつくば駅", "address": "茨城県つくば市吾妻2-128", "lat": 36.0828939, "lon": 140.111529, "category": "ATM", "category_id": "0402785", "time": ["05:00-24:00"], "star": 3.67, "review": 0}, {"name": "常陽銀行 竹園出張所", "address": "茨城県つくば市吾妻1-14-2 研究学園都市支店", "lat": 36.0825879, "lon": 140.11478, "category": "銀行", "category_id": "0402596", "time": [], "star": 4.0, "review": 2}, {"name": "筑波銀行 ATM つくば営業部", "address": "茨城県つくば市竹園1-7", "lat": 36.0793389, "lon": 140.112119, "category": "ATM", "category_id": "0402785", "time": [], "star": 0.0, "review": 0}, {"name": "常陽銀行 ATM トナリエつくばスクエア出張所", "address": "茨城県つくば市吾妻1-6-1 トナリエつくばスクエア キュート", "lat": 36.0817768, "lon": 140.111407, "category": "ATM", "category_id": "0402785", "time": [], "star": 0.0, "review": 0}, {"name": "筑波銀行 つくば営業部", "address": "茨城県つくば市竹園1-7", "lat": 36.0793863, "lon": 140.1120035, "category": "銀行", "category_id": "0402596", "time": ["09:00-15:00"], "star": 0.0, "review": 0}, {"name": "常陽銀行 研究学園都市支店", "address": "茨城県つくば市吾妻1-14-2", "lat": 36.0826164, "lon": 140.1148588, "category": "銀行", "category_id": "0402596", "time": ["09:00-15:00"], "star": 0.0, "review": 0}, {"name": "筑波銀行 つくば北支店", "address": "茨城県つくば市竹園1-7", "lat": 36.0793863, "lon": 140.1120035, "category": "銀行", "category_id": "0402596", "time": ["09:00-15:00"], "star": 4.0, "review": 1}, {"name": "ゆうちょ銀行 ATM つくば店", "address": "茨城県つくば市吾妻1-13-2", "lat": 36.0828322, "lon": 140.115755, "category": "ATM", "category_id": "0402785", "time": [], "star": 0.0, "review": 0}, {"name": "みずほ銀行 ATM つくば支店", "address": "茨城県つくば市竹園1-4-1", "lat": 36.0795235, "lon": 140.11432, "category": "ATM", "category_id": "0402785", "time": ["06:00-26:00"], "star": 0.0, "review": 0}, {"name": "常陽銀行 つくばローンプラザ", "address": "茨城県つくば市吾妻1-14-2 常陽つくばビル 1F", "lat": 36.082605, "lon": 140.114881, "category": "銀行", "category_id": "0402596", "time": ["09:00-17:00"], "star": 0.0, "review": 0}, {"name": "筑波銀行 ATM デイズタウンつくば", "address": "茨城県つくば市竹園1-9-2", "lat": 36.0778236, "lon": 140.115668, "category": "ATM", "category_id": "0402785", "time": [], "star": 0.0, "review": 0}, {"name": "足利銀行 ATM つくば支店", "address": "茨城県つくば市東新井19", "lat": 36.0771048, "lon": 140.112087, "category": "ATM", "category_id": "0402785", "time": [], "star": 0.0, "review": 0}, {"name": "筑波銀行 ATM ヨークベニマルつくば竹園店出張所", "address": "茨城県つくば市竹園1-3-1", "lat": 36.0802267, "lon": 140.116526, "category": "ATM", "category_id": "0402785", "time": [], "star": 0.0, "review": 0}], "スーパーマーケット": [{"name": "ロピア トナリエクレオ店", "address": "茨城県つくば市吾妻1-7-1", "lat": 36.08064165, "lon": 140.11218683, "category": "スーパー", "category_id": "0200612", "time": ["10:00-20:00"], "star": 4.08, "review": 535}, {"name": "カスミ プルシェつくばキュート店", "address": "茨城県つくば市吾妻1-6-1 トナリエつくばスクエア キュート 1F", "lat": 36.0817804, "lon": 140.1113702, "category": "スーパー", "category_id": "0200612", "time": ["10:00-20:00"], "star": 3.94, "review": 51}, {"name": "ヨークベニマル つくば竹園店", "address": "茨城県つくば市竹園1-3-1", "lat": 36.0806388, "lon": 140.1169504, "category": "スーパー", "category_id": "0200612", "time": ["10:00-22:00"], "star": 4.07, "review": 337}, {"name": "カスミ フードスクエア学園店", "address": "茨城県つくば市竹園2-12-1", "lat": 36.0769892, "lon": 140.1192309, "category": "スーパー", "category_id": "0200612", "time": ["09:00-24:00"], "star": 3.84, "review": 136}, {"name": "トナリエCREO", "address": "茨城県つくば市吾妻1丁目7-1", "lat": 36.0806416, "lon": 140.1121452, "category": "ショッピングセンター・モール", "category_id": "0200537", "time": ["10:00-20:00"], "star": 4.22, "review": 18}, {"name": "トナリエQ’t", "address": "茨城県つくば市吾妻1丁目6-1", "lat": 36.0817499, "lon": 140.1116091, "category": "ショッピングセンター・モール", "category_id": "0200537", "time": ["10:00-20:00"], "star": 4.17, "review": 30}, {"name": "わくわく広場 トナリエクレオ つくば店", "address": "茨城県つくば市吾妻1-7-1", "lat": 36.080625, "lon": 140.1121618, "category": "青果店", "category_id": "0202677", "time": ["10:00-20:00"], "star": 3.87, "review": 23}, {"name": "マツモトキヨシ 薬 トナリエキュートつくば店", "address": "茨城県つくば市吾妻1-6-1 トナリエつくばスクエア キュート 1F", "lat": 36.0817499, "lon": 140.1115757, "category": "ドラッグストア", "category_id": "0200699", "time": ["10:00-20:00"], "star": 4.63, "review": 4}, {"name": "トナリエMOG", "address": "茨城県つくば市吾妻1丁目5-3", "lat": 36.0815415, "lon": 140.1111591, "category": "ショッピングセンター・モール", "category_id": "0200537", "time": [], "star": 4.43, "review": 7}, {"name": "トナリエつくばスクエア", "address": "茨城県つくば市吾妻1丁目6-1", "lat": 36.081211, "lon": 140.1117202, "category": "ショッピングセンター・モール", "category_id": "0200537", "time": [], "star": 4.02, "review": 50}, {"name": "マツモトキヨシ ドラッグストア ヨークタウンつくば竹園店", "address": "茨城県つくば市竹園1-3-1", "lat": 36.0806527, "lon": 140.1169004, "category": "ドラッグストア", "category_id": "0200699", "time": ["10:00-22:00"], "star": 4.38, "review": 10}, {"name": "ジュピター ヨークベニマルつくば竹園店", "address": "茨城県つくば市竹園1-3-1 ヨークベニマルつくば竹園店", "lat": 36.0807419, "lon": 140.117032, "category": "コーヒー豆店", "category_id": "0200497", "time": ["10:00-21:00"], "star": 4.53, "review": 16}, {"name": "デイズタウンつくば", "address": "茨城県つくば市竹園1丁目9-2", "lat": 36.0777086, "lon": 140.1153256, "category": "ショッピングセンター・モール", "category_id": "0200537", "time": [], "star": 3.82, "review": 88}]}, "top_restaurant": {"name": "クライマックス・コーヒー DAYZTOWN店", "category": "カフェ・喫茶", "star": 4.75, "review": 0}}, {"name": "ひぐち", "name_en": "Higuchi", "lat": 36.3584812, "lon": 139.9704471, "osm_id": 823277290, "operator": "真岡鐵道", "railway": "station", "wikidata": "Q5760181", "wikipedia_tag": "ja:ひぐち駅", "lines": ["真岡鐵道真岡線"], "pref": "茨城県", "wikipedia_text": "ひぐち駅（ひぐちえき）は、茨城県筑西市折本にある真岡鐵道真岡線の駅。\n住所は折本だが、樋口との境界付近にある。駅名は秩父鉄道樋口駅との混同を避けるため平仮名表記の「ひぐち」が正式名となっている。", "wikipedia_image": "https://upload.wikimedia.org/wikipedia/commons/5/55/Higuchi-eki-1.jpg", "nearest_convenience": {"name": "ファミリーマート", "lat": 36.3881779, "lon": 139.965092, "address": "", "distance_m": 3337, "brand": "FamilyMart"}, "nearest_restaurant": {"name": "スターバックス", "lat": 36.3230362, "lon": 139.9932896, "address": "茨城県筑西市川澄１８５０", "distance_m": 4441, "cuisine": "coffee_shop"}, "nearby_pois": {"ラーメン": [{"name": "らーめん金次郎", "address": "茨城県筑西市折本732-3", "lat": 36.35785333, "lon": 139.9682089, "category": "ラーメン店", "category_id": "0100097", "time": ["11:00-21:30"], "star": 4.1, "review": 32}], "飲食店": [{"name": "樋口", "address": "茨城県筑西市樋口726-3", "lat": 36.362347515407, "lon": 139.96643883564, "category": "飲食店", "category_id": "0102732", "time": [], "star": 0.0, "review": 1}, {"name": "らーめん金次郎", "address": "茨城県筑西市折本732-3", "lat": 36.35785333, "lon": 139.9682089, "category": "ラーメン店", "category_id": "0100097", "time": ["11:00-21:30"], "star": 4.1, "review": 32}, {"name": "くすのき", "address": "茨城県筑西市折本554-1", "lat": 36.35493463, "lon": 139.96967485, "category": "うなぎ料理店", "category_id": "0100035", "time": ["11:00-13:30", "17:00-21:00"], "star": 4.4, "review": 3}, {"name": "食堂 たむら", "address": "茨城県筑西市折本461-5", "lat": 36.35007428, "lon": 139.96906134, "category": "定食屋", "category_id": "0101441", "time": ["11:00-13:30", "17:00-20:30"], "star": 4.01, "review": 17}, {"name": "カラオケ居酒屋幸子", "address": "茨城県筑西市折本752", "lat": 36.35788554, "lon": 139.97014066, "category": "居酒屋", "category_id": "0101495", "time": [], "star": 0.0, "review": 0}, {"name": "居酒屋さっちゃん", "address": "茨城県筑西市折本773-1", "lat": 36.35644827, "lon": 139.96940489, "category": "居酒屋", "category_id": "0101495", "time": [], "star": 0.0, "review": 0}, {"name": "居酒屋弥真処", "address": "茨城県筑西市折本751", "lat": 36.35773279, "lon": 139.97013788, "category": "焼き鳥店", "category_id": "0101960", "time": [], "star": 0.0, "review": 0}, {"name": "パンドラの箱", "address": "茨城県筑西市折本773", "lat": 36.3562971, "lon": 139.9694119, "category": "居酒屋", "category_id": "0101495", "time": [], "star": 0.0, "review": 0}, {"name": "居酒屋酔っぺ", "address": "茨城県筑西市折本773-1", "lat": 36.3563138, "lon": 139.9694147, "category": "居酒屋", "category_id": "0101495", "time": [], "star": 0.0, "review": 0}, {"name": "居酒屋雅子", "address": "茨城県筑西市折本773", "lat": 36.35630024, "lon": 139.96938489, "category": "居酒屋", "category_id": "0101495", "time": [], "star": 0.0, "review": 0}, {"name": "やきとり酔っぺ", "address": "茨城県筑西市折本773-1", "lat": 36.35633968, "lon": 139.9693935, "category": "焼き鳥店", "category_id": "0101960", "time": [], "star": 0.0, "review": 0}]}, "top_restaurant": {"name": "くすのき", "category": "うなぎ料理店", "star": 4.4, "review": 3}}, {"name": "ひたち野うしく", "name_en": "Hitachino-Ushiku", "lat": 36.0074123, "lon": 140.1583406, "osm_id": 5699916938, "operator": "", "railway": "station", "wikidata": "Q5364808", "wikipedia_tag": "ja:ひたち野うしく駅", "lines": ["常磐線"], "pref": "茨城県", "nearby_bus_stops": [{"name": "ひたち野うしく駅", "lat": 36.0072338, "lon": 140.1588964, "distance_m": 54, "operator": "関東鉄道;牛久市コミュニティバス"}], "wikipedia_text": "ひたち野うしく駅（ひたちのうしくえき）は、茨城県牛久市ひたち野西三丁目にある、東日本旅客鉄道（JR東日本）常磐線の駅である。", "wikipedia_image": "https://upload.wikimedia.org/wikipedia/commons/b/b1/JR_Hitachi_no_Ushiku_sta_001.jpg", "nearest_convenience": {"name": "ミニストップ", "lat": 36.0068533, "lon": 140.1620712, "address": "", "distance_m": 341, "brand": "MINISTOP"}, "nearest_restaurant": {"name": "ファーストキッチン", "lat": 36.008757, "lon": 140.1598529, "address": "", "distance_m": 202, "cuisine": "friture"}, "nearby_pois": {"コンビニ": [{"name": "NewDaysKIOSKひたち野うしく駅店", "address": "茨城県牛久市ひたち野西3-41-16", "lat": 36.00742721557617, "lon": 140.15835571289062, "category": "", "category_id": "", "time": [], "star": 4.03, "review": 28}, {"name": "セブンイレブン 牛久ひたち野西3丁目", "address": "茨城県牛久市ひたち野西3-27-10", "lat": 36.0108231, "lon": 140.1563658, "category": "コンビニ", "category_id": "0200487", "time": ["00:00-24:00"], "star": 4.65, "review": 27}, {"name": "セブンイレブン ひたち野牛久", "address": "茨城県牛久市ひたち野東5-8-2", "lat": 36.0050182, "lon": 140.1625348, "category": "コンビニ", "category_id": "0200487", "time": ["00:00-24:00"], "star": 4.5, "review": 17}, {"name": "ミニストップ 牛久ひたち野東店", "address": "茨城県牛久市ひたち野東1-25-10", "lat": 36.0067874, "lon": 140.1622403, "category": "コンビニ", "category_id": "0200487", "time": [], "star": 4.22, "review": 21}, {"name": "ミニストップ 牛久ひたち野西店", "address": "茨城県牛久市ひたち野西2-23-11", "lat": 36.009301, "lon": 140.155316, "category": "コンビニ", "category_id": "0200487", "time": [], "star": 3.69, "review": 24}, {"name": "ヨークベニマル ひたち野うしく店", "address": "茨城県牛久市ひたち野西3-29-16", "lat": 36.0097149, "lon": 140.1563603, "category": "スーパー", "category_id": "0200612", "time": ["09:30-21:30"], "star": 4.06, "review": 122}, {"name": "スーパータイヨー ひたち野牛久店", "address": "茨城県牛久市ひたち野東5-21-1", "lat": 36.0042766, "lon": 140.1619127, "category": "スーパー", "category_id": "0200612", "time": ["08:00-21:30"], "star": 4.03, "review": 77}, {"name": "ホテルライフツリーひたち野うしく", "address": "茨城県牛久市ひたち野東1-33-5", "lat": 36.00680678, "lon": 140.1614235, "category": "ビジネスホテル", "category_id": "0300758", "time": [], "star": 4.26, "review": 43}, {"name": "カスミ フードスクエアひたち野牛久店", "address": "茨城県牛久市ひたち野東4-1-2", "lat": 36.0055265, "lon": 140.1641208, "category": "スーパー", "category_id": "0200612", "time": ["09:00-24:00"], "star": 3.93, "review": 71}], "ラーメン": [{"name": "ラーメンショップ椿 牛久店", "address": "茨城県牛久市ひたち野西2-30-2", "lat": 36.0086436, "lon": 140.15521297, "category": "ラーメン店", "category_id": "0100097", "time": ["10:00-22:00"], "star": 4.12, "review": 93}, {"name": "横濱家系ラーメン たくみ家 ひたち野店", "address": "茨城県牛久市ひたち野西2-16-2", "lat": 36.01197293, "lon": 140.1560964, "category": "飲食店", "category_id": "0102732", "time": ["11:00-24:00"], "star": 4.38, "review": 4}, {"name": "チャイナクック酔仙楼", "address": "茨城県土浦市荒川沖5-34", "lat": 36.0152309, "lon": 140.15712731, "category": "中華料理店", "category_id": "0100990", "time": [], "star": 4.33, "review": 3}, {"name": "韓国屋台料理と純豆腐のお店 ポチャ", "address": "茨城県牛久市ひたち野東1-28-5", "lat": 36.007718, "lon": 140.161214, "category": "韓国料理店", "category_id": "0100518", "time": ["17:00-24:00"], "star": 3.57, "review": 13}], "飲食店": [{"name": "びぃすとろ波平", "address": "茨城県牛久市ひたち野東1-29-4", "lat": 36.007539705067, "lon": 140.16142342263, "category": "居酒屋", "category_id": "0101495", "time": ["17:00-24:00"], "star": 4.25, "review": 1}, {"name": "ワインとフランス家庭料理グルマン", "address": "茨城県牛久市ひたち野東1-14-8", "lat": 36.010217388561, "lon": 140.16180074233, "category": "バル", "category_id": "0100582", "time": [], "star": 0.0, "review": 1}, {"name": "ブラッスリーヴィ", "address": "茨城県牛久市ひたち野東1-33-5 ホテルライフツリー 1F", "lat": 36.006731735744, "lon": 140.16141262739, "category": "ビュッフェレストラン", "category_id": "0100764", "time": ["06:30-09:00"], "star": 3.0, "review": 3}, {"name": "道産旬食材と宴会個室 北海道ばんきり ひたち野うしく駅前店", "address": "茨城県牛久市ひたち野西3-37-1 クレアハウス1F", "lat": 36.008562, "lon": 140.156112, "category": "レストラン", "category_id": "0100111", "time": [], "star": 3.0, "review": 1}, {"name": "旬処 梵", "address": "茨城県牛久市ひたち野東1-22-2 グランフィールド壱番館101", "lat": 36.009771568633, "lon": 140.15958579743, "category": "居酒屋", "category_id": "0101495", "time": ["17:00-24:00"], "star": 4.4, "review": 9}, {"name": "洋食酒場ボンバイエ", "address": "茨城県牛久市ひたち野東1-27-3", "lat": 36.00805101397625, "lon": 140.16090110483506, "category": "居酒屋", "category_id": "0101495", "time": ["17:00-24:00"], "star": 4.0, "review": 1}, {"name": "鳥焼肉食べ飲み放題 天下一鳥", "address": "茨城県牛久市ひたち野西3-35-9", "lat": 36.008976, "lon": 140.157808, "category": "居酒屋", "category_id": "0101495", "time": ["17:00-23:00"], "star": 4.29, "review": 2}, {"name": "肉と漁師飯 浜右衛門", "address": "茨城県牛久市ひたち野東1-27-9", "lat": 36.007878, "lon": 140.161111, "category": "居酒屋", "category_id": "0101495", "time": ["17:00-24:00"], "star": 3.97, "review": 11}, {"name": "Cafe Wise Court 102", "address": "茨城県牛久市ひたち野西3-31-10 ワイズコート 1F", "lat": 36.009893798632, "lon": 140.15825852743, "category": "カフェ・喫茶", "category_id": "0100344", "time": ["11:00-14:00", "18:00-24:00"], "star": 4.25, "review": 17}, {"name": "焼肉 紫峰牛", "address": "茨城県牛久市ひたち野西3-37-3", "lat": 36.008168438633, "lon": 140.15637493741, "category": "焼肉店", "category_id": "0101963", "time": ["11:30-14:00", "17:00-23:00"], "star": 4.24, "review": 5}, {"name": "居酒屋 一禾", "address": "茨城県牛久市ひたち野東1-27-9ファラオ 2F", "lat": 36.007876, "lon": 140.161037, "category": "居酒屋", "category_id": "0101495", "time": ["17:00-24:00"], "star": 3.88, "review": 4}, {"name": "酔い処 2号店", "address": "茨城県牛久市ひたち野西3-37-3", "lat": 36.008227878633, "lon": 140.15634468741, "category": "居酒屋", "category_id": "0101495", "time": [], "star": 3.65, "review": 9}, {"name": "隠れ処 頂き酒場", "address": "茨城県牛久市ひたち野東1-27-9 ファラオ1F", "lat": 36.00786807531705, "lon": 140.1610760493728, "category": "居酒屋", "category_id": "0101495", "time": ["17:00-24:00"], "star": 0.0, "review": 0}, {"name": "ラーメンショップ椿 牛久店", "address": "茨城県牛久市ひたち野西2-30-2", "lat": 36.0086436, "lon": 140.15521297, "category": "ラーメン店", "category_id": "0100097", "time": ["10:00-22:00"], "star": 4.12, "review": 93}, {"name": "スターバックス コーヒー ひたち野うしく店", "address": "茨城県牛久市ひたち野東2-7-1アクロスプラザひたち野うしく", "lat": 36.007855, "lon": 140.163456, "category": "コーヒー店", "category_id": "0100496", "time": ["07:00-23:00"], "star": 4.22, "review": 133}, {"name": "コメダ珈琲 ひたち野うしく店", "address": "茨城県牛久市ひたち野東5-21-2", "lat": 36.0038989, "lon": 140.1626598, "category": "コーヒー店", "category_id": "0100496", "time": ["07:00-22:30"], "star": 4.53, "review": 57}, {"name": "おもてなし酒場とも蔵", "address": "茨城県牛久市ひたち野西3-37-1", "lat": 36.008560515141, "lon": 140.15609349509, "category": "飲食店", "category_id": "0102732", "time": ["17:00-24:00"], "star": 0.0, "review": 0}, {"name": "横濱家系ラーメン たくみ家 ひたち野店", "address": "茨城県牛久市ひたち野西2-16-2", "lat": 36.01197293, "lon": 140.1560964, "category": "飲食店", "category_id": "0102732", "time": ["11:00-24:00"], "star": 4.38, "review": 4}, {"name": "葡萄酒キッチンバルCasares", "address": "茨城県牛久市ひたち野東5-11-5 1F", "lat": 36.00546565, "lon": 140.1615135, "category": "バル", "category_id": "0100582", "time": ["11:30-14:30", "18:00-24:00"], "star": 4.24, "review": 9}, {"name": "カリビアンカフェ ひたち野うしく店", "address": "茨城県牛久市ひたち野東1-27-9", "lat": 36.007815, "lon": 140.16118, "category": "居酒屋", "category_id": "0101495", "time": ["18:00-26:00"], "star": 3.9, "review": 3}], "カフェ": [{"name": "Cafe Wise Court 102", "address": "茨城県牛久市ひたち野西3-31-10 ワイズコート 1F", "lat": 36.009893798632, "lon": 140.15825852743, "category": "カフェ・喫茶", "category_id": "0100344", "time": ["11:00-14:00", "18:00-24:00"], "star": 4.25, "review": 17}, {"name": "スターバックス コーヒー ひたち野うしく店", "address": "茨城県牛久市ひたち野東2-7-1アクロスプラザひたち野うしく", "lat": 36.007855, "lon": 140.163456, "category": "コーヒー店", "category_id": "0100496", "time": ["07:00-23:00"], "star": 4.22, "review": 133}, {"name": "コメダ珈琲 ひたち野うしく店", "address": "茨城県牛久市ひたち野東5-21-2", "lat": 36.0038989, "lon": 140.1626598, "category": "コーヒー店", "category_id": "0100496", "time": ["07:00-22:30"], "star": 4.53, "review": 57}, {"name": "Cafe anello", "address": "茨城県牛久市ひたち野西3-27-15", "lat": 36.01221793863, "lon": 140.15670759745, "category": "カフェ・喫茶", "category_id": "0100344", "time": ["11:00-19:00"], "star": 3.7, "review": 20}, {"name": "ドッグランカフェ・フェリスタス", "address": "茨城県稲敷郡阿見町荒川本郷139-21", "lat": 36.009779838635, "lon": 140.16583618742, "category": "カフェ・喫茶", "category_id": "0100344", "time": ["11:00-17:00"], "star": 4.0, "review": 2}, {"name": "ドトールキッチン EneJetひたち野うしく店", "address": "茨城県牛久市ひたち野東5-34-5", "lat": 36.002713, "lon": 140.1626182, "category": "カフェ・喫茶", "category_id": "0100344", "time": ["07:00-22:00"], "star": 3.27, "review": 11}, {"name": "珈琲豆や とむとむ", "address": "茨城県牛久市ひたち野東4-2-1", "lat": 36.00492408, "lon": 140.16400773, "category": "コーヒー豆店", "category_id": "0200497", "time": ["09:00-19:00"], "star": 4.2, "review": 19}, {"name": "カフェNicoひたち野うしく店", "address": "茨城県牛久市ひたち野西3丁目27-15", "lat": 36.01198688, "lon": 140.15663075, "category": "カフェ・喫茶", "category_id": "0100344", "time": [], "star": 0.0, "review": 0}, {"name": "カリビアンカフェ ひたち野うしく店", "address": "茨城県牛久市ひたち野東1-27-9", "lat": 36.007815, "lon": 140.16118, "category": "居酒屋", "category_id": "0101495", "time": ["18:00-26:00"], "star": 3.9, "review": 3}, {"name": "菓子工房 ラ・マチェール", "address": "茨城県牛久市ひたち野東1-29-4 ひたち野桜風マンション 1F", "lat": 36.007515948635, "lon": 140.1613502874, "category": "ケーキ店", "category_id": "0100460", "time": ["10:00-21:00"], "star": 4.16, "review": 20}, {"name": "ベル・ザ・クラス", "address": "茨城県牛久市ひたち野西1丁目22", "lat": 36.0086567, "lon": 140.1502193, "category": "結婚式場", "category_id": "0400288", "time": ["10:00-20:00"], "star": 4.29, "review": 5}, {"name": "韓国屋台料理と純豆腐のお店 ポチャ", "address": "茨城県牛久市ひたち野東1-28-5", "lat": 36.007718, "lon": 140.161214, "category": "韓国料理店", "category_id": "0100518", "time": ["17:00-24:00"], "star": 3.57, "review": 13}, {"name": "フライングガーデン ひたち野うしく店", "address": "茨城県牛久市ひたち野東4丁目26-2", "lat": 36.00417943, "lon": 140.16326253, "category": "洋食店", "category_id": "0100129", "time": ["11:00-22:00"], "star": 4.11, "review": 69}, {"name": "都炉美煎本舗 牛久店", "address": "茨城県牛久市ひたち野西2-8-3", "lat": 36.01420074, "lon": 140.15669571, "category": "和菓子店", "category_id": "0101310", "time": ["09:30-18:30"], "star": 3.65, "review": 19}], "ドラッグストア": [{"name": "カワチ薬品 ひたち野牛久店", "address": "茨城県牛久市ひたち野東5-21-2", "lat": 36.00366, "lon": 140.1617655, "category": "ドラッグストア", "category_id": "0200699", "time": ["09:00-21:00"], "star": 4.06, "review": 99}, {"name": "ドラッグセイムス 牛久ひたち野西店", "address": "茨城県牛久市ひたち野西3-27-7", "lat": 36.01132301, "lon": 140.15657137, "category": "ドラッグストア", "category_id": "0200699", "time": ["08:30-21:45"], "star": 3.83, "review": 35}, {"name": "ツルハドラッグ ひたち野うしく店", "address": "茨城県牛久市ひたち野東307-2", "lat": 36.0031157, "lon": 140.16529571, "category": "ドラッグストア", "category_id": "0200699", "time": ["09:00-23:00"], "star": 4.14, "review": 14}, {"name": "カワチ薬品 ひたち野牛久調剤", "address": "茨城県牛久市ひたち野東5-21-2", "lat": 36.003657, "lon": 140.161866, "category": "調剤薬局", "category_id": "0202315", "time": ["10:00-19:00"], "star": 0.0, "review": 2}, {"name": "ライズ調剤薬局ひたち野うしく駅前", "address": "茨城県牛久市ひたち野東1丁目32-8", "lat": 36.00748062133789, "lon": 140.16000366210938, "category": "調剤薬局", "category_id": "0202315", "time": [], "star": 0.0, "review": 0}, {"name": "ドラッグコスモスひたち野うしく店", "address": "茨城県稲敷郡阿見町大字荒川本郷", "lat": 36.01254744384414, "lon": 140.16401612050646, "category": "ドラッグストア", "category_id": "0200699", "time": ["09:00-22:00"], "star": 0.0, "review": 0}, {"name": "根本薬局 ひたち野店", "address": "茨城県牛久市ひたち野東5丁目3-2", "lat": 36.00631003, "lon": 140.15981014, "category": "調剤薬局", "category_id": "0202315", "time": [], "star": 0.0, "review": 1}, {"name": "アーク調剤薬局 にじいろ調剤薬局", "address": "茨城県牛久市ひたち野西2-27-8", "lat": 36.00874776, "lon": 140.15284961, "category": "調剤薬局", "category_id": "0202315", "time": ["09:00-19:00"], "star": 0.0, "review": 0}, {"name": "ひたちのひがし薬局", "address": "茨城県牛久市ひたち野東1丁目19-1", "lat": 36.01145578, "lon": 140.1598688, "category": "調剤薬局", "category_id": "0202315", "time": [], "star": 0.0, "review": 0}, {"name": "調剤薬局グリーンゲイブルス", "address": "茨城県牛久市ひたち野西4丁目15-12", "lat": 36.0069402, "lon": 140.15230417, "category": "調剤薬局", "category_id": "0202315", "time": [], "star": 0.0, "review": 0}, {"name": "薬局セレクト ひたち野西店", "address": "茨城県牛久市ひたち野西3丁目32-5", "lat": 36.00944347, "lon": 140.15776437, "category": "調剤薬局", "category_id": "0202315", "time": [], "star": 0.0, "review": 0}, {"name": "アクロスプラザ ひたち野うしく", "address": "茨城県牛久市ひたち野東2-7-1", "lat": 36.0071569, "lon": 140.1639319, "category": "ショッピングセンター・モール", "category_id": "0200537", "time": [], "star": 4.28, "review": 24}, {"name": "ひたち野薬局東店", "address": "茨城県牛久市ひたち野東1丁目14-2", "lat": 36.01045369, "lon": 140.16123786, "category": "調剤薬局", "category_id": "0202315", "time": [], "star": 0.0, "review": 0}, {"name": "しもね薬局", "address": "茨城県牛久市ひたち野東2丁目12-6-2", "lat": 36.00646115, "lon": 140.16558422, "category": "調剤薬局", "category_id": "0202315", "time": [], "star": 0.0, "review": 0}, {"name": "むぎのほ薬局ひたち野店", "address": "茨城県牛久市ひたち野東4丁目7-13", "lat": 36.005496, "lon": 140.16640223, "category": "調剤薬局", "category_id": "0202315", "time": ["09:00-18:00"], "star": 0.0, "review": 0}], "ATM": [{"name": "筑波銀行 ATM ひたち野うしく駅", "address": "茨城県牛久市ひたち野西3-41-16", "lat": 36.007446, "lon": 140.158341, "category": "ATM", "category_id": "0402785", "time": [], "star": 0.0, "review": 0}, {"name": "セブン銀行 JRひたち野うしく駅", "address": "茨城県牛久市中根町395-2", "lat": 36.0074011, "lon": 140.158428, "category": "ATM", "category_id": "0402785", "time": ["05:00-23:00"], "star": 0.0, "review": 0}, {"name": "常陽銀行 ひたち野うしくリテールステーション", "address": "茨城県牛久市ひたち野東1-25-15", "lat": 36.0078346, "lon": 140.1622709, "category": "銀行", "category_id": "0402596", "time": ["09:00-11:30"], "star": 3.33, "review": 5}, {"name": "常陽銀行 ひたち野うしくローンプラザ", "address": "茨城県牛久市ひたち野東1-25-15 ひたち野うしくリテールステーション", "lat": 36.0079421, "lon": 140.162207, "category": "銀行", "category_id": "0402596", "time": [], "star": 4.5, "review": 0}, {"name": "ゆうちょ銀行 ひたち野うしく郵便局", "address": "茨城県牛久市ひたち野東1-33-6", "lat": 36.0070871, "lon": 140.15942, "category": "銀行", "category_id": "0402596", "time": [], "star": 0.0, "review": 0}, {"name": "株式会社筑波銀行 すまいるプラザ牛久", "address": "茨城県牛久市ひたち野東2丁目12-1", "lat": 36.00652392, "lon": 140.16466847, "category": "銀行", "category_id": "0402596", "time": [], "star": 4.67, "review": 0}, {"name": "筑波銀行 ATM ひたち野うしく支店", "address": "茨城県牛久市ひたち野東2-12-1", "lat": 36.0065145, "lon": 140.164633, "category": "ATM", "category_id": "0402785", "time": [], "star": 0.0, "review": 0}, {"name": "常陽銀行 ATM ひたち野うしくリテールステーション", "address": "茨城県牛久市ひたち野東1-25-15", "lat": 36.0079342, "lon": 140.162274, "category": "ATM", "category_id": "0402785", "time": [], "star": 0.0, "review": 0}, {"name": "イオン銀行 ATM フードスクエアひたち野牛久店出張所(店内)", "address": "茨城県牛久市ひたち野東4-1-2", "lat": 36.0057528, "lon": 140.164274, "category": "ATM", "category_id": "0402785", "time": ["09:00-24:00"], "star": 0.0, "review": 0}, {"name": "セブン銀行 ヨークベニマル ひたち野うしく店", "address": "茨城県牛久市ひたち野西3-29-16", "lat": 36.00967126, "lon": 140.15634921, "category": "ATM", "category_id": "0402785", "time": ["09:00-22:00"], "star": 0.0, "review": 0}, {"name": "筑波銀行 ひたち野うしく支店", "address": "茨城県牛久市ひたち野東2-12-1", "lat": 36.0065236, "lon": 140.1647012, "category": "銀行", "category_id": "0402596", "time": ["09:00-11:30", "12:30-15:00"], "star": 0.0, "review": 0}, {"name": "ゆうちょ銀行 ATM ひたち野うしく郵便局", "address": "茨城県牛久市ひたち野東1-33-6", "lat": 36.0071108, "lon": 140.159486, "category": "ATM", "category_id": "0402785", "time": [], "star": 0.0, "review": 0}, {"name": "みずほ銀行 ATM フードスクエアひたち野牛久店出張所", "address": "茨城県牛久市ひたち野東4-1-2", "lat": 36.0057371, "lon": 140.164297, "category": "ATM", "category_id": "0402785", "time": [], "star": 0.0, "review": 0}, {"name": "セブン銀行 牛久ひたち野西3丁目店", "address": "茨城県牛久市ひたち野西3-27-10", "lat": 36.0108525, "lon": 140.156397, "category": "ATM", "category_id": "0402785", "time": ["00:00-24:00"], "star": 0.0, "review": 0}, {"name": "イオン銀行 ATM ミニストップ牛久ひたち野西店出張所(店内)", "address": "茨城県牛久市ひたち野西2-23-11", "lat": 36.0092819, "lon": 140.15532, "category": "ATM", "category_id": "0402785", "time": ["00:00-24:00"], "star": 0.0, "review": 0}, {"name": "イオン銀行 ATM ミニストップ牛久ひたち野東店出張所(店内)", "address": "茨城県牛久市ひたち野東1-25-10", "lat": 36.0068137, "lon": 140.162224, "category": "ATM", "category_id": "0402785", "time": ["00:00-24:00"], "star": 0.0, "review": 0}, {"name": "セブン銀行 ひたち野牛久店", "address": "茨城県牛久市ひたち野東5-8-2", "lat": 36.0050239, "lon": 140.162545, "category": "ATM", "category_id": "0402785", "time": ["00:00-24:00"], "star": 0.0, "review": 0}, {"name": "みずほ銀行 ATM ミニストップ牛久ひたち野東店出張所", "address": "茨城県牛久市ひたち野東1-25-10", "lat": 36.006726, "lon": 140.162236, "category": "ATM", "category_id": "0402785", "time": [], "star": 0.0, "review": 0}, {"name": "みずほ銀行 ATM ミニストップ牛久ひたち野西店出張所", "address": "茨城県牛久市ひたち野西2-23-11", "lat": 36.0092796, "lon": 140.155336, "category": "ATM", "category_id": "0402785", "time": [], "star": 0.0, "review": 0}, {"name": "常陽銀行 ひたち野うしくマネー相談デスク", "address": "茨城県牛久市ひたち野東1-25-15 ひたち野うしくリテールステーション", "lat": 36.0079522, "lon": 140.162243, "category": "銀行", "category_id": "0402596", "time": [], "star": 0.0, "review": 0}], "スーパーマーケット": [{"name": "スーパータイヨー ひたち野牛久店", "address": "茨城県牛久市ひたち野東5-21-1", "lat": 36.0042766, "lon": 140.1619127, "category": "スーパー", "category_id": "0200612", "time": ["08:00-21:30"], "star": 4.03, "review": 77}, {"name": "ヨークベニマル ひたち野うしく店", "address": "茨城県牛久市ひたち野西3-29-16", "lat": 36.0097149, "lon": 140.1563603, "category": "スーパー", "category_id": "0200612", "time": ["09:30-21:30"], "star": 4.06, "review": 122}, {"name": "カスミ フードスクエアひたち野牛久店", "address": "茨城県牛久市ひたち野東4-1-2", "lat": 36.0055265, "lon": 140.1641208, "category": "スーパー", "category_id": "0200612", "time": ["09:00-24:00"], "star": 3.93, "review": 71}, {"name": "ダイソー アクロスプラザひたち野うしく店", "address": "茨城県牛久市ひたち野東２-７-３ アクロスプラザひたち野うしく内", "lat": 36.00757906, "lon": 140.16424015, "category": "100円ショップ", "category_id": "0200001", "time": ["10:00-21:00"], "star": 4.15, "review": 15}, {"name": "カワチ薬品 ひたち野牛久店", "address": "茨城県牛久市ひたち野東5-21-2", "lat": 36.00366, "lon": 140.1617655, "category": "ドラッグストア", "category_id": "0200699", "time": ["09:00-21:00"], "star": 4.06, "review": 99}]}, "top_restaurant": {"name": "コメダ珈琲 ひたち野うしく店", "category": "コーヒー店", "star": 4.53, "review": 57}}, {"name": "みどりの", "name_en": "Midorino", "lat": 36.0298606, "lon": 140.0563392, "osm_id": 3349564690, "operator": "首都圏新都市鉄道", "railway": "station", "wikidata": "Q5366321", "wikipedia_tag": "ja:みどりの駅", "lines": [], "pref": "茨城県", "nearby_bus_stops": [{"name": "みどりの駅", "lat": 36.0301214, "lon": 140.0559828, "distance_m": 43, "operator": "つくば市コミュニティバス"}, {"name": "みどりの駅入口", "lat": 36.0283384, "lon": 140.0570369, "distance_m": 181, "operator": "つくば市コミュニティバス"}, {"name": "萱丸", "lat": 36.0317884, "lon": 140.057053, "distance_m": 224, "operator": "関東鉄道"}, {"name": "萱丸三差路", "lat": 36.0319217, "lon": 140.0600651, "distance_m": 406, "operator": "関東鉄道"}, {"name": "花島新田", "lat": 36.0317135, "lon": 140.0515866, "distance_m": 474, "operator": "つくばみらい市コミュニティバス"}], "wikipedia_text": "みどりの駅（みどりのえき）は、茨城県つくば市みどりの一丁目にある首都圏新都市鉄道つくばエクスプレスの駅である。駅番号はTX17。", "wikipedia_image": "https://upload.wikimedia.org/wikipedia/commons/b/bc/Midorino-sta.JPG", "nearest_convenience": {"name": "ファミリーマート", "lat": 36.0394365, "lon": 140.083432, "address": "", "distance_m": 2659, "brand": "FamilyMart"}, "nearest_restaurant": {"name": "うらわ食堂", "lat": 36.0319459, "lon": 140.0614239, "address": "", "distance_m": 513, "cuisine": "chinese"}, "nearby_pois": {"コンビニ": [{"name": "セブンイレブン つくばみどりの", "address": "茨城県つくば市みどりの1-27-1", "lat": 36.0298942, "lon": 140.0544036, "category": "コンビニ", "category_id": "0200487", "time": ["00:00-24:00"], "star": 4.5, "review": 14}, {"name": "ファミリーマート つくばみどりの店", "address": "茨城県つくば市花島新田字北原10-6", "lat": 36.026356, "lon": 140.0610782, "category": "コンビニ", "category_id": "0200487", "time": ["00:00-24:00"], "star": 3.89, "review": 6}, {"name": "ファミリーマート つくば萱丸店", "address": "茨城県つくば市みどりの A-37街区1", "lat": 36.0354517, "lon": 140.0545032, "category": "コンビニ", "category_id": "0200487", "time": ["00:00-24:00"], "star": 3.8, "review": 20}, {"name": "ミニストップ つくばみどりの店", "address": "茨城県つくば市みどりのA51街区34区画", "lat": 36.0321077, "lon": 140.0516954, "category": "コンビニ", "category_id": "0200487", "time": [], "star": 3.56, "review": 13}, {"name": "ローソン つくばみどりの", "address": "茨城県つくば市みどりの中央73-1", "lat": 36.0243786, "lon": 140.0639697, "category": "コンビニ", "category_id": "0200487", "time": ["00:00-24:00"], "star": 3.53, "review": 55}, {"name": "カスミ フードスクエアライフガーデンみどりの店", "address": "茨城県つくば市みどりの中央11-5", "lat": 36.0270641, "lon": 140.0580256, "category": "スーパー", "category_id": "0200612", "time": ["09:00-22:00"], "star": 3.7, "review": 30}, {"name": "カスミ みどりの駅前店", "address": "茨城県つくば市みどりの1-3-1", "lat": 36.0305996, "lon": 140.0544258, "category": "スーパー", "category_id": "0200612", "time": ["09:00-24:00"], "star": 4.01, "review": 77}, {"name": "スーパータイヨー ビッグハウスみどりの店", "address": "茨城県つくば市みどりの2-39-1", "lat": 36.0352184, "lon": 140.0517813, "category": "スーパー", "category_id": "0200612", "time": ["08:00-21:45"], "star": 4.1, "review": 180}], "ラーメン": [{"name": "ラーメン北川", "address": "茨城県つくば市谷田部204-1", "lat": 36.032653308588, "lon": 140.06488990772, "category": "ラーメン店", "category_id": "0100097", "time": [], "star": 3.59, "review": 9}, {"name": "清六家 みどりの店", "address": "茨城県つくば市みどりの中央11-3 ウイングマルシェ", "lat": 36.0281662, "lon": 140.056152, "category": "ラーメン店", "category_id": "0100097", "time": ["11:00-23:30"], "star": 3.79, "review": 33}, {"name": "らーめん北川", "address": "茨城県つくば市谷田部204", "lat": 36.03264857, "lon": 140.06490631, "category": "飲食店", "category_id": "0102732", "time": ["11:00-15:00", "17:00-21:00"], "star": 4.09, "review": 20}, {"name": "北京老飯店 みどりの店", "address": "茨城県つくば市みどりの中央11-3 ウィングマルシェみどりの 1F", "lat": 36.028035658588, "lon": 140.05647154768, "category": "北京料理店", "category_id": "0102841", "time": ["11:30-14:30", "17:00-22:30"], "star": 3.62, "review": 15}], "飲食店": [{"name": "Bar TIMELESS", "address": "茨城県つくば市みどりの中央11-3 ウィングマルシェみどりの 2F", "lat": 36.027478248723, "lon": 140.05701673114, "category": "バー", "category_id": "0100536", "time": ["19:00-26:00"], "star": 0.0, "review": 1}, {"name": "ラーメン北川", "address": "茨城県つくば市谷田部204-1", "lat": 36.032653308588, "lon": 140.06488990772, "category": "ラーメン店", "category_id": "0100097", "time": [], "star": 3.59, "review": 9}, {"name": "ミートテック", "address": "茨城県つくば市みどりの中央11-3 ウイングマルシェ･みどりの 1F", "lat": 36.028162137783, "lon": 140.05633698652, "category": "ハンバーグ店", "category_id": "0100571", "time": ["11:00-15:00", "17:00-22:00"], "star": 4.04, "review": 15}, {"name": "さのや食堂", "address": "茨城県つくば市上萱丸246-2", "lat": 36.03200951, "lon": 140.05785588, "category": "定食屋", "category_id": "0101441", "time": ["08:30-14:30"], "star": 3.61, "review": 10}, {"name": "から揚げ焼そば 無双屋", "address": "茨城県つくば市みどりの中央 11-3 ウイングマルシェみどりの202", "lat": 36.02833938598633, "lon": 140.0564422607422, "category": "飲食店", "category_id": "0102732", "time": ["10:30-14:30", "16:00-21:00"], "star": 4.67, "review": 1}, {"name": "ココス TXみどりの店", "address": "茨城県つくば市みどりの1-3-3 ", "lat": 36.03159396, "lon": 140.05535617, "category": "ファミリーレストラン", "category_id": "0100788", "time": ["10:00-26:00"], "star": 4.0, "review": 59}, {"name": "ピアチェーレ", "address": "茨城県つくば市みどりの中央11-3 ウィングマルシェみどりの", "lat": 36.028162598588, "lon": 140.05623786769, "category": "イタリア料理店", "category_id": "0100263", "time": ["11:00-23:00"], "star": 3.63, "review": 12}, {"name": "陽だまりの家モモ", "address": "茨城県つくば市みどりの2丁目59-3", "lat": 36.03365278, "lon": 140.05256383, "category": "飲食店", "category_id": "0102732", "time": [], "star": 3.0, "review": 0}, {"name": "うらわ食堂", "address": "茨城県つくば市下萱丸269-2", "lat": 36.03196353, "lon": 140.06138111, "category": "定食屋", "category_id": "0101441", "time": ["11:00-14:00"], "star": 3.36, "review": 9}, {"name": "デニーズ つくばみどりの店", "address": "茨城県つくば市みどりの中央11-5", "lat": 36.02724186, "lon": 140.05795341, "category": "ファミリーレストラン", "category_id": "0100788", "time": [], "star": 3.79, "review": 40}, {"name": "うなうな みどりの店", "address": "茨城県つくば市みどりの中央11-3 ウィングマルシェみどりの 1F", "lat": 36.028143218588, "lon": 140.05649561769, "category": "タピオカ店", "category_id": "0100638", "time": ["11:00-15:00", "17:00-23:00"], "star": 3.7, "review": 12}, {"name": "炭火焼鳥 鳥よし", "address": "茨城県つくば市上萱丸224-1 みどりのA-70街区3･4画地1F", "lat": 36.030836485175, "lon": 140.05613165003, "category": "焼き鳥店", "category_id": "0101960", "time": ["17:00-24:00"], "star": 3.56, "review": 12}, {"name": "Bamboo cafe", "address": "茨城県つくば市みどりの1-32-1 ウェルシアテナントD", "lat": 36.02865167051811, "lon": 140.05438350497255, "category": "カフェ・喫茶", "category_id": "0100344", "time": [], "star": 0.0, "review": 0}, {"name": "コーギーバンズバーガー", "address": "茨城県つくば市みどりの中央11-3ウィングマルシェ207", "lat": 36.02811114, "lon": 140.0563063, "category": "ハンバーガー店", "category_id": "0100722", "time": [], "star": 0.0, "review": 0}, {"name": "らーめん北川", "address": "茨城県つくば市谷田部204", "lat": 36.03264857, "lon": 140.06490631, "category": "飲食店", "category_id": "0102732", "time": ["11:00-15:00", "17:00-21:00"], "star": 4.09, "review": 20}, {"name": "バンブーカフェ", "address": "茨城県つくば市みどりの1丁目32-1", "lat": 36.02861881, "lon": 140.05476558, "category": "居酒屋", "category_id": "0101495", "time": ["18:00-24:00"], "star": 0.0, "review": 0}, {"name": "LOCABONA 低糖質料理とワイン ロカボナ", "address": "茨城県つくば市下萱丸476-1", "lat": 36.033023834228516, "lon": 140.05638122558594, "category": "カフェ・喫茶", "category_id": "0100344", "time": ["12:00-15:00"], "star": 0.0, "review": 0}, {"name": "焼肉×スンドゥブ×韓国料理 チェゴ つくばみどりの店", "address": "茨城県つくば市みどりの2-52-16", "lat": 36.032032, "lon": 140.051166, "category": "韓国料理店", "category_id": "0100518", "time": ["17:00-23:00"], "star": 3.63, "review": 24}, {"name": "丸山海苔店 つくば工場店", "address": "茨城県つくばみらい市福岡2318-5", "lat": 36.03059279, "lon": 140.04756147, "category": "甘味処", "category_id": "0102834", "time": ["10:00-17:00"], "star": 4.32, "review": 14}, {"name": "清六家 みどりの店", "address": "茨城県つくば市みどりの中央11-3 ウイングマルシェ", "lat": 36.0281662, "lon": 140.056152, "category": "ラーメン店", "category_id": "0100097", "time": ["11:00-23:30"], "star": 3.79, "review": 33}], "カフェ": [{"name": "Corgi Buns Burger", "address": "茨城県つくば市みどりの中央11-3 ウイングマルシェ 2F", "lat": 36.028194038588, "lon": 140.05668313769, "category": "パンケーキ店", "category_id": "0100744", "time": ["11:00-18:30"], "star": 3.82, "review": 18}, {"name": "Bamboo cafe", "address": "茨城県つくば市みどりの1-32-1 ウェルシアテナントD", "lat": 36.02865167051811, "lon": 140.05438350497255, "category": "カフェ・喫茶", "category_id": "0100344", "time": [], "star": 0.0, "review": 0}, {"name": "バンブーカフェ", "address": "茨城県つくば市みどりの1丁目32-1", "lat": 36.02861881, "lon": 140.05476558, "category": "居酒屋", "category_id": "0101495", "time": ["18:00-24:00"], "star": 0.0, "review": 0}, {"name": "LOCABONA 低糖質料理とワイン ロカボナ", "address": "茨城県つくば市下萱丸476-1", "lat": 36.033023834228516, "lon": 140.05638122558594, "category": "カフェ・喫茶", "category_id": "0100344", "time": ["12:00-15:00"], "star": 0.0, "review": 0}, {"name": "丸山海苔店 つくば工場店", "address": "茨城県つくばみらい市福岡2318-5", "lat": 36.03059279, "lon": 140.04756147, "category": "甘味処", "category_id": "0102834", "time": ["10:00-17:00"], "star": 4.32, "review": 14}, {"name": "うなうな みどりの店", "address": "茨城県つくば市みどりの中央11-3 ウィングマルシェみどりの 1F", "lat": 36.028143218588, "lon": 140.05649561769, "category": "タピオカ店", "category_id": "0100638", "time": ["11:00-15:00", "17:00-23:00"], "star": 3.7, "review": 12}, {"name": "陽だまりの家モモ", "address": "茨城県つくば市みどりの2丁目59-3", "lat": 36.03365278, "lon": 140.05256383, "category": "飲食店", "category_id": "0102732", "time": [], "star": 3.0, "review": 0}, {"name": "カラオケ絆", "address": "茨城県つくば市谷田部204-1", "lat": 36.03258608, "lon": 140.06496325, "category": "カラオケ喫茶", "category_id": "0100350", "time": [], "star": 4.0, "review": 0}, {"name": "株式会社ネクスト", "address": "茨城県つくば市みどりの2丁目11番地6", "lat": 36.0376181, "lon": 140.05366988, "category": "経営コンサルタント", "category_id": "0402170", "time": ["09:00-18:00"], "star": 0.0, "review": 0}], "ドラッグストア": [{"name": "ウエルシアつくばみどりの店", "address": "茨城県つくば市みどりの1-32-1", "lat": 36.028617, "lon": 140.054335, "category": "ドラッグストア", "category_id": "0200699", "time": ["09:00-24:00"], "star": 4.79, "review": 9}, {"name": "ドラッグストアセキ みどりの店", "address": "茨城県つくば市みどりの2-64-7", "lat": 36.0319883, "lon": 140.0531508, "category": "ドラッグストア", "category_id": "0200699", "time": ["09:00-23:00"], "star": 4.13, "review": 28}, {"name": "カワチ薬品 つくばみどりの店", "address": "茨城県つくば市みどりの中央11-4", "lat": 36.0280473, "lon": 140.0571673, "category": "ドラッグストア", "category_id": "0200699", "time": ["09:00-21:00"], "star": 3.88, "review": 48}, {"name": "ウエルシアつくば陣場店", "address": "茨城県つくば市谷田部872（陣場G17街区１）", "lat": 36.036744, "lon": 140.062802, "category": "ドラッグストア", "category_id": "0200699", "time": ["09:00-24:00"], "star": 4.0, "review": 1}, {"name": "クスリのアオキ つくばみどりの店", "address": "茨城県つくば市みどりの2-19-8", "lat": 36.0363238, "lon": 140.0546532, "category": "ドラッグストア", "category_id": "0200699", "time": ["09:00-22:00"], "star": 3.67, "review": 107}, {"name": "ウエルシアつくばみどりの店 (調剤薬局)", "address": "茨城県つくば市みどりの1-32-1ウエルシアつくばみどりの店内", "lat": 36.028617, "lon": 140.054335, "category": "調剤薬局", "category_id": "0202315", "time": ["09:00-19:30"], "star": 4.5, "review": 2}, {"name": "メディカ いちご薬局 みどりの店(ニック)", "address": "茨城県つくば市みどりの1丁目31-9", "lat": 36.02933039, "lon": 140.05517855, "category": "調剤薬局", "category_id": "0202315", "time": [], "star": 4.0, "review": 1}, {"name": "コムファ薬局つくばみどりの店", "address": "茨城県つくば市みどりの２ー５９ー１", "lat": 36.03403522, "lon": 140.0523674, "category": "薬局・薬店関連", "category_id": "0202317", "time": ["08:30-18:00"], "star": 4.0, "review": 1}, {"name": "アクロスプラザ ライフガーデンみどりの", "address": "茨城県つくば市みどりの中央11-5", "lat": 36.0270641, "lon": 140.0580256, "category": "ショッピングセンター・モール", "category_id": "0200537", "time": [], "star": 4.42, "review": 26}, {"name": "カスミ フードスクエアライフガーデンみどりの店", "address": "茨城県つくば市みどりの中央11-5", "lat": 36.0270641, "lon": 140.0580256, "category": "スーパー", "category_id": "0200612", "time": ["09:00-22:00"], "star": 3.7, "review": 30}, {"name": "マリオン薬局みどりの店", "address": "茨城県つくば市みどりの2丁目31-13", "lat": 36.03550675, "lon": 140.05601502, "category": "調剤薬局", "category_id": "0202315", "time": [], "star": 0.0, "review": 0}], "ATM": [{"name": "常陽銀行ATM", "address": "茨城県つくば市みどりの1丁目3", "lat": 36.03092182, "lon": 140.05489042, "category": "銀行", "category_id": "0402596", "time": [], "star": 4.0, "review": 1}, {"name": "筑波銀行 みどりの支店", "address": "茨城県つくば市みどりの1-4-5", "lat": 36.0307857, "lon": 140.0536342, "category": "銀行", "category_id": "0402596", "time": ["09:00-15:00"], "star": 4.0, "review": 2}, {"name": "みずほ銀行 ATM カスミみどりの駅前店出張所", "address": "茨城県つくば市みどりの1-3-1", "lat": 36.0306503, "lon": 140.054447, "category": "ATM", "category_id": "0402785", "time": [], "star": 4.0, "review": 0}, {"name": "常陽銀行 ATM カスミみどりの駅前店出張所", "address": "茨城県つくば市みどりの1-3-1 カスミみどりの駅前店駐車場", "lat": 36.0306716, "lon": 140.054553, "category": "ATM", "category_id": "0402785", "time": [], "star": 0.0, "review": 0}, {"name": "筑波銀行 谷田部支店", "address": "茨城県つくば市みどりの1-4-5", "lat": 36.030813160281774, "lon": 140.05371981165104, "category": "銀行", "category_id": "0402596", "time": ["09:00-15:00"], "star": 3.0, "review": 1}, {"name": "筑波銀行 ATM 谷田部支店", "address": "茨城県つくば市みどりの1-4-5", "lat": 36.0308022, "lon": 140.053713, "category": "ATM", "category_id": "0402785", "time": [], "star": 0.0, "review": 0}, {"name": "セブン銀行 つくばエクスプレスみどりの駅", "address": "茨城県つくば市みどりの1-29-3", "lat": 36.0300776, "lon": 140.056187, "category": "ATM", "category_id": "0402785", "time": ["05:00-24:00"], "star": 0.0, "review": 0}, {"name": "セブン銀行 つくばみどりの店", "address": "茨城県つくば市みどりの1-27-1", "lat": 36.0299313, "lon": 140.054454, "category": "ATM", "category_id": "0402785", "time": ["00:00-24:00"], "star": 0.0, "review": 0}, {"name": "みずほ銀行 ATM ミニストップつくばみどりの店出張所", "address": "茨城県つくば市みどりのA-51街区34区画", "lat": 36.0319439, "lon": 140.051842, "category": "ATM", "category_id": "0402785", "time": [], "star": 0.0, "review": 0}, {"name": "イオン銀行 ATM カスミみどりの駅前店出張所(店内)", "address": "茨城県つくば市みどりの1-3-1", "lat": 36.0308538, "lon": 140.054221, "category": "ATM", "category_id": "0402785", "time": ["09:00-24:00"], "star": 0.0, "review": 0}, {"name": "ゆうちょ銀行 ATM ファミリーマートつくば萱丸店内出張所", "address": "茨城県つくば市みどりのA-37街区1", "lat": 36.0354517, "lon": 140.054439, "category": "ATM", "category_id": "0402785", "time": [], "star": 0.0, "review": 0}, {"name": "みずほ銀行 ATM フードスクエアライフガーデンみどりの店出張所", "address": "茨城県つくば市みどりの中央11-5", "lat": 36.0273607, "lon": 140.057618, "category": "ATM", "category_id": "0402785", "time": [], "star": 0.0, "review": 0}, {"name": "筑波銀行 島名出張所", "address": "茨城県つくば市みどりの1-4-5", "lat": 36.0308235, "lon": 140.053732, "category": "銀行", "category_id": "0402596", "time": ["09:00-15:00"], "star": 0.0, "review": 0}, {"name": "銀行ATM イーネット ファミリーマートつくばみどりの 共同出張所", "address": "茨城県つくば市花島新田10-6 ", "lat": 36.02633, "lon": 140.061123, "category": "ATM", "category_id": "0402785", "time": ["00:00-24:00"], "star": 0.0, "review": 0}, {"name": "イオン銀行 ATM ミニストップつくばみどりの店出張所(店内)", "address": "茨城県つくば市みどりのA-51街区34区画", "lat": 36.0321027, "lon": 140.051636, "category": "ATM", "category_id": "0402785", "time": ["00:00-24:00"], "star": 0.0, "review": 0}, {"name": "イオン銀行 ATM フードスクエアライフガーデンみどりの店出張所(店内)", "address": "茨城県つくば市みどりの中央11-5", "lat": 36.0271223, "lon": 140.058276, "category": "ATM", "category_id": "0402785", "time": ["09:00-22:00"], "star": 0.0, "review": 0}, {"name": "宝くじ ATM 常陽銀行カスミみどりの駅前店出張所", "address": "茨城県つくば市みどりの1-3-1 カスミみどりの駅前店駐車場", "lat": 36.0306367, "lon": 140.054428, "category": "宝くじ売り場", "category_id": "0401442", "time": ["09:00-21:00"], "star": 0.0, "review": 0}, {"name": "セブン銀行 ビッグハウスみどりの店", "address": "茨城県つくば市みどりの2-39-1", "lat": 36.0352234, "lon": 140.051789, "category": "ATM", "category_id": "0402785", "time": ["08:00-21:45"], "star": 0.0, "review": 0}, {"name": "ローソン銀行 つくばみどりの共同出張所", "address": "茨城県つくば市みどりの中央73-1", "lat": 36.0243378, "lon": 140.063981, "category": "ATM", "category_id": "0402785", "time": ["00:00-24:00"], "star": 0.0, "review": 0}], "スーパーマーケット": [{"name": "カスミ みどりの駅前店", "address": "茨城県つくば市みどりの1-3-1", "lat": 36.0305996, "lon": 140.0544258, "category": "スーパー", "category_id": "0200612", "time": ["09:00-24:00"], "star": 4.01, "review": 77}, {"name": "スーパータイヨー ビッグハウスみどりの店", "address": "茨城県つくば市みどりの2-39-1", "lat": 36.0352184, "lon": 140.0517813, "category": "スーパー", "category_id": "0200612", "time": ["08:00-21:45"], "star": 4.1, "review": 180}, {"name": "カスミ フードスクエアライフガーデンみどりの店", "address": "茨城県つくば市みどりの中央11-5", "lat": 36.0270641, "lon": 140.0580256, "category": "スーパー", "category_id": "0200612", "time": ["09:00-22:00"], "star": 3.7, "review": 30}, {"name": "アクロスプラザ ライフガーデンみどりの", "address": "茨城県つくば市みどりの中央11-5", "lat": 36.0270641, "lon": 140.0580256, "category": "ショッピングセンター・モール", "category_id": "0200537", "time": [], "star": 4.42, "review": 26}, {"name": "カワチ薬品 つくばみどりの店", "address": "茨城県つくば市みどりの中央11-4", "lat": 36.0280473, "lon": 140.0571673, "category": "ドラッグストア", "category_id": "0200699", "time": ["09:00-21:00"], "star": 3.88, "review": 48}, {"name": "セリア みどりの店", "address": "茨城県つくば市みどりの2-39-2", "lat": 36.0355628, "lon": 140.0525173, "category": "100円ショップ", "category_id": "0200001", "time": [], "star": 4.21, "review": 14}, {"name": "クスリのアオキ つくばみどりの店", "address": "茨城県つくば市みどりの2-19-8", "lat": 36.0363238, "lon": 140.0546532, "category": "ドラッグストア", "category_id": "0200699", "time": ["09:00-22:00"], "star": 3.67, "review": 107}]}, "top_restaurant": {"name": "から揚げ焼そば 無双屋", "category": "飲食店", "star": 4.67, "review": 1}}, {"name": "みらい平", "name_en": "Miraidaira", "lat": 35.9944506, "lon": 140.038253, "osm_id": 3349564691, "operator": "首都圏新都市鉄道", "railway": "station", "wikidata": "Q5366385", "wikipedia_tag": "ja:みらい平駅", "lines": [], "pref": "茨城県", "nearby_bus_stops": [{"name": "みらい平駅", "lat": 35.9951496, "lon": 140.0379181, "distance_m": 83, "operator": "関東鉄道;つくばみらい市コミュニティバス"}, {"name": "みらい平市民センター前", "lat": 35.9936413, "lon": 140.0412977, "distance_m": 288, "operator": "つくばみらい市コミュニティバス"}, {"name": "みらい平市民センター前", "lat": 35.9933462, "lon": 140.0413245, "distance_m": 302, "operator": "つくばみらい市コミュニティバス"}], "wikipedia_text": "みらい平駅（みらいだいらえき）は、茨城県つくばみらい市陽光台一丁目にある、首都圏新都市鉄道つくばエクスプレスの駅である。駅番号はTX16。", "wikipedia_image": "https://upload.wikimedia.org/wikipedia/commons/a/ab/TX_Miraidaira_Station_2017.jpg", "nearest_convenience": {"name": "セブン-イレブン", "lat": 35.9971838, "lon": 140.0374382, "address": "", "distance_m": 313, "brand": "7-ELEVEN"}, "nearest_restaurant": {"name": "マクドナルド", "lat": 36.0029868, "lon": 140.0334171, "address": "", "distance_m": 1044, "cuisine": "burger"}, "nearby_pois": {"コンビニ": [{"name": "セブンイレブン みらい平駅入口", "address": "茨城県つくばみらい市陽光台4-16-6", "lat": 35.9971363, "lon": 140.0374154, "category": "コンビニ", "category_id": "0200487", "time": ["00:00-24:00"], "star": 4.25, "review": 34}, {"name": "セブンイレブン つくばみらい陽光台", "address": "茨城県つくばみらい市陽光台2-37-2", "lat": 35.9950396, "lon": 140.0450397, "category": "コンビニ", "category_id": "0200487", "time": ["06:00-24:00"], "star": 3.47, "review": 8}, {"name": "ローソン つくばみらい富士見ヶ丘", "address": "茨城県つくばみらい市富士見ヶ丘2-1-4", "lat": 36.0001414, "lon": 140.0335462, "category": "コンビニ", "category_id": "0200487", "time": ["00:00-24:00"], "star": 4.08, "review": 35}, {"name": "ファミリーマート フレストつくばみらい陽光台店", "address": "茨城県つくばみらい市小張4089-43", "lat": 35.9996808, "lon": 140.0451701, "category": "コンビニ", "category_id": "0200487", "time": ["00:00-24:00"], "star": 3.82, "review": 21}, {"name": "とりせん みらい平店", "address": "茨城県つくばみらい市紫峰ヶ丘1-2-5", "lat": 35.997564, "lon": 140.0354739, "category": "スーパー", "category_id": "0200612", "time": ["09:00-22:00"], "star": 3.98, "review": 101}], "ラーメン": [{"name": "清六家 みらい平店", "address": "茨城県つくばみらい市陽光台1-4-5", "lat": 35.9932898, "lon": 140.037825, "category": "ラーメン店", "category_id": "0100097", "time": ["11:00-23:30"], "star": 3.69, "review": 28}, {"name": "らーめん本舗 つくばみらい", "address": "茨城県つくばみらい市紫峰ヶ丘1丁目672街区5画", "lat": 35.99914037, "lon": 140.04002702, "category": "ラーメン店", "category_id": "0100097", "time": [], "star": 3.95, "review": 22}, {"name": "拉麺・呑み喰い処 伊八", "address": "茨城県つくばみらい市紫峰ヶ丘1-21-3", "lat": 36.000060088601, "lon": 140.04083645741, "category": "飲食店", "category_id": "0102732", "time": ["11:00-15:00", "17:00-23:00"], "star": 3.95, "review": 20}, {"name": "ご当地ラーメンセレクション つくばみらい店", "address": "茨城県つくばみらい市陽光台1丁目12-13", "lat": 35.9953879, "lon": 140.038108, "category": "食料品店", "category_id": "0200122", "time": [], "star": 0.0, "review": 0}, {"name": "めし処 わが家", "address": "茨城県つくばみらい市紫峰ヶ丘1丁目21-3", "lat": 36.000022, "lon": 140.0407707, "category": "ラーメン店", "category_id": "0100097", "time": [], "star": 0.0, "review": 0}, {"name": "北京老飯店 みらい平店", "address": "茨城県つくばみらい市陽光台1-10-6", "lat": 35.99484765, "lon": 140.0372738, "category": "中華料理店", "category_id": "0100990", "time": ["11:30-14:00", "16:00-21:00"], "star": 3.68, "review": 15}], "飲食店": [{"name": "そば すぎもと", "address": "茨城県つくばみらい市陽光台4-13-2", "lat": 35.995778018602, "lon": 140.03613980737, "category": "蕎麦店", "category_id": "0100034", "time": ["11:00-15:00"], "star": 3.38, "review": 5}, {"name": "ドリーム ドリーム", "address": "茨城県つくばみらい市東楢戸1166", "lat": 35.997974938601, "lon": 140.03709908739, "category": "居酒屋", "category_id": "0101495", "time": [], "star": 0.0, "review": 0}, {"name": "味韓", "address": "茨城県つくばみらい市陽光台1-16-8 MESTみらい平101", "lat": 35.994782833741, "lon": 140.04058286133, "category": "飲食店", "category_id": "0102732", "time": [], "star": 3.5, "review": 0}, {"name": "ベトナム料理 新ハノイ みらい平店", "address": "茨城県つくばみらい市陽光台1-10-6 2F", "lat": 35.994844, "lon": 140.0373, "category": "レストラン", "category_id": "0100111", "time": [], "star": 3.0, "review": 1}, {"name": "鳥吉 みらい平駅前店", "address": "茨城県つくばみらい市陽光台1-7-2 ステーションタワートヨシマ2F", "lat": 35.99469214, "lon": 140.03788486, "category": "焼き鳥店", "category_id": "0101960", "time": ["15:00-24:00"], "star": 3.78, "review": 13}, {"name": "どしこでん", "address": "茨城県つくばみらい市陽光台1丁目18-5 MTCビル 2F", "lat": 35.99529343701843, "lon": 140.04094117832483, "category": "居酒屋", "category_id": "0101495", "time": [], "star": 4.11, "review": 8}, {"name": "MikinoNe", "address": "茨城県つくばみらい市富士見ヶ丘2-11-12", "lat": 35.999340038598, "lon": 140.03141918741, "category": "イタリア料理店", "category_id": "0100263", "time": [], "star": 0.0, "review": 0}, {"name": "GIRLS BAR PINK SPIDER", "address": "茨城県つくばみらい市陽光台 1丁目18番地5 MTCビル4階", "lat": 35.99525451660156, "lon": 140.04098510742188, "category": "飲食店", "category_id": "0102732", "time": [], "star": 0.0, "review": 0}, {"name": "バーライラック", "address": "茨城県つくばみらい市陽光台1-18-5 MTCビル2F―2", "lat": 35.99527359008789, "lon": 140.04086303710938, "category": "飲食店", "category_id": "0102732", "time": [], "star": 0.0, "review": 1}, {"name": "九州屋台 九太郎 みらい平店", "address": "茨城県つくばみらい市陽光台1-7-2ステーションタワートヨシマ 2F", "lat": 35.994726, "lon": 140.038037, "category": "居酒屋", "category_id": "0101495", "time": ["16:00-25:00"], "star": 3.95, "review": 11}, {"name": "満福", "address": "茨城県つくばみらい市東楢戸陽光台124街区3", "lat": 35.99337005, "lon": 140.03730301, "category": "居酒屋", "category_id": "0101495", "time": ["17:30-23:00"], "star": 3.33, "review": 3}, {"name": "拉麺・呑み喰い処 伊八", "address": "茨城県つくばみらい市紫峰ヶ丘1-21-3", "lat": 36.000060088601, "lon": 140.04083645741, "category": "飲食店", "category_id": "0102732", "time": ["11:00-15:00", "17:00-23:00"], "star": 3.95, "review": 20}, {"name": "モッツバー みらい平", "address": "茨城県つくばみらい市陽光台1-13-7", "lat": 35.99587816, "lon": 140.03872641, "category": "焼肉店", "category_id": "0101963", "time": ["17:00-24:00"], "star": 4.14, "review": 18}, {"name": "グラスオニオン", "address": "茨城県つくばみらい市陽光台3丁目22-4", "lat": 35.9927196, "lon": 140.03825489, "category": "カフェ・喫茶", "category_id": "0100344", "time": [], "star": 0.0, "review": 0}, {"name": "Tiendademama", "address": "茨城県つくばみらい市陽光台3丁目21-4", "lat": 35.99238414, "lon": 140.03981142, "category": "飲食店", "category_id": "0102732", "time": ["11:00-14:00"], "star": 0.0, "review": 0}, {"name": "やきとりバンク", "address": "茨城県つくばみらい市陽光台1-252-1", "lat": 35.994629916592, "lon": 140.04037126619, "category": "焼き鳥店", "category_id": "0101960", "time": ["17:00-24:00"], "star": 3.95, "review": 12}, {"name": "清六家 みらい平店", "address": "茨城県つくばみらい市陽光台1-4-5", "lat": 35.9932898, "lon": 140.037825, "category": "ラーメン店", "category_id": "0100097", "time": ["11:00-23:30"], "star": 3.69, "review": 28}, {"name": "しちりん みらい平駅前店", "address": "茨城県つくばみらい市陽光台1丁目114街区1画地", "lat": 35.9956498, "lon": 140.03746793, "category": "焼肉店", "category_id": "0101963", "time": ["16:00-26:00"], "star": 3.14, "review": 15}, {"name": "創味酒場 みなみ", "address": "茨城県つくばみらい市陽光台1丁目7-2", "lat": 35.994687, "lon": 140.0379091, "category": "洋食店", "category_id": "0100129", "time": [], "star": 0.0, "review": 1}, {"name": "KFCネットオーダー ピアシティみらい平店", "address": "茨城県つくばみらい市陽光台1-16-5", "lat": 35.99453115, "lon": 140.0405735, "category": "飲食店", "category_id": "0102732", "time": [], "star": 0.0, "review": 0}], "カフェ": [{"name": "パティスリー・カフェ・シクロ", "address": "茨城県つくばみらい市陽光台1丁目7-4 PRINCESSKOWA 1F", "lat": 35.9941171, "lon": 140.0377476, "category": "ケーキ店", "category_id": "0100460", "time": [], "star": 0.0, "review": 0}, {"name": "グラスオニオン", "address": "茨城県つくばみらい市陽光台3丁目22-4", "lat": 35.9927196, "lon": 140.03825489, "category": "カフェ・喫茶", "category_id": "0100344", "time": [], "star": 0.0, "review": 0}, {"name": "フリースペース・ひかり", "address": "茨城県つくばみらい市陽光台3丁目-136-10", "lat": 35.9922414, "lon": 140.0397623, "category": "カフェ・喫茶", "category_id": "0100344", "time": [], "star": 0.0, "review": 0}, {"name": "ケンタッキー フライドチキン ピアシティみらい平店", "address": "茨城県つくばみらい市陽光台1-16-5", "lat": 35.994541, "lon": 140.039941, "category": "フライドチキン店", "category_id": "0102937", "time": ["10:30-21:00"], "star": 0.0, "review": 0}], "ドラッグストア": [{"name": "ウエルシアみらい平駅前店", "address": "茨城県つくばみらい市小張1-14-1", "lat": 35.995729, "lon": 140.040361, "category": "ドラッグストア", "category_id": "0200699", "time": ["09:00-24:00"], "star": 4.27, "review": 11}, {"name": "ヤックスドラッグ つくばみらい平店", "address": "茨城県つくばみらい市紫峰ヶ丘5-1-1", "lat": 35.9997501, "lon": 140.0418399, "category": "ドラッグストア", "category_id": "0200699", "time": ["00:00-24:00"], "star": 4.64, "review": 34}, {"name": "カスミ フードスクエアみらい平駅前店", "address": "茨城県つくばみらい市陽光台1-14-1", "lat": 35.9958782, "lon": 140.0399096, "category": "スーパー", "category_id": "0200612", "time": ["09:00-24:00"], "star": 4.26, "review": 69}, {"name": "友愛薬局みらい平店", "address": "茨城県つくばみらい市紫峰ヶ丘1丁目6-8", "lat": 35.9976057, "lon": 140.03717234, "category": "調剤薬局", "category_id": "0202315", "time": ["09:00-18:00"], "star": 0.0, "review": 0}, {"name": "ピアシティみらい平", "address": "茨城県つくばみらい市陽光台1丁目14-1", "lat": 35.9954227, "lon": 140.039818, "category": "ショッピングセンター・モール", "category_id": "0200537", "time": [], "star": 4.0, "review": 12}, {"name": "ひよこ調剤薬局", "address": "茨城県つくばみらい市紫峰ヶ丘1丁目7-4", "lat": 35.99850369, "lon": 140.03784558, "category": "調剤薬局", "category_id": "0202315", "time": ["09:00-18:00"], "star": 0.0, "review": 0}, {"name": "とりせん みらい平店", "address": "茨城県つくばみらい市紫峰ヶ丘1-2-5", "lat": 35.997564, "lon": 140.0354739, "category": "スーパー", "category_id": "0200612", "time": ["09:00-22:00"], "star": 3.98, "review": 101}, {"name": "スマイル薬局", "address": "茨城県つくばみらい市陽光台3丁目11-4", "lat": 35.99288415, "lon": 140.04162096, "category": "調剤薬局", "category_id": "0202315", "time": [], "star": 0.0, "review": 0}, {"name": "ヤックスドラッグ つくばみらい平薬局", "address": "茨城県つくばみらい市紫峰ヶ丘5-1-1", "lat": 35.9996595, "lon": 140.041794, "category": "調剤薬局", "category_id": "0202315", "time": ["09:00-14:00", "15:00-18:00"], "star": 0.0, "review": 0}, {"name": "さくら薬局 つくばみらい店", "address": "茨城県つくばみらい市紫峰ヶ丘1-17-4", "lat": 35.99916815, "lon": 140.04017478, "category": "調剤薬局", "category_id": "0202315", "time": ["09:00-18:00"], "star": 0.0, "review": 0}, {"name": "にこあり薬局", "address": "茨城県つくばみらい市陽光台2丁目20-3", "lat": 35.99937194, "lon": 140.04502654, "category": "調剤薬局", "category_id": "0202315", "time": ["09:00-18:30"], "star": 0.0, "review": 0}], "ATM": [{"name": "筑波銀行ATM", "address": "茨城県つくばみらい市陽光台1丁目14-2", "lat": 35.99573098, "lon": 140.03953301, "category": "銀行", "category_id": "0402596", "time": [], "star": 4.0, "review": 1}, {"name": "セブン銀行 つくばエクスプレスみらい平駅", "address": "茨城県つくばみらい市陽光台1-5", "lat": 35.9946769, "lon": 140.038302, "category": "ATM", "category_id": "0402785", "time": ["05:00-24:00"], "star": 0.0, "review": 0}, {"name": "みずほ銀行 ATM フードスクエアみらい平駅前店出張所", "address": "茨城県つくばみらい市陽光台1-14-1", "lat": 35.9958672, "lon": 140.039926, "category": "ATM", "category_id": "0402785", "time": [], "star": 4.0, "review": 0}, {"name": "常陽銀行 みらい平リテールステーション", "address": "茨城県つくばみらい市陽光台1-13-2", "lat": 35.9962476, "lon": 140.0386153, "category": "銀行", "category_id": "0402596", "time": ["09:00-11:30"], "star": 0.0, "review": 0}, {"name": "常陽銀行 ATM みらい平リテールステーション", "address": "茨城県つくばみらい市陽光台1-13-2", "lat": 35.9962396, "lon": 140.038652, "category": "ATM", "category_id": "0402785", "time": [], "star": 0.0, "review": 0}, {"name": "筑波銀行 ATM みらい平支店", "address": "茨城県つくばみらい市紫峰ヶ丘1-2-5", "lat": 35.9969809, "lon": 140.035981, "category": "ATM", "category_id": "0402785", "time": [], "star": 0.0, "review": 0}, {"name": "常陽銀行 ATM カスミみらい平駅前店共同出張所", "address": "茨城県つくばみらい市陽光台1-14-1 カスミみらい平駅前店", "lat": 35.9958379, "lon": 140.039897, "category": "ATM", "category_id": "0402785", "time": [], "star": 0.0, "review": 0}, {"name": "常陽銀行ATM", "address": "茨城県つくばみらい市陽光台1丁目14-2", "lat": 35.99555269, "lon": 140.04006713, "category": "銀行", "category_id": "0402596", "time": [], "star": 0.0, "review": 0}, {"name": "イオン銀行 ATM フードスクエアみらい平駅前店出張所(店内)", "address": "茨城県つくばみらい市陽光台1-14-1", "lat": 35.9958818, "lon": 140.039903, "category": "ATM", "category_id": "0402785", "time": ["09:00-24:00"], "star": 0.0, "review": 0}, {"name": "筑波銀行 ATM カスミみらい平駅前店共同出張所", "address": "茨城県つくばみらい市陽光台1-14-1", "lat": 35.9958717, "lon": 140.039858, "category": "ATM", "category_id": "0402785", "time": [], "star": 0.0, "review": 0}, {"name": "ゆうちょ銀行 ATM みらい平郵便局", "address": "茨城県つくばみらい市陽光台3-9-1", "lat": 35.9938805, "lon": 140.041036, "category": "ATM", "category_id": "0402785", "time": [], "star": 0.0, "review": 0}, {"name": "みらい平駅", "address": "茨城県つくばみらい市陽光台1丁目5-5", "lat": 35.9945144, "lon": 140.0382737, "category": "駅(他社線)", "category_id": "0302753", "time": null, "star": 4.0, "review": 5}, {"name": "セブン銀行 みらい平駅入口店", "address": "茨城県つくばみらい市陽光台4-16-6", "lat": 35.9971431, "lon": 140.037438, "category": "ATM", "category_id": "0402785", "time": ["00:00-24:00"], "star": 0.0, "review": 0}, {"name": "筑波銀行 みらい平支店", "address": "茨城県つくばみらい市紫峰ヶ丘1-2-5", "lat": 35.9970307, "lon": 140.0358711, "category": "銀行", "category_id": "0402596", "time": ["09:00-11:30", "12:30-15:00"], "star": 0.0, "review": 0}, {"name": "ゆうちょ銀行 みらい平郵便局", "address": "茨城県つくばみらい市陽光台3-9-1", "lat": 35.9939301, "lon": 140.041223, "category": "銀行", "category_id": "0402596", "time": [], "star": 0.0, "review": 0}, {"name": "銀行ATM イーネット ファミリーマートフレストつくばみらい陽光台 共同出張所", "address": "茨城県つくばみらい市小張4089-43 ", "lat": 35.999654, "lon": 140.045135, "category": "ATM", "category_id": "0402785", "time": ["00:00-24:00"], "star": 0.0, "review": 0}, {"name": "セブン銀行 つくばみらい陽光台店", "address": "茨城県つくばみらい市陽光台2-37-2", "lat": 35.9950157, "lon": 140.045091, "category": "ATM", "category_id": "0402785", "time": ["00:00-24:00"], "star": 0.0, "review": 0}, {"name": "宝くじ ATM 常陽銀行みらい平リテールステーション", "address": "茨城県つくばみらい市陽光台1-13-2", "lat": 35.9962396, "lon": 140.038652, "category": "宝くじ売り場", "category_id": "0401442", "time": ["08:00-19:00"], "star": 0.0, "review": 0}, {"name": "みらい平郵便局", "address": "茨城県つくばみらい市陽光台3-9-1", "lat": 35.9938868, "lon": 140.0412651, "category": "郵便局", "category_id": "0400993", "time": [], "star": 3.33, "review": 4}, {"name": "ローソン銀行 つくばみらい富士見ヶ丘共同出張所", "address": "茨城県つくばみらい市富士見ヶ丘2-1-4", "lat": 36.0002775, "lon": 140.033633, "category": "ATM", "category_id": "0402785", "time": ["00:00-24:00"], "star": 0.0, "review": 0}], "スーパーマーケット": [{"name": "カスミ フードスクエアみらい平駅前店", "address": "茨城県つくばみらい市陽光台1-14-1", "lat": 35.9958782, "lon": 140.0399096, "category": "スーパー", "category_id": "0200612", "time": ["09:00-24:00"], "star": 4.26, "review": 69}, {"name": "とりせん みらい平店", "address": "茨城県つくばみらい市紫峰ヶ丘1-2-5", "lat": 35.997564, "lon": 140.0354739, "category": "スーパー", "category_id": "0200612", "time": ["09:00-22:00"], "star": 3.98, "review": 101}, {"name": "ピアシティみらい平", "address": "茨城県つくばみらい市陽光台1丁目14-1", "lat": 35.9954227, "lon": 140.039818, "category": "ショッピングセンター・モール", "category_id": "0200537", "time": [], "star": 4.0, "review": 12}, {"name": "ウエルシアみらい平駅前店", "address": "茨城県つくばみらい市小張1-14-1", "lat": 35.995729, "lon": 140.040361, "category": "ドラッグストア", "category_id": "0200699", "time": ["09:00-24:00"], "star": 4.27, "review": 11}, {"name": "セリア 生活良品 ピアシティみらい平店", "address": "茨城県つくばみらい市陽光台1-14-1", "lat": 35.9956033, "lon": 140.0405346, "category": "100円ショップ", "category_id": "0200001", "time": ["09:30-21:00"], "star": 4.08, "review": 32}]}, "top_restaurant": {"name": "モッツバー みらい平", "category": "焼肉店", "star": 4.14, "review": 18}}, {"name": "ゆめみ野", "name_en": "Yumemino", "lat": 35.9210552, "lon": 140.0352172, "osm_id": 1668409338, "operator": "", "railway": "station", "wikidata": "Q11280891", "wikipedia_tag": "ja:ゆめみ野駅", "lines": [], "pref": "茨城県", "wikipedia_text": "ゆめみ野駅（ゆめみのえき）は、茨城県取手市ゆめみ野一丁目にある、関東鉄道常総線の駅である。", "wikipedia_image": "https://upload.wikimedia.org/wikipedia/commons/d/d2/Yumemino-sta.jpg", "nearest_convenience": {"name": "セブン-イレブン", "lat": 35.9115695, "lon": 140.0597783, "address": "", "distance_m": 2450, "brand": "7 ELEVEN"}, "nearest_restaurant": {"name": "カンパーニャ本店", "lat": 35.9121959, "lon": 140.032886, "address": "", "distance_m": 1007, "cuisine": ""}, "nearby_pois": {"コンビニ": [{"name": "ローソン 取手野々井", "address": "茨城県取手市野々井801-1", "lat": 35.9202256, "lon": 140.0354162, "category": "コンビニ", "category_id": "0200487", "time": ["00:00-24:00"], "star": 4.12, "review": 14}, {"name": "ローソン 取手ゆめみ野", "address": "茨城県取手市ゆめみ野2-9-6", "lat": 35.9258724, "lon": 140.0393515, "category": "コンビニ", "category_id": "0200487", "time": ["00:00-24:00"], "star": 4.32, "review": 9}, {"name": "セブンイレブン 取手ゆめみ野", "address": "茨城県取手市ゆめみ野2-8-1", "lat": 35.9264334, "lon": 140.0379266, "category": "コンビニ", "category_id": "0200487", "time": ["00:00-24:00"], "star": 4.06, "review": 10}, {"name": "ミニストップ 新取手店", "address": "茨城県取手市寺田4718-15", "lat": 35.9170094, "lon": 140.042399, "category": "コンビニ", "category_id": "0200487", "time": [], "star": 4.41, "review": 22}, {"name": "カスミ 取手ゆめみ野店", "address": "茨城県取手市ゆめみ野3-8-2", "lat": 35.9280722, "lon": 140.0379265, "category": "スーパー", "category_id": "0200612", "time": ["09:00-24:00"], "star": 3.63, "review": 84}, {"name": "NYDS取手市医師会病院前店", "address": "茨城県取手市野々井1926ー2 取手市医師会館1階", "lat": 35.9173338, "lon": 140.0256038, "category": "薬局・薬店関連", "category_id": "0202317", "time": ["08:00-18:00"], "star": 3.0, "review": 1}], "ラーメン": [{"name": "九州の味 壱骨麺", "address": "茨城県取手市野々井166-5", "lat": 35.91830226, "lon": 140.04003359, "category": "ラーメン店", "category_id": "0100097", "time": ["11:30-15:00", "17:30-24:00"], "star": 3.71, "review": 26}, {"name": "中華蕎麦 はざま", "address": "茨城県取手市野々井1582-8", "lat": 35.91237431, "lon": 140.03333863, "category": "ラーメン店", "category_id": "0100097", "time": ["11:00-14:30", "18:00-20:30"], "star": 3.99, "review": 86}, {"name": "Cafe 赤べこ", "address": "茨城県取手市野々井1604-3 1F", "lat": 35.91281646, "lon": 140.03252038, "category": "カフェ・喫茶", "category_id": "0100344", "time": ["11:00-23:00"], "star": 0.0, "review": 0}, {"name": "居酒屋 さざんか", "address": "茨城県取手市新取手2-2-19-1F", "lat": 35.91779822, "lon": 140.04278499, "category": "居酒屋", "category_id": "0101495", "time": [], "star": 0.0, "review": 0}], "飲食店": [{"name": "居酒屋 侍", "address": "茨城県取手市野々井1003", "lat": 35.921321915945, "lon": 140.03275835987, "category": "居酒屋", "category_id": "0101495", "time": ["17:00-27:00"], "star": 3.0, "review": 1}, {"name": "ベジカフェ&レストラン リコ", "address": "茨城県取手市野々井717-5", "lat": 35.9240052, "lon": 140.03375829, "category": "カフェ・喫茶", "category_id": "0100344", "time": ["11:00-14:00"], "star": 3.89, "review": 16}, {"name": "和咲", "address": "茨城県取手市ゆめみ野2-4-7", "lat": 35.926027148646, "lon": 140.03585995667, "category": "和食店", "category_id": "0100126", "time": ["12:00-14:00", "18:00-21:30"], "star": 4.4, "review": 1}, {"name": "ビストロタムタム", "address": "茨城県取手市新取手1-8-1", "lat": 35.91763801, "lon": 140.04486811, "category": "レストラン", "category_id": "0100111", "time": ["11:00-14:00", "18:00-23:00"], "star": 3.88, "review": 22}, {"name": "Cafe Veryroll", "address": "茨城県取手市下高井1915-3", "lat": 35.9262797, "lon": 140.0337914, "category": "カフェ・喫茶", "category_id": "0100344", "time": [], "star": 3.0, "review": 1}, {"name": "とんかつ とん心", "address": "茨城県取手市米ノ井167-28 2F", "lat": 35.924189468645, "lon": 140.02649406666, "category": "とんかつ店", "category_id": "0100159", "time": ["11:00-15:00", "17:00-21:00"], "star": 3.65, "review": 7}, {"name": "レストランごとう", "address": "茨城県取手市新取手2-1-2", "lat": 35.91786014, "lon": 140.04208145, "category": "洋食店", "category_id": "0100129", "time": [], "star": 3.81, "review": 7}, {"name": "ラ・ベル・フォンテーヌ", "address": "茨城県取手市野々井166-6", "lat": 35.91811701, "lon": 140.04020664, "category": "フランス料理店", "category_id": "0100264", "time": ["12:00-15:00", "18:00-22:00"], "star": 4.44, "review": 21}, {"name": "九州の味 壱骨麺", "address": "茨城県取手市野々井166-5", "lat": 35.91830226, "lon": 140.04003359, "category": "ラーメン店", "category_id": "0100097", "time": ["11:30-15:00", "17:30-24:00"], "star": 3.71, "review": 26}, {"name": "韓国料理おもに", "address": "茨城県 取手市米ノ井 １６７－２８ １Ｆ", "lat": 35.924191472530744, "lon": 140.0264992386536, "category": "飲食店", "category_id": "0102732", "time": ["11:00-14:00", "17:00-21:00"], "star": 2.5, "review": 1}, {"name": "Cafe 赤べこ", "address": "茨城県取手市野々井1604-3 1F", "lat": 35.91281646, "lon": 140.03252038, "category": "カフェ・喫茶", "category_id": "0100344", "time": ["11:00-23:00"], "star": 0.0, "review": 0}, {"name": "中華蕎麦 はざま", "address": "茨城県取手市野々井1582-8", "lat": 35.91237431, "lon": 140.03333863, "category": "ラーメン店", "category_id": "0100097", "time": ["11:00-14:30", "18:00-20:30"], "star": 3.99, "review": 86}, {"name": "中国美食料理 萬多福", "address": "茨城県取手市野々井 166-5", "lat": 35.9182827558, "lon": 140.0400477648, "category": "飲食店", "category_id": "0102732", "time": [], "star": 0.0, "review": 0}, {"name": "居酒屋 さざんか", "address": "茨城県取手市新取手2-2-19-1F", "lat": 35.91779822, "lon": 140.04278499, "category": "居酒屋", "category_id": "0101495", "time": [], "star": 0.0, "review": 0}, {"name": "CAFE ELLEN テイクアウトデリバリー専門店", "address": "茨城県取手市ゆめみ野5-1-6", "lat": 35.923467003146, "lon": 140.04462620498, "category": "カフェ・喫茶", "category_id": "0100344", "time": [], "star": 3.87, "review": 2}, {"name": "株式会社Office ELLEN", "address": "茨城県取手市ゆめみ野5丁目1-6", "lat": 35.92349498, "lon": 140.04459837, "category": "レストラン", "category_id": "0100111", "time": [], "star": 0.0, "review": 0}, {"name": "オーさんのタイ料理", "address": "茨城県取手市新取手1-4-11", "lat": 35.91829989, "lon": 140.04453311, "category": "タイ料理店", "category_id": "0100629", "time": [], "star": 4.1, "review": 6}, {"name": "インドネパールレストラン&バー・マナシィ 野々井店", "address": "茨城県取手市野々井1031-8", "lat": 35.9226289, "lon": 140.0307117, "category": "アジア料理店", "category_id": "0100123", "time": [], "star": 3.0, "review": 1}, {"name": "居酒屋 まゆみ", "address": "茨城県取手市新取手1丁目4-1", "lat": 35.9178842, "lon": 140.0437454, "category": "居酒屋", "category_id": "0101495", "time": [], "star": 4.0, "review": 1}, {"name": "比古家", "address": "茨城県取手市寺田4767-3", "lat": 35.9170648, "lon": 140.0406346, "category": "", "category_id": "", "time": [], "star": 0.0, "review": 0}], "カフェ": [{"name": "ベジカフェ&レストラン リコ", "address": "茨城県取手市野々井717-5", "lat": 35.9240052, "lon": 140.03375829, "category": "カフェ・喫茶", "category_id": "0100344", "time": ["11:00-14:00"], "star": 3.89, "review": 16}, {"name": "Cafe Veryroll", "address": "茨城県取手市下高井1915-3", "lat": 35.9262797, "lon": 140.0337914, "category": "カフェ・喫茶", "category_id": "0100344", "time": [], "star": 3.0, "review": 1}, {"name": "Cafe 赤べこ", "address": "茨城県取手市野々井1604-3 1F", "lat": 35.91281646, "lon": 140.03252038, "category": "カフェ・喫茶", "category_id": "0100344", "time": ["11:00-23:00"], "star": 0.0, "review": 0}, {"name": "CAFE ELLEN テイクアウトデリバリー専門店", "address": "茨城県取手市ゆめみ野5-1-6", "lat": 35.923467003146, "lon": 140.04462620498, "category": "カフェ・喫茶", "category_id": "0100344", "time": [], "star": 3.87, "review": 2}, {"name": "ビストロタムタム", "address": "茨城県取手市新取手1-8-1", "lat": 35.91763801, "lon": 140.04486811, "category": "レストラン", "category_id": "0100111", "time": ["11:00-14:00", "18:00-23:00"], "star": 3.88, "review": 22}, {"name": "三州亭", "address": "茨城県取手市新取手1-5-13", "lat": 35.91813574, "lon": 140.04474309, "category": "カフェ・喫茶", "category_id": "0100344", "time": [], "star": 0.0, "review": 0}, {"name": "カラオケ喫茶 再来", "address": "茨城県取手市野々井1604-3", "lat": 35.912834, "lon": 140.032459, "category": "カフェ・喫茶", "category_id": "0100344", "time": [], "star": 0.0, "review": 0}, {"name": "株式会社Office ELLEN", "address": "茨城県取手市ゆめみ野5丁目1-6", "lat": 35.92349498, "lon": 140.04459837, "category": "レストラン", "category_id": "0100111", "time": [], "star": 0.0, "review": 0}], "ドラッグストア": [{"name": "ドラッグストアコスモス ゆめみ野店", "address": "茨城県取手市ゆめみ野４丁目１－１ ", "lat": 35.9251892, "lon": 140.040559, "category": "ドラッグストア", "category_id": "0200699", "time": ["10:00-21:00"], "star": 4.15, "review": 61}, {"name": "ウエルシア取手ゆめみ野店", "address": "茨城県取手市ゆめみ野3-8-2", "lat": 35.9276, "lon": 140.037334, "category": "ドラッグストア", "category_id": "0200699", "time": ["09:00-24:00"], "star": 4.47, "review": 12}, {"name": "ドラッグセイムス 新取手店", "address": "茨城県取手市新取手1-3-5", "lat": 35.9172844, "lon": 140.04366547, "category": "ドラッグストア", "category_id": "0200699", "time": ["09:00-21:00"], "star": 3.66, "review": 13}, {"name": "ファーマみらい 共創未来 ゆめみ野薬局", "address": "茨城県取手市ゆめみ野1-5-4", "lat": 35.92179933, "lon": 140.03545994, "category": "調剤薬局", "category_id": "0202315", "time": ["09:00-14:00"], "star": 0.0, "review": 0}, {"name": "カスミ 取手ゆめみ野店", "address": "茨城県取手市ゆめみ野3-8-2", "lat": 35.9280722, "lon": 140.0379265, "category": "スーパー", "category_id": "0200612", "time": ["09:00-24:00"], "star": 3.63, "review": 84}, {"name": "たかしん薬局 取手店", "address": "茨城県取手市野々井1670", "lat": 35.91574478149414, "lon": 140.03086853027344, "category": "調剤薬局", "category_id": "0202315", "time": [], "star": 0.0, "review": 0}, {"name": "クオール薬局取手西店", "address": "茨城県取手市野々井1926ー2 取手市医師会館1階", "lat": 35.9173338, "lon": 140.0256038, "category": "薬局・薬店関連", "category_id": "0202317", "time": ["09:00-18:00"], "star": 0.0, "review": 0}, {"name": "さくらい薬局取手店", "address": "茨城県取手市下高井1969-9", "lat": 35.92728276, "lon": 140.03566395, "category": "調剤薬局", "category_id": "0202315", "time": [], "star": 3.5, "review": 0}], "ATM": [{"name": "ローソン銀行 取手野々井共同出張所", "address": "茨城県取手市野々井801-1", "lat": 35.9202247, "lon": 140.035475, "category": "ATM", "category_id": "0402785", "time": ["00:00-24:00"], "star": 0.0, "review": 2}, {"name": "みずほ銀行 ATM カスミ取手ゆめみ野店出張所", "address": "茨城県取手市ゆめみ野3-8-2", "lat": 35.9280232, "lon": 140.037745, "category": "ATM", "category_id": "0402785", "time": [], "star": 4.0, "review": 2}, {"name": "イオン銀行 ATM カスミ取手ゆめみ野店出張所(店内)", "address": "茨城県取手市ゆめみ野3-8-2", "lat": 35.9280209, "lon": 140.037758, "category": "ATM", "category_id": "0402785", "time": ["09:00-24:00"], "star": 0.0, "review": 1}, {"name": "セブン銀行 取手ゆめみ野店", "address": "茨城県取手市ゆめみ野2-8-1", "lat": 35.9265077, "lon": 140.037836, "category": "ATM", "category_id": "0402785", "time": ["00:00-24:00"], "star": 0.0, "review": 2}, {"name": "筑波銀行 ATM 新取手支店", "address": "茨城県取手市新取手1-3-10", "lat": 35.9169902, "lon": 140.044054, "category": "ATM", "category_id": "0402785", "time": [], "star": 0.0, "review": 0}, {"name": "筑波銀行 西取手支店", "address": "茨城県取手市新取手1-3-10", "lat": 35.9170178, "lon": 140.0440349, "category": "銀行", "category_id": "0402596", "time": ["09:00-15:00"], "star": 4.0, "review": 1}, {"name": "筑波銀行 新取手支店", "address": "茨城県取手市新取手1-3-10", "lat": 35.9169983, "lon": 140.0440682, "category": "銀行", "category_id": "0402596", "time": ["09:00-15:00"], "star": 0.0, "review": 0}, {"name": "筑波銀行 取手支店", "address": "茨城県取手市新取手1-3-10", "lat": 35.9169844, "lon": 140.0441154, "category": "銀行", "category_id": "0402596", "time": ["09:00-15:00"], "star": 0.0, "review": 1}, {"name": "ローソン銀行 取手ゆめみ野共同出張所", "address": "茨城県取手市ゆめみ野2-9-6", "lat": 35.9258732, "lon": 140.039433, "category": "ATM", "category_id": "0402785", "time": ["00:00-24:00"], "star": 0.0, "review": 2}, {"name": "みずほ銀行 ATM ミニストップ新取手店出張所", "address": "茨城県取手市寺田字佃4718-15", "lat": 35.9170207, "lon": 140.04244, "category": "ATM", "category_id": "0402785", "time": [], "star": 0.0, "review": 2}, {"name": "ゆうちょ銀行 取手寺田郵便局", "address": "茨城県取手市新取手1-9-1", "lat": 35.9173952, "lon": 140.0447, "category": "銀行", "category_id": "0402596", "time": [], "star": 4.0, "review": 1}, {"name": "イオン銀行 ATM ミニストップ新取手店出張所(店内)", "address": "茨城県取手市寺田字佃4718-15", "lat": 35.9170386, "lon": 140.042432, "category": "ATM", "category_id": "0402785", "time": ["00:00-24:00"], "star": 0.0, "review": 0}, {"name": "ゆうちょ銀行 ATM 取手寺田郵便局", "address": "茨城県取手市新取手1-9-1", "lat": 35.9173952, "lon": 140.0447, "category": "ATM", "category_id": "0402785", "time": [], "star": 0.0, "review": 0}], "銭湯 温泉": [{"name": "日帰り入浴 老人福祉センター あけぼの", "address": "茨城県取手市寺田4723", "lat": 35.91665411, "lon": 140.04102497, "category": "日帰り入浴", "category_id": "0401679", "time": ["10:00-17:00"], "star": 0.0, "review": 0}], "スーパーマーケット": [{"name": "カスミ 取手ゆめみ野店", "address": "茨城県取手市ゆめみ野3-8-2", "lat": 35.9280722, "lon": 140.0379265, "category": "スーパー", "category_id": "0200612", "time": ["09:00-24:00"], "star": 3.63, "review": 84}, {"name": "株式会社マスダ 新取手駅前店", "address": "茨城県取手市新取手1丁目10-1", "lat": 35.91689026, "lon": 140.04488635, "category": "スーパー", "category_id": "0200612", "time": [], "star": 3.88, "review": 23}, {"name": "ウエルシア取手ゆめみ野店", "address": "茨城県取手市ゆめみ野3-8-2", "lat": 35.9276, "lon": 140.037334, "category": "ドラッグストア", "category_id": "0200699", "time": ["09:00-24:00"], "star": 4.47, "review": 12}]}, "top_restaurant": {"name": "ラ・ベル・フォンテーヌ", "category": "フランス料理店", "star": 4.44, "review": 21}}, {"name": "七井", "name_en": "Nanai", "lat": 36.4922043, "lon": 140.0944136, "osm_id": 823275153, "operator": "真岡鐵道", "railway": "station", "wikidata": "Q6962361", "wikipedia_tag": "ja:七井駅", "lines": ["真岡鐵道真岡線"], "pref": "茨城県", "nearby_bus_stops": [{"name": "七井駅前", "lat": 36.4931634, "lon": 140.0967075, "distance_m": 231, "operator": "東野交通"}, {"name": "七井下町", "lat": 36.4948325, "lon": 140.0938442, "distance_m": 297, "operator": "東野交通"}, {"name": "七井仲町", "lat": 36.4926395, "lon": 140.0994891, "distance_m": 456, "operator": "東野交通"}, {"name": "七井仲町", "lat": 36.4925403, "lon": 140.0995315, "distance_m": 459, "operator": "東野交通"}], "wikipedia_text": "七井駅（なないえき）は、栃木県芳賀郡益子町大字大沢にある真岡鐵道真岡線の駅である。", "wikipedia_image": "https://upload.wikimedia.org/wikipedia/commons/a/a9/Moka-Railway_Nanai_Station_20080607.jpg", "nearest_convenience": {"name": "ファミリーマート", "lat": 36.4940779, "lon": 140.0919504, "address": "", "distance_m": 303, "brand": "ファミリーマート"}, "nearest_restaurant": {"name": "陶知庵", "lat": 36.4656715, "lon": 140.1074065, "address": "", "distance_m": 3171, "cuisine": ""}, "nearby_pois": {"コンビニ": [{"name": "ファミリーマート 益子七井店", "address": "栃木県芳賀郡益子町七井836-1", "lat": 36.4940498, "lon": 140.0919709, "category": "コンビニ", "category_id": "0200487", "time": ["00:00-24:00"], "star": 3.79, "review": 5}, {"name": "ローソン 益子七井", "address": "栃木県芳賀郡益子町大字大沢字御座内188-6", "lat": 36.4922974, "lon": 140.1038643, "category": "コンビニ", "category_id": "0200487", "time": ["00:00-24:00"], "star": 4.32, "review": 10}, {"name": "セブンイレブン 益子大沢", "address": "栃木県芳賀郡益子町大沢134-1", "lat": 36.4913753, "lon": 140.1039727, "category": "コンビニ", "category_id": "0200487", "time": ["00:00-24:00"], "star": 4.32, "review": 6}, {"name": "有限会社エム・アイ・シー", "address": "栃木県芳賀郡益子町大沢1372-1", "lat": 36.4892851, "lon": 140.0989924, "category": "コンビニ", "category_id": "0200487", "time": [], "star": 0.0, "review": 0}, {"name": "ベイシア 益子店", "address": "栃木県芳賀郡益子町七井中央10-1", "lat": 36.4916641, "lon": 140.0991731, "category": "スーパー", "category_id": "0200612", "time": ["09:00-20:00"], "star": 3.54, "review": 142}], "ラーメン": [{"name": "麺道てっぺん家", "address": "栃木県芳賀郡益子町七井中央16-9", "lat": 36.49031146, "lon": 140.09912318, "category": "ラーメン店", "category_id": "0100097", "time": ["11:00-15:00", "17:00-20:30"], "star": 4.25, "review": 18}, {"name": "ニューましこや", "address": "栃木県芳賀郡益子町七井150", "lat": 36.4936564, "lon": 140.10088785, "category": "定食屋", "category_id": "0101441", "time": ["11:00-14:00", "18:00-23:00"], "star": 3.7, "review": 3}], "飲食店": [{"name": "MuYu", "address": "栃木県芳賀郡益子町七井中央20-5", "lat": 36.49034993899521, "lon": 140.09496277842982, "category": "カフェ・喫茶", "category_id": "0100344", "time": [], "star": 4.25, "review": 1}, {"name": "なない珈琲ロースタリー", "address": "栃木県芳賀郡益子町大沢1448-5", "lat": 36.491770778306, "lon": 140.09546635234, "category": "カフェ・喫茶", "category_id": "0100344", "time": ["11:00-17:30"], "star": 3.5, "review": 1}, {"name": "レストランつきみ野", "address": "栃木県芳賀郡益子町七井中央17-6", "lat": 36.49043669, "lon": 140.09727751, "category": "飲食店", "category_id": "0102732", "time": [], "star": 0.0, "review": 0}, {"name": "ニューましこや", "address": "栃木県芳賀郡益子町七井150", "lat": 36.4936564, "lon": 140.10088785, "category": "定食屋", "category_id": "0101441", "time": ["11:00-14:00", "18:00-23:00"], "star": 3.7, "review": 3}, {"name": "いちむら", "address": "栃木県芳賀郡益子町大沢3-2", "lat": 36.49180243, "lon": 140.10071462, "category": "レストラン", "category_id": "0100111", "time": ["17:00-21:00"], "star": 0.0, "review": 0}, {"name": "利休", "address": "栃木県芳賀郡益子町七井123-3", "lat": 36.494335468305, "lon": 140.09872523236, "category": "和食店", "category_id": "0100126", "time": ["11:30-14:00", "17:00-21:00"], "star": 3.0, "review": 1}, {"name": "麺道てっぺん家", "address": "栃木県芳賀郡益子町七井中央16-9", "lat": 36.49031146, "lon": 140.09912318, "category": "ラーメン店", "category_id": "0100097", "time": ["11:00-15:00", "17:00-20:30"], "star": 4.25, "review": 18}, {"name": "カフェチェリー", "address": "栃木県芳賀郡益子町大字七井234-4", "lat": 36.49595002, "lon": 140.10036501, "category": "カフェ・喫茶", "category_id": "0100344", "time": [], "star": 0.0, "review": 0}, {"name": "大興園", "address": "栃木県芳賀郡益子町大字大沢1311", "lat": 36.48786063, "lon": 140.09956159, "category": "焼肉店", "category_id": "0101963", "time": [], "star": 0.0, "review": 0}, {"name": "居酒屋和香", "address": "栃木県芳賀郡益子町大字七井2350", "lat": 36.49468843, "lon": 140.08443765, "category": "居酒屋", "category_id": "0101495", "time": [], "star": 0.0, "review": 0}, {"name": "いろは寿し", "address": "栃木県芳賀郡益子町大字七井2350-4", "lat": 36.49469065, "lon": 140.08438377, "category": "寿司店", "category_id": "0100101", "time": [], "star": 0.0, "review": 0}], "カフェ": [{"name": "なない珈琲ロースタリー", "address": "栃木県芳賀郡益子町大沢1448-5", "lat": 36.491770778306, "lon": 140.09546635234, "category": "カフェ・喫茶", "category_id": "0100344", "time": ["11:00-17:30"], "star": 3.5, "review": 1}, {"name": "MuYu", "address": "栃木県芳賀郡益子町七井中央20-5", "lat": 36.49034993899521, "lon": 140.09496277842982, "category": "カフェ・喫茶", "category_id": "0100344", "time": [], "star": 4.25, "review": 1}, {"name": "カフェチェリー", "address": "栃木県芳賀郡益子町大字七井234-4", "lat": 36.49595002, "lon": 140.10036501, "category": "カフェ・喫茶", "category_id": "0100344", "time": [], "star": 0.0, "review": 0}], "ドラッグストア": [{"name": "ウエルシア益子大沢店", "address": "栃木県芳賀郡益子町大沢（大字）138-1", "lat": 36.491701, "lon": 140.103097, "category": "ドラッグストア", "category_id": "0200699", "time": ["08:00-23:00"], "star": 4.06, "review": 10}, {"name": "薬王堂 益子大沢店", "address": "栃木県芳賀郡益子町大沢127", "lat": 36.4907773, "lon": 140.103628, "category": "ドラッグストア", "category_id": "0200699", "time": ["09:00-22:00"], "star": 0.0, "review": 0}], "ATM": [{"name": "栃木銀行 ATM ベイシア益子店", "address": "栃木県芳賀郡益子町七井中央10-1", "lat": 36.4913387, "lon": 140.098176, "category": "ATM", "category_id": "0402785", "time": [], "star": 0.0, "review": 0}, {"name": "足利銀行 ATM ベイシア益子店", "address": "栃木県芳賀郡益子町七井中央10-1", "lat": 36.491683, "lon": 140.099112, "category": "ATM", "category_id": "0402785", "time": [], "star": 0.0, "review": 0}, {"name": "ゆうちょ銀行 ATM 七井郵便局", "address": "栃木県芳賀郡益子町大沢15-2", "lat": 36.4918461, "lon": 140.101427, "category": "ATM", "category_id": "0402785", "time": [], "star": 0.0, "review": 0}, {"name": "銀行ATM イーネット ファミリーマート益子七井 共同出張所", "address": "栃木県芳賀郡益子町大字七井836-1 ", "lat": 36.494072, "lon": 140.09195421, "category": "ATM", "category_id": "0402785", "time": ["00:00-24:00"], "star": 0.0, "review": 0},