[{"name": "4階のりば", "name_en": "", "lat": 32.7328668, "lon": 129.8712271, "osm_id": 13589111862, "operator": "", "railway": "station", "wikidata": "", "wikipedia_tag": "", "lines": [], "pref": "長崎県", "nearby_bus_stops": [{"name": "大浦天主堂下", "lat": 32.736223, "lon": 129.8709887, "distance_m": 374, "operator": ""}], "nearest_convenience": {"name": "セブン-イレブン", "lat": 32.7361529, "lon": 129.871256, "address": "", "distance_m": 365, "brand": "セブン-イレブン"}, "nearest_restaurant": {"name": "", "lat": 32.7347773, "lon": 129.8728574, "address": "", "distance_m": 262, "cuisine": ""}, "nearby_pois": {"コンビニ": [{"name": "セブンイレブン 長崎大浦町", "address": "長崎県長崎市大浦町3-19", "lat": 32.7362309, "lon": 129.871248, "category": "コンビニ", "category_id": "0200487", "time": ["00:00-24:00"], "star": 4.33, "review": 18}, {"name": "ファミリーマート 長崎グラバー通り店", "address": "長崎県長崎市南山手町2-33 南山手オルゴール館", "lat": 32.7358892, "lon": 129.8694926, "category": "コンビニ", "category_id": "0200487", "time": ["00:00-24:00"], "star": 3.32, "review": 18}, {"name": "セブンイレブン 長崎梅香崎町", "address": "長崎県長崎市梅香崎町2-11", "lat": 32.7400667, "lon": 129.8743144, "category": "コンビニ", "category_id": "0200487", "time": ["00:00-24:00"], "star": 4.11, "review": 33}, {"name": "セブンイレブン 長崎古河町", "address": "長崎県長崎市古河町26-1", "lat": 32.7305506, "lon": 129.8632404, "category": "コンビニ", "category_id": "0200487", "time": ["06:00-24:00"], "star": 4.63, "review": 7}, {"name": "セブンイレブン 長崎高丘1丁目", "address": "長崎県長崎市高丘1-3-7", "lat": 32.7328788, "lon": 129.8803225, "category": "コンビニ", "category_id": "0200487", "time": ["00:00-24:00"], "star": 4.5, "review": 17}, {"name": "ローソン 長崎川上町", "address": "長崎県長崎市川上町30-13", "lat": 32.7272182, "lon": 129.8761119, "category": "コンビニ", "category_id": "0200487", "time": ["00:00-24:00"], "star": 4.5, "review": 1}, {"name": "ローソン 長崎湊公園前", "address": "長崎県長崎市梅香崎町2-17", "lat": 32.740214, "lon": 129.8748588, "category": "コンビニ", "category_id": "0200487", "time": ["00:00-24:00"], "star": 3.87, "review": 17}, {"name": "ファミリーマート メットライフ生命長崎ビル店", "address": "長崎県長崎市常盤町1-1", "lat": 32.74015, "lon": 129.8707091, "category": "コンビニ", "category_id": "0200487", "time": ["08:00-20:00"], "star": 4.21, "review": 16}, {"name": "長崎みなとメディカルセンター売店", "address": "長崎県長崎市新地町6-39", "lat": 32.7394168, "lon": 129.8723035, "category": "コンビニ", "category_id": "0200487", "time": ["07:00-22:00"], "star": 0.0, "review": 1}, {"name": "ジョイフルサン 大浦店", "address": "長崎県長崎市相生町1-5", "lat": 32.7343312, "lon": 129.8720036, "category": "スーパー", "category_id": "0200612", "time": ["09:00-21:00"], "star": 3.41, "review": 65}, {"name": "丸善キャンパスショップ 活水女子大学店2号館", "address": "長崎県長崎市東山手町1-50", "lat": 32.73878373, "lon": 129.87339794, "category": "コンビニ", "category_id": "0200487", "time": [], "star": 0.0, "review": 0}], "ラーメン": [{"name": "三八ラーメン 大浦支店", "address": "長崎県長崎市下町3-13", "lat": 32.73418151, "lon": 129.87283051, "category": "ラーメン店", "category_id": "0100097", "time": ["11:00-20:00"], "star": 3.81, "review": 26}, {"name": "北京", "address": "長崎県長崎市松が枝町2-47", "lat": 32.73485278, "lon": 129.87171417, "category": "中華料理店", "category_id": "0100990", "time": ["11:30-14:00", "17:00-18:30"], "star": 3.71, "review": 15}, {"name": "中華料理 四海樓", "address": "長崎県長崎市松が枝町4-5", "lat": 32.7364392, "lon": 129.8698148, "category": "中華料理店", "category_id": "0100990", "time": ["11:30-15:00", "17:00-20:00"], "star": 4.03, "review": 316}, {"name": "四海樓名店街", "address": "長崎県長崎市松が枝町4-5 四海楼 1F", "lat": 32.736478597435, "lon": 129.86983055158, "category": "洋菓子店", "category_id": "0101856", "time": ["09:30-18:00"], "star": 3.46, "review": 8}, {"name": "蘇州林飲茶店", "address": "長崎県長崎市新地町11-14", "lat": 32.74113054, "lon": 129.87507543, "category": "ちゃんぽん店", "category_id": "0100146", "time": ["11:00-20:30"], "star": 3.92, "review": 69}, {"name": "老李 長崎中華街 総本店", "address": "長崎県長崎市新地町12-7２Ｆ", "lat": 32.740952, "lon": 129.875536, "category": "台湾料理店", "category_id": "0101283", "time": ["11:30-15:00", "17:00-22:00"], "star": 4.26, "review": 70}], "飲食店": [{"name": "RESTAURANT CATHEDRÉCLAT", "address": "長崎県長崎県長崎市南山手町12-17ホテルインディゴ長崎グラバーストリート", "lat": 32.731897, "lon": 129.867036, "category": "飲食店", "category_id": "0102732", "time": ["12:00-15:00", "17:30-22:00"], "star": 3.44, "review": 8}, {"name": "THE Green & Belle", "address": "長崎県長崎市南山手町1-18 ANAクラウンプラザホテル長崎 1F", "lat": 32.735857377435, "lon": 129.86988959157, "category": "カフェ・喫茶", "category_id": "0100344", "time": ["10:00-22:00"], "star": 3.6, "review": 1}, {"name": "カロリー食堂", "address": "長崎県長崎市相生町2-9", "lat": 32.733742315677, "lon": 129.87239889939, "category": "定食屋", "category_id": "0101441", "time": [], "star": 0.0, "review": 0}, {"name": "サウダーデ", "address": "長崎県長崎市大浦町1-22 ホテルモントレ長崎 1F", "lat": 32.737850137434, "lon": 129.87145636159, "category": "カフェ・喫茶", "category_id": "0100344", "time": ["10:00-19:00"], "star": 0.0, "review": 0}, {"name": "ブリックカフェ", "address": "長崎県長崎市南山手町2-33 長崎オルゴール館 1F", "lat": 32.7359256854, "lon": 129.86955321827, "category": "カフェ・喫茶", "category_id": "0100344", "time": [], "star": 0.0, "review": 0}, {"name": "港湾食堂", "address": "長崎県長崎市松が枝町7-29", "lat": 32.73537182835, "lon": 129.86696759937, "category": "定食屋", "category_id": "0101441", "time": [], "star": 3.0, "review": 1}, {"name": "トマト", "address": "長崎県長崎市新地町6-56", "lat": 32.740520444976, "lon": 129.87399619747, "category": "カフェ・喫茶", "category_id": "0100344", "time": [], "star": 3.63, "review": 4}, {"name": "ビアンモール", "address": "長崎県長崎市新地町6-39 長崎みなとメディカルセンター市民病院 1F", "lat": 32.739447237433, "lon": 129.87231736161, "category": "カフェ・喫茶", "category_id": "0100344", "time": [], "star": 0.0, "review": 1}, {"name": "グラバーズビアガーデン", "address": "長崎県長崎市南山手町8-1 グラバー園", "lat": 32.737165352958, "lon": 129.87312510541, "category": "洋食店", "category_id": "0100129", "time": ["17:00-21:00"], "star": 3.5, "review": 1}, {"name": "レストラン パヴェ", "address": "長崎県長崎市南山手町1-18", "lat": 32.7357227, "lon": 129.870045, "category": "レストラン", "category_id": "0100111", "time": ["06:00-10:00", "11:30-15:00", "17:30-21:00"], "star": 3.95, "review": 28}, {"name": "ビル&ベン", "address": "長崎県長崎市下町5-1", "lat": 32.7338738, "lon": 129.8728533, "category": "コーヒー店", "category_id": "0100496", "time": [], "star": 4.78, "review": 8}, {"name": "旧自由亭", "address": "長崎県長崎市南山手町8-1 グラバー園内", "lat": 32.733814, "lon": 129.869387, "category": "飲食店", "category_id": "0102732", "time": [], "star": 0.0, "review": 2}, {"name": "グラバーカフェ", "address": "長崎県長崎市南山手町8-1 グラバー園", "lat": 32.73359363, "lon": 129.86906383, "category": "カフェ・喫茶", "category_id": "0100344", "time": ["10:00-17:00"], "star": 4.13, "review": 26}, {"name": "丘の上のコーヒー館 耕美庵", "address": "長崎県長崎市東琴平2-3-19", "lat": 32.73135997, "lon": 129.86897585, "category": "カフェ・喫茶", "category_id": "0100344", "time": [], "star": 4.2, "review": 1}, {"name": "ドリーミン", "address": "長崎県長崎市新地町12-10", "lat": 32.74085557, "lon": 129.87520043, "category": "飲食店", "category_id": "0102732", "time": [], "star": 0.0, "review": 0}, {"name": "レッケル", "address": "長崎県長崎市松が枝町3-7 1F", "lat": 32.73589923663, "lon": 129.87062646041, "category": "カフェ・喫茶", "category_id": "0100344", "time": ["11:00-20:00"], "star": 3.93, "review": 46}, {"name": "カフェレストランKIZUNA", "address": "長崎県長崎市南山手4-28ヴィラ・コモン南山手 1F", "lat": 32.735035, "lon": 129.868585, "category": "カフェ・喫茶", "category_id": "0100344", "time": ["11:30-16:00"], "star": 4.19, "review": 25}, {"name": "お好み焼き 銀座", "address": "長崎県長崎市籠町5-18", "lat": 32.740217566588, "lon": 129.87535808404, "category": "お好み焼き店", "category_id": "0100046", "time": [], "star": 0.0, "review": 0}, {"name": "中華料理 四海樓", "address": "長崎県長崎市松が枝町4-5", "lat": 32.7364392, "lon": 129.8698148, "category": "中華料理店", "category_id": "0100990", "time": ["11:30-15:00", "17:00-20:00"], "star": 4.03, "review": 316}, {"name": "東山手 地球館", "address": "長崎県長崎市東山手町6-25", "lat": 32.735495, "lon": 129.8732896, "category": "カフェ・喫茶", "category_id": "0100344", "time": ["11:00-16:00", "17:00-20:00"], "star": 3.36, "review": 6}], "カフェ": [{"name": "THE Green & Belle", "address": "長崎県長崎市南山手町1-18 ANAクラウンプラザホテル長崎 1F", "lat": 32.735857377435, "lon": 129.86988959157, "category": "カフェ・喫茶", "category_id": "0100344", "time": ["10:00-22:00"], "star": 3.6, "review": 1}, {"name": "グラバーカフェ", "address": "長崎県長崎市南山手町8-1 グラバー園", "lat": 32.73359363, "lon": 129.86906383, "category": "カフェ・喫茶", "category_id": "0100344", "time": ["10:00-17:00"], "star": 4.13, "review": 26}, {"name": "丘の上のコーヒー館 耕美庵", "address": "長崎県長崎市東琴平2-3-19", "lat": 32.73135997, "lon": 129.86897585, "category": "カフェ・喫茶", "category_id": "0100344", "time": [], "star": 4.2, "review": 1}, {"name": "レッケル", "address": "長崎県長崎市松が枝町3-7 1F", "lat": 32.73589923663, "lon": 129.87062646041, "category": "カフェ・喫茶", "category_id": "0100344", "time": ["11:00-20:00"], "star": 3.93, "review": 46}, {"name": "カフェレストランKIZUNA", "address": "長崎県長崎市南山手4-28ヴィラ・コモン南山手 1F", "lat": 32.735035, "lon": 129.868585, "category": "カフェ・喫茶", "category_id": "0100344", "time": ["11:30-16:00"], "star": 4.19, "review": 25}, {"name": "サウダーデ", "address": "長崎県長崎市大浦町1-22 ホテルモントレ長崎 1F", "lat": 32.737850137434, "lon": 129.87145636159, "category": "カフェ・喫茶", "category_id": "0100344", "time": ["10:00-19:00"], "star": 0.0, "review": 0}, {"name": "ブリックカフェ", "address": "長崎県長崎市南山手町2-33 長崎オルゴール館 1F", "lat": 32.7359256854, "lon": 129.86955321827, "category": "カフェ・喫茶", "category_id": "0100344", "time": [], "star": 0.0, "review": 0}, {"name": "ビル&ベン", "address": "長崎県長崎市下町5-1", "lat": 32.7338738, "lon": 129.8728533, "category": "コーヒー店", "category_id": "0100496", "time": [], "star": 4.78, "review": 8}, {"name": "トマト", "address": "長崎県長崎市新地町6-56", "lat": 32.740520444976, "lon": 129.87399619747, "category": "カフェ・喫茶", "category_id": "0100344", "time": [], "star": 3.63, "review": 4}, {"name": "ラウンジ トレビ", "address": "長崎県長崎市南山手町1-18 ANAクラウンプラザホテル長崎グラバーヒル 1F", "lat": 32.735790767435, "lon": 129.87004498157, "category": "ホテルラウンジ", "category_id": "0100003", "time": ["10:00-24:00"], "star": 3.43, "review": 8}, {"name": "ビアンモール", "address": "長崎県長崎市新地町6-39 長崎みなとメディカルセンター市民病院 1F", "lat": 32.739447237433, "lon": 129.87231736161, "category": "カフェ・喫茶", "category_id": "0100344", "time": [], "star": 0.0, "review": 1}, {"name": "葉山珈琲 長崎オランダ通り店", "address": "長崎県長崎市大浦5-42", "lat": 32.73794273, "lon": 129.87186463, "category": "コーヒー店", "category_id": "0100496", "time": ["08:00-18:00"], "star": 4.19, "review": 74}, {"name": "cafe X", "address": "長崎県長崎市松が枝町5-6", "lat": 32.736000817435, "lon": 129.86924145157, "category": "カフェ・喫茶", "category_id": "0100344", "time": ["09:00-17:00"], "star": 3.79, "review": 13}, {"name": "プチコアンカフェ", "address": "長崎県長崎市松が枝町3-6 池森ビル", "lat": 32.735979427435, "lon": 129.87055741157, "category": "カフェ・喫茶", "category_id": "0100344", "time": ["11:00-18:00"], "star": 3.87, "review": 5}, {"name": "グラバーズビアガーデン", "address": "長崎県長崎市南山手町8-1 グラバー園", "lat": 32.737165352958, "lon": 129.87312510541, "category": "洋食店", "category_id": "0100129", "time": ["17:00-21:00"], "star": 3.5, "review": 1}, {"name": "南山手8番館", "address": "長崎県長崎市南山手4-3", "lat": 32.73510042, "lon": 129.86912628, "category": "カフェ・喫茶", "category_id": "0100344", "time": ["10:00-17:30"], "star": 3.84, "review": 16}, {"name": "長崎県美術館カフェ", "address": "長崎県長崎市出島町2番1号", "lat": 32.741733827432, "lon": 129.87075854163, "category": "カフェ・喫茶", "category_id": "0100344", "time": ["10:00-20:00"], "star": 3.93, "review": 50}, {"name": "ファイブクローバーズ", "address": "長崎県長崎市南山手町4-39 センターヴィレッジビル 1F", "lat": 32.73474543663, "lon": 129.8694850604, "category": "カフェ・喫茶", "category_id": "0100344", "time": ["11:00-18:00"], "star": 3.83, "review": 2}, {"name": "東山手 地球館", "address": "長崎県長崎市東山手町6-25", "lat": 32.735495, "lon": 129.8732896, "category": "カフェ・喫茶", "category_id": "0100344", "time": ["11:00-16:00", "17:00-20:00"], "star": 3.36, "review": 6}, {"name": "カルペ ディエム カフェ", "address": "長崎県長崎市南山手町1-4 第2オーチ東山手", "lat": 32.738959884680625, "lon": 129.8724806560647, "category": "カフェ・喫茶", "category_id": "0100344", "time": ["12:00-24:00"], "star": 4.6, "review": 5}], "ドラッグストア": [{"name": "コスモス薬局", "address": "長崎県長崎市松が枝町3-19", "lat": 32.7350202, "lon": 129.8712982, "category": "調剤薬局", "category_id": "0202315", "time": [], "star": 0.0, "review": 1}, {"name": "大浦中央調剤薬局", "address": "長崎県長崎市相生町2-2", "lat": 32.7341165, "lon": 129.8723842, "category": "調剤薬局", "category_id": "0202315", "time": ["09:00-18:00"], "star": 0.0, "review": 0}, {"name": "にこにこ薬局", "address": "長崎県長崎市大浦町8-30", "lat": 32.73594293, "lon": 129.87143555, "category": "調剤薬局", "category_id": "0202315", "time": [], "star": 0.0, "review": 0}, {"name": "ドレミ薬品 大浦店", "address": "長崎県長崎市相生町1-17", "lat": 32.73461151123047, "lon": 129.8719482421875, "category": "調剤薬局", "category_id": "0202315", "time": ["09:00-20:00"], "star": 0.0, "review": 0}, {"name": "たんぽぽ薬局", "address": "長崎県長崎市大浦町9-31", "lat": 32.73488235473633, "lon": 129.87216186523438, "category": "調剤薬局", "category_id": "0202315", "time": [], "star": 0.0, "review": 0}, {"name": "つりがね堂薬局", "address": "長崎県長崎市新地町11-11", "lat": 32.74097499, "lon": 129.87500349, "category": "調剤薬局", "category_id": "0202315", "time": ["09:00-18:00"], "star": 4.33, "review": 1}, {"name": "オランダ坂薬局", "address": "長崎県長崎市大浦町9-18", "lat": 32.73445703, "lon": 129.87267995, "category": "調剤薬局", "category_id": "0202315", "time": [], "star": 0.0, "review": 0}, {"name": "アイン 長崎中央店", "address": "長崎県長崎市東山手町1-11", "lat": 32.7394379, "lon": 129.87290146, "category": "調剤薬局", "category_id": "0202315", "time": ["09:00-18:00"], "star": 4.0, "review": 0}, {"name": "日本調剤 長崎薬局", "address": "長崎県長崎市東山手町1-9 1F", "lat": 32.73934734, "lon": 129.87280897, "category": "調剤薬局", "category_id": "0202315", "time": ["09:00-18:00"], "star": 4.0, "review": 0}, {"name": "マキ薬局", "address": "長崎県長崎市籠町7-16", "lat": 32.73999818, "lon": 129.87631593, "category": "調剤薬局", "category_id": "0202315", "time": [], "star": 0.0, "review": 0}, {"name": "新生堂調剤薬局 ミナトパーク店", "address": "長崎県長崎市新地町8-16", "lat": 32.74124718, "lon": 129.87455601, "category": "調剤薬局", "category_id": "0202315", "time": ["08:30-18:00"], "star": 3.5, "review": 0}, {"name": "広馬場薬局", "address": "長崎県長崎市籠町2-35", "lat": 32.740129, "lon": 129.8761832, "category": "調剤薬局", "category_id": "0202315", "time": ["09:00-18:00"], "star": 0.0, "review": 0}, {"name": "天本愛命堂調剤薬局", "address": "長崎県長崎市新地町6-56", "lat": 32.74058777127, "lon": 129.87395052, "category": "調剤薬局", "category_id": "0202315", "time": [], "star": 2.0, "review": 1}, {"name": "リエール薬局", "address": "長崎県長崎市新地町12-8", "lat": 32.74097818, "lon": 129.87541183, "category": "調剤薬局", "category_id": "0202315", "time": ["08:30-18:00"], "star": 0.0, "review": 0}, {"name": "有限会社フジ調剤薬局", "address": "長崎県長崎市新地町4-11", "lat": 32.74102783203125, "lon": 129.87388610839844, "category": "調剤薬局", "category_id": "0202315", "time": ["09:00-18:00"], "star": 0.0, "review": 0}, {"name": "ペンギン薬局", "address": "長崎県長崎市中小島2丁目4-28", "lat": 32.73707962036133, "lon": 129.8801727294922, "category": "調剤薬局", "category_id": "0202315", "time": [], "star": 0.0, "review": 0}, {"name": "出島薬局", "address": "長崎県長崎市新地町5-4", "lat": 32.74085596, "lon": 129.87355627, "category": "調剤薬局", "category_id": "0202315", "time": [], "star": 0.0, "review": 0}, {"name": "有限会社牧薬品 経理部", "address": "長崎県長崎市籠町7-17", "lat": 32.7399504, "lon": 129.87649238, "category": "調剤薬局", "category_id": "0202315", "time": [], "star": 0.0, "review": 0}], "ATM": [{"name": "十八親和銀行 大浦支店", "address": "長崎県長崎市大浦町2-2", "lat": 32.73766273, "lon": 129.87096414, "category": "銀行", "category_id": "0402596", "time": ["09:00-11:30"], "star": 3.5, "review": 0}, {"name": "ゆうちょ銀行 長崎小曽根郵便局", "address": "長崎県長崎市小曽根町1-32", "lat": 32.7343068, "lon": 129.867643, "category": "銀行", "category_id": "0402596", "time": [], "star": 3.8, "review": 2}, {"name": "十八親和銀行 大浦中央支店", "address": "長崎県長崎市大浦町2-2", "lat": 32.737666, "lon": 129.870943, "category": "銀行", "category_id": "0402596", "time": ["09:00-11:30"], "star": 3.5, "review": 1}, {"name": "十八親和銀行 ATM 長崎大浦郵便局", "address": "長崎県長崎市大浦東町1-28", "lat": 32.7329736, "lon": 129.873072, "category": "ATM", "category_id": "0402785", "time": [], "star": 0.0, "review": 0}, {"name": "ゆうちょ銀行 ATM 長崎大浦郵便局", "address": "長崎県長崎市大浦東町1-28", "lat": 32.7329905, "lon": 129.873103, "category": "ATM", "category_id": "0402785", "time": [], "star": 0.0, "review": 0}, {"name": "JAバンク ATM 長崎西彼農業協同組合(JA長崎せいひ)大浦ATMコーナー", "address": "長崎県長崎市大浦東町2-12", "lat": 32.7325811, "lon": 129.873335, "category": "ATM", "category_id": "0402785", "time": [], "star": 0.0, "review": 0}, {"name": "銀行ATM イーネット ファミリーマート長崎グラバー通り 共同出張所", "address": "長崎県長崎市南山手町2-33 ", "lat": 32.735875, "lon": 129.869494, "category": "ATM", "category_id": "0402785", "time": ["00:00-24:00"], "star": 0.0, "review": 0}, {"name": "ゆうちょ銀行 長崎大浦郵便局", "address": "長崎県長崎市大浦東町1-28", "lat": 32.7329905, "lon": 129.873103, "category": "銀行", "category_id": "0402596", "time": [], "star": 0.0, "review": 0}, {"name": "ゆうちょ銀行 ATM 長崎小曽根郵便局", "address": "長崎県長崎市小曽根町1-32", "lat": 32.7343068, "lon": 129.867643, "category": "ATM", "category_id": "0402785", "time": [], "star": 0.0, "review": 0}, {"name": "ゆうちょ銀行 長崎梅香崎郵便局", "address": "長崎県長崎市梅香崎町1-3", "lat": 32.7401142, "lon": 129.875086, "category": "銀行", "category_id": "0402596", "time": [], "star": 4.33, "review": 0}, {"name": "セブン銀行 長崎大浦町店", "address": "長崎県長崎市大浦町3-19", "lat": 32.7362036, "lon": 129.871248, "category": "ATM", "category_id": "0402785", "time": ["00:00-24:00"], "star": 0.0, "review": 0}, {"name": "十八親和銀行 ATM 広馬場", "address": "長崎県長崎市籠町7-16", "lat": 32.7399733, "lon": 129.876315, "category": "ATM", "category_id": "0402785", "time": [], "star": 0.0, "review": 0}, {"name": "十八親和銀行 ATM 大浦中央支店", "address": "長崎県長崎市大浦町2-2", "lat": 32.737666, "lon": 129.870943, "category": "ATM", "category_id": "0402785", "time": [], "star": 0.0, "review": 0}, {"name": "JAバンクATM", "address": "長崎県長崎市大浦東町2-12", "lat": 32.73256614, "lon": 129.87332191, "category": "銀行", "category_id": "0402596", "time": [], "star": 0.0, "review": 0}, {"name": "十八銀行 大浦支店", "address": "長崎県長崎市大浦町9-24", "lat": 32.7345165, "lon": 129.8724729, "category": "銀行", "category_id": "0402596", "time": [], "star": 0.0, "review": 0}, {"name": "銀行ATM イーネット ファミリーマートメットライフ生命長崎ビル 共同出張所", "address": "長崎県長崎市常盤町1-1 ", "lat": 32.740307, "lon": 129.870849, "category": "ATM", "category_id": "0402785", "time": ["08:00-19:00"], "star": 3.5, "review": 0}, {"name": "十八親和銀行 ATM 長崎みなとメディカルセンター", "address": "長崎県長崎市新地町6", "lat": 32.7401489, "lon": 129.872705, "category": "ATM", "category_id": "0402785", "time": [], "star": 0.0, "review": 0}, {"name": "ゆうちょ銀行 ATM 長崎梅香崎郵便局", "address": "長崎県長崎市梅香崎町1-3", "lat": 32.7401142, "lon": 129.875086, "category": "ATM", "category_id": "0402785", "time": [], "star": 0.0, "review": 0}, {"name": "宝くじ ATM 十八親和銀行長崎大浦郵便局出張所", "address": "長崎県長崎市大浦東町1-28", "lat": 32.7330884, "lon": 129.873204, "category": "宝くじ売り場", "category_id": "0401442", "time": ["09:00-17:00"], "star": 0.0, "review": 0}, {"name": "セブン銀行 長崎古河町店", "address": "長崎県長崎市古河町26-1", "lat": 32.7305673, "lon": 129.863305, "category": "ATM", "category_id": "0402785", "time": ["00:00-24:00"], "star": 0.0, "review": 0}], "銭湯 温泉": [{"name": "松島湯", "address": "長崎県長崎市元町1-19", "lat": 32.73532729, "lon": 129.87580749, "category": "銭湯", "category_id": "0400578", "time": [], "star": 3.0, "review": 1}], "スーパーマーケット": [{"name": "ジョイフルサン 大浦店", "address": "長崎県長崎市相生町1-5", "lat": 32.7343312, "lon": 129.8720036, "category": "スーパー", "category_id": "0200612", "time": ["09:00-21:00"], "star": 3.41, "review": 65}]}, "top_restaurant": {"name": "ビル&ベン", "category": "コーヒー店", "star": 4.78, "review": 8}}, {"name": "5階のりば", "name_en": "", "lat": 32.7328312, "lon": 129.8711439, "osm_id": 5825876719, "operator": "", "railway": "station", "wikidata": "", "wikipedia_tag": "", "lines": [], "pref": "長崎県", "nearby_bus_stops": [{"name": "大浦天主堂下", "lat": 32.736223, "lon": 129.8709887, "distance_m": 377, "operator": ""}], "nearest_convenience": {"name": "ファミリーマート", "lat": 32.7360905, "lon": 129.8703891, "address": "", "distance_m": 369, "brand": "ファミリーマート"}, "nearest_restaurant": {"name": "", "lat": 32.7347773, "lon": 129.8728574, "address": "", "distance_m": 269, "cuisine": ""}, "nearby_pois": {"コンビニ": [{"name": "セブンイレブン 長崎大浦町", "address": "長崎県長崎市大浦町3-19", "lat": 32.7362309, "lon": 129.871248, "category": "コンビニ", "category_id": "0200487", "time": ["00:00-24:00"], "star": 4.33, "review": 18}, {"name": "ファミリーマート 長崎グラバー通り店", "address": "長崎県長崎市南山手町2-33 南山手オルゴール館", "lat": 32.7358892, "lon": 129.8694926, "category": "コンビニ", "category_id": "0200487", "time": ["00:00-24:00"], "star": 3.32, "review": 18}, {"name": "セブンイレブン 長崎古河町", "address": "長崎県長崎市古河町26-1", "lat": 32.7305506, "lon": 129.8632404, "category": "コンビニ", "category_id": "0200487", "time": ["06:00-24:00"], "star": 4.63, "review": 7}, {"name": "セブンイレブン 長崎梅香崎町", "address": "長崎県長崎市梅香崎町2-11", "lat": 32.7400667, "lon": 129.8743144, "category": "コンビニ", "category_id": "0200487", "time": ["00:00-24:00"], "star": 4.11, "review": 33}, {"name": "ローソン 長崎川上町", "address": "長崎県長崎市川上町30-13", "lat": 32.7272182, "lon": 129.8761119, "category": "コンビニ", "category_id": "0200487", "time": ["00:00-24:00"], "star": 4.5, "review": 1}, {"name": "セブンイレブン 長崎高丘1丁目", "address": "長崎県長崎市高丘1-3-7", "lat": 32.7328788, "lon": 129.8803225, "category": "コンビニ", "category_id": "0200487", "time": ["00:00-24:00"], "star": 4.5, "review": 17}, {"name": "ローソン 長崎湊公園前", "address": "長崎県長崎市梅香崎町2-17", "lat": 32.740214, "lon": 129.8748588, "category": "コンビニ", "category_id": "0200487", "time": ["00:00-24:00"], "star": 3.87, "review": 17}, {"name": "ファミリーマート メットライフ生命長崎ビル店", "address": "長崎県長崎市常盤町1-1", "lat": 32.74015, "lon": 129.8707091, "category": "コンビニ", "category_id": "0200487", "time": ["08:00-20:00"], "star": 4.21, "review": 16}, {"name": "長崎みなとメディカルセンター売店", "address": "長崎県長崎市新地町6-39", "lat": 32.7394168, "lon": 129.8723035, "category": "コンビニ", "category_id": "0200487", "time": ["07:00-22:00"], "star": 0.0, "review": 1}, {"name": "ジョイフルサン 大浦店", "address": "長崎県長崎市相生町1-5", "lat": 32.7343312, "lon": 129.8720036, "category": "スーパー", "category_id": "0200612", "time": ["09:00-21:00"], "star": 3.41, "review": 65}, {"name": "丸善キャンパスショップ 活水女子大学店2号館", "address": "長崎県長崎市東山手町1-50", "lat": 32.73878373, "lon": 129.87339794, "category": "コンビニ", "category_id": "0200487", "time": [], "star": 0.0, "review": 0}], "ラーメン": [{"name": "三八ラーメン 大浦支店", "address": "長崎県長崎市下町3-13", "lat": 32.73418151, "lon": 129.87283051, "category": "ラーメン店", "category_id": "0100097", "time": ["11:00-20:00"], "star": 3.81, "review": 26}, {"name": "北京", "address": "長崎県長崎市松が枝町2-47", "lat": 32.73485278, "lon": 129.87171417, "category": "中華料理店", "category_id": "0100990", "time": ["11:30-14:00", "17:00-18:30"], "star": 3.71, "review": 15}, {"name": "中華料理 四海樓", "address": "長崎県長崎市松が枝町4-5", "lat": 32.7364392, "lon": 129.8698148, "category": "中華料理店", "category_id": "0100990", "time": ["11:30-15:00", "17:00-20:00"], "star": 4.03, "review": 316}, {"name": "四海樓名店街", "address": "長崎県長崎市松が枝町4-5 四海楼 1F", "lat": 32.736478597435, "lon": 129.86983055158, "category": "洋菓子店", "category_id": "0101856", "time": ["09:30-18:00"], "star": 3.46, "review": 8}, {"name": "蘇州林飲茶店", "address": "長崎県長崎市新地町11-14", "lat": 32.74113054, "lon": 129.87507543, "category": "ちゃんぽん店", "category_id": "0100146", "time": ["11:00-20:30"], "star": 3.92, "review": 69}, {"name": "老李 長崎中華街 総本店", "address": "長崎県長崎市新地町12-7２Ｆ", "lat": 32.740952, "lon": 129.875536, "category": "台湾料理店", "category_id": "0101283", "time": ["11:30-15:00", "17:00-22:00"], "star": 4.26, "review": 70}], "飲食店": [{"name": "RESTAURANT CATHEDRÉCLAT", "address": "長崎県長崎県長崎市南山手町12-17ホテルインディゴ長崎グラバーストリート", "lat": 32.731897, "lon": 129.867036, "category": "飲食店", "category_id": "0102732", "time": ["12:00-15:00", "17:30-22:00"], "star": 3.44, "review": 8}, {"name": "THE Green & Belle", "address": "長崎県長崎市南山手町1-18 ANAクラウンプラザホテル長崎 1F", "lat": 32.735857377435, "lon": 129.86988959157, "category": "カフェ・喫茶", "category_id": "0100344", "time": ["10:00-22:00"], "star": 3.6, "review": 1}, {"name": "カロリー食堂", "address": "長崎県長崎市相生町2-9", "lat": 32.733742315677, "lon": 129.87239889939, "category": "定食屋", "category_id": "0101441", "time": [], "star": 0.0, "review": 0}, {"name": "サウダーデ", "address": "長崎県長崎市大浦町1-22 ホテルモントレ長崎 1F", "lat": 32.737850137434, "lon": 129.87145636159, "category": "カフェ・喫茶", "category_id": "0100344", "time": ["10:00-19:00"], "star": 0.0, "review": 0}, {"name": "ブリックカフェ", "address": "長崎県長崎市南山手町2-33 長崎オルゴール館 1F", "lat": 32.7359256854, "lon": 129.86955321827, "category": "カフェ・喫茶", "category_id": "0100344", "time": [], "star": 0.0, "review": 0}, {"name": "港湾食堂", "address": "長崎県長崎市松が枝町7-29", "lat": 32.73537182835, "lon": 129.86696759937, "category": "定食屋", "category_id": "0101441", "time": [], "star": 3.0, "review": 1}, {"name": "トマト", "address": "長崎県長崎市新地町6-56", "lat": 32.740520444976, "lon": 129.87399619747, "category": "カフェ・喫茶", "category_id": "0100344", "time": [], "star": 3.63, "review": 4}, {"name": "ビアンモール", "address": "長崎県長崎市新地町6-39 長崎みなとメディカルセンター市民病院 1F", "lat": 32.739447237433, "lon": 129.87231736161, "category": "カフェ・喫茶", "category_id": "0100344", "time": [], "star": 0.0, "review": 1}, {"name": "グラバーズビアガーデン", "address": "長崎県長崎市南山手町8-1 グラバー園", "lat": 32.737165352958, "lon": 129.87312510541, "category": "洋食店", "category_id": "0100129", "time": ["17:00-21:00"], "star": 3.5, "review": 1}, {"name": "レストラン パヴェ", "address": "長崎県長崎市南山手町1-18", "lat": 32.7357227, "lon": 129.870045, "category": "レストラン", "category_id": "0100111", "time": ["06:00-10:00", "11:30-15:00", "17:30-21:00"], "star": 3.95, "review": 28}, {"name": "ビル&ベン", "address": "長崎県長崎市下町5-1", "lat": 32.7338738, "lon": 129.8728533, "category": "コーヒー店", "category_id": "0100496", "time": [], "star": 4.78, "review": 8}, {"name": "旧自由亭", "address": "長崎県長崎市南山手町8-1 グラバー園内", "lat": 32.733814, "lon": 129.869387, "category": "飲食店", "category_id": "0102732", "time": [], "star": 0.0, "review": 2}, {"name": "グラバーカフェ", "address": "長崎県長崎市南山手町8-1 グラバー園", "lat": 32.73359363, "lon": 129.86906383, "category": "カフェ・喫茶", "category_id": "0100344", "time": ["10:00-17:00"], "star": 4.13, "review": 26}, {"name": "丘の上のコーヒー館 耕美庵", "address": "長崎県長崎市東琴平2-3-19", "lat": 32.73135997, "lon": 129.86897585, "category": "カフェ・喫茶", "category_id": "0100344", "time": [], "star": 4.2, "review": 1}, {"name": "ドリーミン", "address": "長崎県長崎市新地町12-10", "lat": 32.74085557, "lon": 129.87520043, "category": "飲食店", "category_id": "0102732", "time": [], "star": 0.0, "review": 0}, {"name": "レッケル", "address": "長崎県長崎市松が枝町3-7 1F", "lat": 32.73589923663, "lon": 129.87062646041, "category": "カフェ・喫茶", "category_id": "0100344", "time": ["11:00-20:00"], "star": 3.93, "review": 46}, {"name": "カフェレストランKIZUNA", "address": "長崎県長崎市南山手4-28ヴィラ・コモン南山手 1F", "lat": 32.735035, "lon": 129.868585, "category": "カフェ・喫茶", "category_id": "0100344", "time": ["11:30-16:00"], "star": 4.19, "review": 25}, {"name": "お好み焼き 銀座", "address": "長崎県長崎市籠町5-18", "lat": 32.740217566588, "lon": 129.87535808404, "category": "お好み焼き店", "category_id": "0100046", "time": [], "star": 0.0, "review": 0}, {"name": "中華料理 四海樓", "address": "長崎県長崎市松が枝町4-5", "lat": 32.7364392, "lon": 129.8698148, "category": "中華料理店", "category_id": "0100990", "time": ["11:30-15:00", "17:00-20:00"], "star": 4.03, "review": 316}, {"name": "東山手 地球館", "address": "長崎県長崎市東山手町6-25", "lat": 32.735495, "lon": 129.8732896, "category": "カフェ・喫茶", "category_id": "0100344", "time": ["11:00-16:00", "17:00-20:00"], "star": 3.36, "review": 6}], "カフェ": [{"name": "THE Green & Belle", "address": "長崎県長崎市南山手町1-18 ANAクラウンプラザホテル長崎 1F", "lat": 32.735857377435, "lon": 129.86988959157, "category": "カフェ・喫茶", "category_id": "0100344", "time": ["10:00-22:00"], "star": 3.6, "review": 1}, {"name": "グラバーカフェ", "address": "長崎県長崎市南山手町8-1 グラバー園", "lat": 32.73359363, "lon": 129.86906383, "category": "カフェ・喫茶", "category_id": "0100344", "time": ["10:00-17:00"], "star": 4.13, "review": 26}, {"name": "丘の上のコーヒー館 耕美庵", "address": "長崎県長崎市東琴平2-3-19", "lat": 32.73135997, "lon": 129.86897585, "category": "カフェ・喫茶", "category_id": "0100344", "time": [], "star": 4.2, "review": 1}, {"name": "カフェレストランKIZUNA", "address": "長崎県長崎市南山手4-28ヴィラ・コモン南山手 1F", "lat": 32.735035, "lon": 129.868585, "category": "カフェ・喫茶", "category_id": "0100344", "time": ["11:30-16:00"], "star": 4.19, "review": 25}, {"name": "レッケル", "address": "長崎県長崎市松が枝町3-7 1F", "lat": 32.73589923663, "lon": 129.87062646041, "category": "カフェ・喫茶", "category_id": "0100344", "time": ["11:00-20:00"], "star": 3.93, "review": 46}, {"name": "サウダーデ", "address": "長崎県長崎市大浦町1-22 ホテルモントレ長崎 1F", "lat": 32.737850137434, "lon": 129.87145636159, "category": "カフェ・喫茶", "category_id": "0100344", "time": ["10:00-19:00"], "star": 0.0, "review": 0}, {"name": "ブリックカフェ", "address": "長崎県長崎市南山手町2-33 長崎オルゴール館 1F", "lat": 32.7359256854, "lon": 129.86955321827, "category": "カフェ・喫茶", "category_id": "0100344", "time": [], "star": 0.0, "review": 0}, {"name": "ビル&ベン", "address": "長崎県長崎市下町5-1", "lat": 32.7338738, "lon": 129.8728533, "category": "コーヒー店", "category_id": "0100496", "time": [], "star": 4.78, "review": 8}, {"name": "トマト", "address": "長崎県長崎市新地町6-56", "lat": 32.740520444976, "lon": 129.87399619747, "category": "カフェ・喫茶", "category_id": "0100344", "time": [], "star": 3.63, "review": 4}, {"name": "ラウンジ トレビ", "address": "長崎県長崎市南山手町1-18 ANAクラウンプラザホテル長崎グラバーヒル 1F", "lat": 32.735790767435, "lon": 129.87004498157, "category": "ホテルラウンジ", "category_id": "0100003", "time": ["10:00-24:00"], "star": 3.43, "review": 8}, {"name": "ビアンモール", "address": "長崎県長崎市新地町6-39 長崎みなとメディカルセンター市民病院 1F", "lat": 32.739447237433, "lon": 129.87231736161, "category": "カフェ・喫茶", "category_id": "0100344", "time": [], "star": 0.0, "review": 1}, {"name": "葉山珈琲 長崎オランダ通り店", "address": "長崎県長崎市大浦5-42", "lat": 32.73794273, "lon": 129.87186463, "category": "コーヒー店", "category_id": "0100496", "time": ["08:00-18:00"], "star": 4.19, "review": 74}, {"name": "cafe X", "address": "長崎県長崎市松が枝町5-6", "lat": 32.736000817435, "lon": 129.86924145157, "category": "カフェ・喫茶", "category_id": "0100344", "time": ["09:00-17:00"], "star": 3.79, "review": 13}, {"name": "プチコアンカフェ", "address": "長崎県長崎市松が枝町3-6 池森ビル", "lat": 32.735979427435, "lon": 129.87055741157, "category": "カフェ・喫茶", "category_id": "0100344", "time": ["11:00-18:00"], "star": 3.87, "review": 5}, {"name": "グラバーズビアガーデン", "address": "長崎県長崎市南山手町8-1 グラバー園", "lat": 32.737165352958, "lon": 129.87312510541, "category": "洋食店", "category_id": "0100129", "time": ["17:00-21:00"], "star": 3.5, "review": 1}, {"name": "南山手8番館", "address": "長崎県長崎市南山手4-3", "lat": 32.73510042, "lon": 129.86912628, "category": "カフェ・喫茶", "category_id": "0100344", "time": ["10:00-17:30"], "star": 3.84, "review": 16}, {"name": "ファイブクローバーズ", "address": "長崎県長崎市南山手町4-39 センターヴィレッジビル 1F", "lat": 32.73474543663, "lon": 129.8694850604, "category": "カフェ・喫茶", "category_id": "0100344", "time": ["11:00-18:00"], "star": 3.83, "review": 2}, {"name": "東山手 地球館", "address": "長崎県長崎市東山手町6-25", "lat": 32.735495, "lon": 129.8732896, "category": "カフェ・喫茶", "category_id": "0100344", "time": ["11:00-16:00", "17:00-20:00"], "star": 3.36, "review": 6}, {"name": "長崎県美術館カフェ", "address": "長崎県長崎市出島町2番1号", "lat": 32.741733827432, "lon": 129.87075854163, "category": "カフェ・喫茶", "category_id": "0100344", "time": ["10:00-20:00"], "star": 3.93, "review": 50}, {"name": "カルペ ディエム カフェ", "address": "長崎県長崎市南山手町1-4 第2オーチ東山手", "lat": 32.738959884680625, "lon": 129.8724806560647, "category": "カフェ・喫茶", "category_id": "0100344", "time": ["12:00-24:00"], "star": 4.6, "review": 5}], "ドラッグストア": [{"name": "コスモス薬局", "address": "長崎県長崎市松が枝町3-19", "lat": 32.7350202, "lon": 129.8712982, "category": "調剤薬局", "category_id": "0202315", "time": [], "star": 0.0, "review": 1}, {"name": "大浦中央調剤薬局", "address": "長崎県長崎市相生町2-2", "lat": 32.7341165, "lon": 129.8723842, "category": "調剤薬局", "category_id": "0202315", "time": ["09:00-18:00"], "star": 0.0, "review": 0}, {"name": "にこにこ薬局", "address": "長崎県長崎市大浦町8-30", "lat": 32.73594293, "lon": 129.87143555, "category": "調剤薬局", "category_id": "0202315", "time": [], "star": 0.0, "review": 0}, {"name": "ドレミ薬品 大浦店", "address": "長崎県長崎市相生町1-17", "lat": 32.73461151123047, "lon": 129.8719482421875, "category": "調剤薬局", "category_id": "0202315", "time": ["09:00-20:00"], "star": 0.0, "review": 0}, {"name": "たんぽぽ薬局", "address": "長崎県長崎市大浦町9-31", "lat": 32.73488235473633, "lon": 129.87216186523438, "category": "調剤薬局", "category_id": "0202315", "time": [], "star": 0.0, "review": 0}, {"name": "つりがね堂薬局", "address": "長崎県長崎市新地町11-11", "lat": 32.74097499, "lon": 129.87500349, "category": "調剤薬局", "category_id": "0202315", "time": ["09:00-18:00"], "star": 4.33, "review": 1}, {"name": "オランダ坂薬局", "address": "長崎県長崎市大浦町9-18", "lat": 32.73445703, "lon": 129.87267995, "category": "調剤薬局", "category_id": "0202315", "time": [], "star": 0.0, "review": 0}, {"name": "アイン 長崎中央店", "address": "長崎県長崎市東山手町1-11", "lat": 32.7394379, "lon": 129.87290146, "category": "調剤薬局", "category_id": "0202315", "time": ["09:00-18:00"], "star": 4.0, "review": 0}, {"name": "日本調剤 長崎薬局", "address": "長崎県長崎市東山手町1-9 1F", "lat": 32.73934734, "lon": 129.87280897, "category": "調剤薬局", "category_id": "0202315", "time": ["09:00-18:00"], "star": 4.0, "review": 0}, {"name": "マキ薬局", "address": "長崎県長崎市籠町7-16", "lat": 32.73999818, "lon": 129.87631593, "category": "調剤薬局", "category_id": "0202315", "time": [], "star": 0.0, "review": 0}, {"name": "新生堂調剤薬局 ミナトパーク店", "address": "長崎県長崎市新地町8-16", "lat": 32.74124718, "lon": 129.87455601, "category": "調剤薬局", "category_id": "0202315", "time": ["08:30-18:00"], "star": 3.5, "review": 0}, {"name": "広馬場薬局", "address": "長崎県長崎市籠町2-35", "lat": 32.740129, "lon": 129.8761832, "category": "調剤薬局", "category_id": "0202315", "time": ["09:00-18:00"], "star": 0.0, "review": 0}, {"name": "天本愛命堂調剤薬局", "address": "長崎県長崎市新地町6-56", "lat": 32.74058777127, "lon": 129.87395052, "category": "調剤薬局", "category_id": "0202315", "time": [], "star": 2.0, "review": 1}, {"name": "リエール薬局", "address": "長崎県長崎市新地町12-8", "lat": 32.74097818, "lon": 129.87541183, "category": "調剤薬局", "category_id": "0202315", "time": ["08:30-18:00"], "star": 0.0, "review": 0}, {"name": "有限会社フジ調剤薬局", "address": "長崎県長崎市新地町4-11", "lat": 32.74102783203125, "lon": 129.87388610839844, "category": "調剤薬局", "category_id": "0202315", "time": ["09:00-18:00"], "star": 0.0, "review": 0}, {"name": "ペンギン薬局", "address": "長崎県長崎市中小島2丁目4-28", "lat": 32.73707962036133, "lon": 129.8801727294922, "category": "調剤薬局", "category_id": "0202315", "time": [], "star": 0.0, "review": 0}, {"name": "出島薬局", "address": "長崎県長崎市新地町5-4", "lat": 32.74085596, "lon": 129.87355627, "category": "調剤薬局", "category_id": "0202315", "time": [], "star": 0.0, "review": 0}, {"name": "有限会社牧薬品 経理部", "address": "長崎県長崎市籠町7-17", "lat": 32.7399504, "lon": 129.87649238, "category": "調剤薬局", "category_id": "0202315", "time": [], "star": 0.0, "review": 0}], "ATM": [{"name": "十八親和銀行 大浦支店", "address": "長崎県長崎市大浦町2-2", "lat": 32.73766273, "lon": 129.87096414, "category": "銀行", "category_id": "0402596", "time": ["09:00-11:30"], "star": 3.5, "review": 0}, {"name": "ゆうちょ銀行 長崎小曽根郵便局", "address": "長崎県長崎市小曽根町1-32", "lat": 32.7343068, "lon": 129.867643, "category": "銀行", "category_id": "0402596", "time": [], "star": 3.8, "review": 2}, {"name": "十八親和銀行 大浦中央支店", "address": "長崎県長崎市大浦町2-2", "lat": 32.737666, "lon": 129.870943, "category": "銀行", "category_id": "0402596", "time": ["09:00-11:30"], "star": 3.5, "review": 1}, {"name": "十八親和銀行 ATM 長崎大浦郵便局", "address": "長崎県長崎市大浦東町1-28", "lat": 32.7329736, "lon": 129.873072, "category": "ATM", "category_id": "0402785", "time": [], "star": 0.0, "review": 0}, {"name": "ゆうちょ銀行 ATM 長崎大浦郵便局", "address": "長崎県長崎市大浦東町1-28", "lat": 32.7329905, "lon": 129.873103, "category": "ATM", "category_id": "0402785", "time": [], "star": 0.0, "review": 0}, {"name": "JAバンク ATM 長崎西彼農業協同組合(JA長崎せいひ)大浦ATMコーナー", "address": "長崎県長崎市大浦東町2-12", "lat": 32.7325811, "lon": 129.873335, "category": "ATM", "category_id": "0402785", "time": [], "star": 0.0, "review": 0}, {"name": "銀行ATM イーネット ファミリーマート長崎グラバー通り 共同出張所", "address": "長崎県長崎市南山手町2-33 ", "lat": 32.735875, "lon": 129.869494, "category": "ATM", "category_id": "0402785", "time": ["00:00-24:00"], "star": 0.0, "review": 0}, {"name": "ゆうちょ銀行 長崎大浦郵便局", "address": "長崎県長崎市大浦東町1-28", "lat": 32.7329905, "lon": 129.873103, "category": "銀行", "category_id": "0402596", "time": [], "star": 0.0, "review": 0}, {"name": "ゆうちょ銀行 ATM 長崎小曽根郵便局", "address": "長崎県長崎市小曽根町1-32", "lat": 32.7343068, "lon": 129.867643, "category": "ATM", "category_id": "0402785", "time": [], "star": 0.0, "review": 0}, {"name": "ゆうちょ銀行 長崎梅香崎郵便局", "address": "長崎県長崎市梅香崎町1-3", "lat": 32.7401142, "lon": 129.875086, "category": "銀行", "category_id": "0402596", "time": [], "star": 4.33, "review": 0}, {"name": "セブン銀行 長崎大浦町店", "address": "長崎県長崎市大浦町3-19", "lat": 32.7362036, "lon": 129.871248, "category": "ATM", "category_id": "0402785", "time": ["00:00-24:00"], "star": 0.0, "review": 0}, {"name": "十八親和銀行 ATM 広馬場", "address": "長崎県長崎市籠町7-16", "lat": 32.7399733, "lon": 129.876315, "category": "ATM", "category_id": "0402785", "time": [], "star": 0.0, "review": 0}, {"name": "十八親和銀行 ATM 大浦中央支店", "address": "長崎県長崎市大浦町2-2", "lat": 32.737666, "lon": 129.870943, "category": "ATM", "category_id": "0402785", "time": [], "star": 0.0, "review": 0}, {"name": "JAバンクATM", "address": "長崎県長崎市大浦東町2-12", "lat": 32.73256614, "lon": 129.87332191, "category": "銀行", "category_id": "0402596", "time": [], "star": 0.0, "review": 0}, {"name": "十八銀行 大浦支店", "address": "長崎県長崎市大浦町9-24", "lat": 32.7345165, "lon": 129.8724729, "category": "銀行", "category_id": "0402596", "time": [], "star": 0.0, "review": 0}, {"name": "銀行ATM イーネット ファミリーマートメットライフ生命長崎ビル 共同出張所", "address": "長崎県長崎市常盤町1-1 ", "lat": 32.740307, "lon": 129.870849, "category": "ATM", "category_id": "0402785", "time": ["08:00-19:00"], "star": 3.5, "review": 0}, {"name": "十八親和銀行 ATM 長崎みなとメディカルセンター", "address": "長崎県長崎市新地町6", "lat": 32.7401489, "lon": 129.872705, "category": "ATM", "category_id": "0402785", "time": [], "star": 0.0, "review": 0}, {"name": "ゆうちょ銀行 ATM 長崎梅香崎郵便局", "address": "長崎県長崎市梅香崎町1-3", "lat": 32.7401142, "lon": 129.875086, "category": "ATM", "category_id": "0402785", "time": [], "star": 0.0, "review": 0}, {"name": "セブン銀行 長崎古河町店", "address": "長崎県長崎市古河町26-1", "lat": 32.7305673, "lon": 129.863305, "category": "ATM", "category_id": "0402785", "time": ["00:00-24:00"], "star": 0.0, "review": 0}, {"name": "セブン銀行 長崎梅香崎町店", "address": "長崎県長崎市梅香崎町2-11", "lat": 32.7401018, "lon": 129.874335, "category": "ATM", "category_id": "0402785", "time": ["00:00-24:00"], "star": 0.0, "review": 0}], "銭湯 温泉": [{"name": "松島湯", "address": "長崎県長崎市元町1-19", "lat": 32.73532729, "lon": 129.87580749, "category": "銭湯", "category_id": "0400578", "time": [], "star": 3.0, "review": 1}], "スーパーマーケット": [{"name": "ジョイフルサン 大浦店", "address": "長崎県長崎市相生町1-5", "lat": 32.7343312, "lon": 129.8720036, "category": "スーパー", "category_id": "0200612", "time": ["09:00-21:00"], "star": 3.41, "review": 65}]}, "top_restaurant": {"name": "ビル&ベン", "category": "コーヒー店", "star": 4.78, "review": 8}}, {"name": "いのつき", "name_en": "Inoysuki", "lat": 33.2826893, "lon": 129.6675474, "osm_id": 270860042, "operator": "", "railway": "station", "wikidata": "Q11259923", "wikipedia_tag": "ja:いのつき駅", "lines": ["松浦鉄道西九州線"], "pref": "長崎県", "wikipedia_text": "いのつき駅（いのつきえき）は、長崎県佐世保市江迎町猪調にある松浦鉄道西九州線の駅である。", "wikipedia_image": "https://upload.wikimedia.org/wikipedia/commons/4/46/Mr_inotsuki_station_2.jpg", "nearest_restaurant": {"name": "サンパーク吉井", "lat": 33.2653042, "lon": 129.6905145, "address": "長崎県佐世保市吉井町吉元453", "distance_m": 2880, "cuisine": ""}, "nearby_pois": {}}, {"name": "すえたちばな", "name_en": "Suetachibana", "lat": 33.31681, "lon": 129.6138311, "osm_id": 270857109, "operator": "", "railway": "station", "wikidata": "Q11269539", "wikipedia_tag": "ja:すえたちばな駅", "lines": ["松浦鉄道西九州線"], "pref": "長崎県", "wikipedia_text": "すえたちばな駅は、長崎県佐世保市江迎町末橘にある松浦鉄道西九州線の駅である。\n正式な駅名はひらがな書きの「すえたちばな」だが、駅名標は漢字書きの「末橘」も併記されている。", "wikipedia_image": "https://upload.wikimedia.org/wikipedia/commons/d/d6/Mr_suetachibana_station.jpg", "nearest_convenience": {"name": "セブン-イレブン", "lat": 33.352617, "lon": 129.5838288, "address": "", "distance_m": 4860, "brand": "7-ELEVEN"}, "nearest_restaurant": {"name": "", "lat": 33.3050698, "lon": 129.6194801, "address": "", "distance_m": 1407, "cuisine": ""}, "nearby_pois": {"コンビニ": [{"name": "ファミリーマート 佐世保江迎店", "address": "長崎県佐世保市江迎町埋立1-2", "lat": 33.3118825, "lon": 129.614899, "category": "コンビニ", "category_id": "0200487", "time": ["00:00-24:00"], "star": 4.55, "review": 2}], "ATM": [{"name": "銀行ATM イーネット ファミリーマート佐世保江迎 共同出張所", "address": "長崎県佐世保市江迎町埋立1-2 ", "lat": 33.31185473, "lon": 129.61493793, "category": "ATM", "category_id": "0402785", "time": ["00:00-24:00"], "star": 0.0, "review": 0}]}}, {"name": "たびら平戸口", "name_en": "Tabirahiratoguchi", "lat": 33.3626788, "lon": 129.5827639, "osm_id": 6050944591, "operator": "", "railway": "station", "wikidata": "Q7673072", "wikipedia_tag": "ja:たびら平戸口駅", "lines": ["松浦鉄道西九州線"], "pref": "長崎県", "nearby_bus_stops": [{"name": "平戸口駅", "lat": 33.362807, "lon": 129.582841, "distance_m": 16, "operator": ""}, {"name": "中瀬草原入口", "lat": 33.364322, "lon": 129.581268, "distance_m": 230, "operator": ""}], "wikipedia_text": "たびら平戸口駅（たびらひらどぐちえき）は、長崎県平戸市田平町山内免にある松浦鉄道西九州線の駅である。", "wikipedia_image": "https://upload.wikimedia.org/wikipedia/commons/3/3c/Tabira-Hiradoguchi_Station_20190103-4.jpg", "nearest_convenience": {"name": "セブン-イレブン", "lat": 33.352617, "lon": 129.5838288, "address": "", "distance_m": 1123, "brand": "7-ELEVEN"}, "nearest_restaurant": {"name": "", "lat": 33.3661719, "lon": 129.5530288, "address": "", "distance_m": 2789, "cuisine": "steak_house"}, "nearby_pois": {"コンビニ": [{"name": "セブンイレブン 平戸田平東", "address": "長崎県平戸市田平町山内免41-19", "lat": 33.3614401, "lon": 129.5857415, "category": "コンビニ", "category_id": "0200487", "time": ["00:00-24:00"], "star": 4.03, "review": 2}, {"name": "ビジネスホテルエル", "address": "長崎県平戸市田平町小手田免874-16", "lat": 33.36116601, "lon": 129.57740341, "category": "ビジネスホテル", "category_id": "0300758", "time": [], "star": 4.0, "review": 1}, {"name": "エレナ 田平店", "address": "長崎県平戸市田平町小手田免948-1", "lat": 33.3577795, "lon": 129.5789641, "category": "スーパー", "category_id": "0200612", "time": ["08:30-21:00"], "star": 3.98, "review": 30}], "ラーメン": [{"name": "あごだし極金ラーメン", "address": "長崎県平戸市田平町山内免345-15", "lat": 33.362808236944, "lon": 129.57742946811, "category": "ラーメン店", "category_id": "0100097", "time": [], "star": 0.0, "review": 0}, {"name": "だるま食堂", "address": "長崎県平戸市田平町山内免345-3", "lat": 33.36339487, "lon": 129.57799719, "category": "定食屋", "category_id": "0101441", "time": ["07:00-14:00"], "star": 3.71, "review": 15}], "飲食店": [{"name": "元祖 海鮮ちゃんぽん平戸 松浦鉄道たびら平戸口駅店", "address": "長崎県平戸市田平町山内免227-2", "lat": 33.362751361124, "lon": 129.58263474163, "category": "ちゃんぽん店", "category_id": "0100146", "time": [], "star": 0.0, "review": 1}, {"name": "WeCH", "address": "長崎県平戸市田平町山内免344-5 田平港バスターミナルビル 1F", "lat": 33.361907, "lon": 129.577406, "category": "カフェ・喫茶", "category_id": "0100344", "time": [], "star": 4.4, "review": 3}, {"name": "あったさよ!", "address": "長崎県平戸市田平町山内免345-15 平戸瀬戸市場", "lat": 33.362934145897, "lon": 129.57756709464, "category": "からあげ店", "category_id": "0100067", "time": [], "star": 0.0, "review": 0}, {"name": "NIMO CAFE", "address": "長崎県平戸市田平町山内免153-2", "lat": 33.359924254464, "lon": 129.58209933366, "category": "飲食店", "category_id": "0102732", "time": [], "star": 4.88, "review": 2}, {"name": "お食事の店萬福", "address": "長崎県平戸市田平町山内免344-2", "lat": 33.36255943, "lon": 129.57829832, "category": "定食屋", "category_id": "0101441", "time": ["11:00-16:00"], "star": 4.19, "review": 67}, {"name": "平戸瀬戸市場 レストラン", "address": "長崎県平戸市田平町山内免345-15 平戸瀬戸市場 2F", "lat": 33.362749836138, "lon": 129.57753006695, "category": "定食屋", "category_id": "0101441", "time": ["11:00-17:00"], "star": 4.12, "review": 76}, {"name": "PEA BERRY", "address": "長崎県平戸市田平町山内免346-1", "lat": 33.3632752, "lon": 129.578288, "category": "飲食店", "category_id": "0102732", "time": ["09:00-18:00"], "star": 4.5, "review": 1}, {"name": "あごだし極金ラーメン", "address": "長崎県平戸市田平町山内免345-15", "lat": 33.362808236944, "lon": 129.57742946811, "category": "ラーメン店", "category_id": "0100097", "time": [], "star": 0.0, "review": 0}, {"name": "西端夢浪漫 田平店", "address": "長崎県平戸市田平町山内免345-1", "lat": 33.36316352, "lon": 129.57786081, "category": "飲食店", "category_id": "0102732", "time": ["11:00-15:00", "17:00-22:00"], "star": 4.05, "review": 40}, {"name": "レストラン喫茶ぶらぶら", "address": "長崎県平戸市田平町小手田免843", "lat": 33.35772199, "lon": 129.57667083, "category": "レストラン", "category_id": "0100111", "time": ["09:00-20:00"], "star": 4.1, "review": 2}, {"name": "ゆめや", "address": "長崎県平戸市田平町山内免422-4", "lat": 33.362991026946, "lon": 129.58441129811, "category": "居酒屋", "category_id": "0101495", "time": ["18:00-23:00"], "star": 3.9, "review": 3}, {"name": "だるま食堂", "address": "長崎県平戸市田平町山内免345-3", "lat": 33.36339487, "lon": 129.57799719, "category": "定食屋", "category_id": "0101441", "time": ["07:00-14:00"], "star": 3.71, "review": 15}, {"name": "洋風居酒屋風風", "address": "長崎県平戸市田平町山内免313", "lat": 33.36231169, "lon": 129.5784575, "category": "居酒屋", "category_id": "0101495", "time": [], "star": 4.16, "review": 5}, {"name": "飯屋", "address": "長崎県平戸市田平町山内免186-8", "lat": 33.361478, "lon": 129.583321, "category": "居酒屋", "category_id": "0101495", "time": [], "star": 0.0, "review": 0}, {"name": "居酒屋 いちばん星", "address": "長崎県平戸市田平町山内免378-2", "lat": 33.36390646, "lon": 129.58068182, "category": "居酒屋", "category_id": "0101495", "time": [], "star": 3.7, "review": 1}, {"name": "RIDEAS Cafe GG", "address": "長崎県平戸市田平町小手田免848-6", "lat": 33.357755136947, "lon": 129.57661066806, "category": "カフェ・喫茶", "category_id": "0100344", "time": [], "star": 3.5, "review": 4}, {"name": "平戸瀬戸市場", "address": "長崎県平戸市田平町山内免345-15", "lat": 33.3627677, "lon": 129.5775167, "category": "市場・マーケット", "category_id": "0303082", "time": ["08:00-18:00"], "star": 4.26, "review": 83}, {"name": "菜の花", "address": "長崎県平戸市田平町山内免376-1", "lat": 33.36369566, "lon": 129.58014767, "category": "飲食店", "category_id": "0102732", "time": [], "star": 0.0, "review": 0}, {"name": "こじま鮨", "address": "長崎県平戸市田平町山内免285-1", "lat": 33.36255471, "lon": 129.57939191, "category": "寿司店", "category_id": "0100101", "time": [], "star": 3.6, "review": 5}, {"name": "えびすや", "address": "長崎県平戸市田平町山内免273", "lat": 33.3620387, "lon": 129.5798265, "category": "定食屋", "category_id": "0101441", "time": [], "star": 0.0, "review": 0}], "カフェ": [{"name": "WeCH", "address": "長崎県平戸市田平町山内免344-5 田平港バスターミナルビル 1F", "lat": 33.361907, "lon": 129.577406, "category": "カフェ・喫茶", "category_id": "0100344", "time": [], "star": 4.4, "review": 3}, {"name": "NIMO CAFE", "address": "長崎県平戸市田平町山内免153-2", "lat": 33.359924254464, "lon": 129.58209933366, "category": "飲食店", "category_id": "0102732", "time": [], "star": 4.88, "review": 2}, {"name": "PEA BERRY", "address": "長崎県平戸市田平町山内免346-1", "lat": 33.3632752, "lon": 129.578288, "category": "飲食店", "category_id": "0102732", "time": ["09:00-18:00"], "star": 4.5, "review": 1}, {"name": "RIDEAS Cafe GG", "address": "長崎県平戸市田平町小手田免848-6", "lat": 33.357755136947, "lon": 129.57661066806, "category": "カフェ・喫茶", "category_id": "0100344", "time": [], "star": 3.5, "review": 4}, {"name": "平戸瀬戸市場 レストラン", "address": "長崎県平戸市田平町山内免345-15 平戸瀬戸市場 2F", "lat": 33.362749836138, "lon": 129.57753006695, "category": "定食屋", "category_id": "0101441", "time": ["11:00-17:00"], "star": 4.12, "review": 76}, {"name": "レストラン喫茶ぶらぶら", "address": "長崎県平戸市田平町小手田免843", "lat": 33.35772199, "lon": 129.57667083, "category": "レストラン", "category_id": "0100111", "time": ["09:00-20:00"], "star": 4.1, "review": 2}], "ドラッグストア": [{"name": "田平薬局", "address": "長崎県平戸市田平町山内免413", "lat": 33.36327459, "lon": 129.58265595, "category": "調剤薬局", "category_id": "0202315", "time": ["08:30-21:00"], "star": 3.0, "review": 1}, {"name": "くすりの石橋", "address": "長崎県平戸市田平町山内免315", "lat": 33.3623464, "lon": 129.57861943, "category": "薬店", "category_id": "0202316", "time": [], "star": 3.0, "review": 1}, {"name": "石橋調剤薬局", "address": "長崎県平戸市田平町山内免609-3", "lat": 33.36402896, "lon": 129.57624722, "category": "調剤薬局", "category_id": "0202315", "time": [], "star": 0.0, "review": 0}], "ATM": [{"name": "十八親和銀行 田平支店", "address": "長崎県平戸市田平町山内免282", "lat": 33.36267969, "lon": 129.57951412, "category": "銀行", "category_id": "0402596", "time": [], "star": 4.0, "review": 0}, {"name": "ゆうちょ銀行 ATM 田平郵便局", "address": "長崎県平戸市田平町山内免463", "lat": 33.3641123, "lon": 129.583139, "category": "ATM", "category_id": "0402785", "time": [], "star": 0.0, "review": 0}, {"name": "十八親和銀行 ATM 田平支店", "address": "長崎県平戸市田平町山内免282", "lat": 33.3626722, "lon": 129.579505, "category": "ATM", "category_id": "0402785", "time": [], "star": 0.0, "review": 0}, {"name": "セブン銀行 平戸田平東店", "address": "長崎県平戸市田平町山内免41-19", "lat": 33.3614921, "lon": 129.585779, "category": "ATM", "category_id": "0402785", "time": ["00:00-24:00"], "star": 0.0, "review": 0}, {"name": "ゆうちょ銀行 田平郵便局", "address": "長崎県平戸市田平町山内免463", "lat": 33.3641123, "lon": 129.583139, "category": "銀行", "category_id": "0402596", "time": [], "star": 0.0, "review": 0}, {"name": "十八親和銀行ATM", "address": "長崎県平戸市田平町小手田免1240-1", "lat": 33.35479868, "lon": 129.58318221, "category": "銀行", "category_id": "0402596", "time": [], "star": 4.0, "review": 0}, {"name": "JAバンク ATM ながさき西海農業協同組合(JAながさき西海)田平 ATM コーナー", "address": "長崎県平戸市田平町里免133-1", "lat": 33.3594467, "lon": 129.590874, "category": "ATM", "category_id": "0402785", "time": [], "star": 0.0, "review": 0}, {"name": "宝くじ ATM 十八親和銀行田平支店", "address": "長崎県平戸市田平町山内免282", "lat": 33.3626711, "lon": 129.579504, "category": "宝くじ売り場", "category_id": "0401442", "time": ["08:00-21:00"], "star": 0.0, "review": 0}, {"name": "長崎信漁連 県北支店", "address": "長崎県平戸市田平町山内免344-5", "lat": 33.36277071, "lon": 129.57815573, "category": "信用組合", "category_id": "0401097", "time": [], "star": 0.0, "review": 0}], "スーパーマーケット": [{"name": "エレナ 田平店", "address": "長崎県平戸市田平町小手田免948-1", "lat": 33.3577795, "lon": 129.5789641, "category": "スーパー", "category_id": "0200612", "time": ["08:30-21:00"], "star": 3.98, "review": 30}, {"name": "かわいストアー", "address": "長崎県平戸市田平町山内免381-1", "lat": 33.36425364, "lon": 129.58074986, "category": "スーパー", "category_id": "0200612", "time": [], "star": 0.0, "review": 0}, {"name": "全日食チェーン FSマートアリーナ", "address": "長崎県平戸市田平町小手田免1240-1", "lat": 33.3548219, "lon": 129.583164, "category": "スーパー", "category_id": "0200612", "time": ["09:00-20:00"], "star": 4.23, "review": 4}, {"name": "全日食チェーン フレッシュマート里店", "address": "長崎県平戸市田平町里免131-1", "lat": 33.35919624, "lon": 129.59051108, "category": "スーパー", "category_id": "0200612", "time": ["09:30-19:00"], "star": 3.67, "review": 3}]}, "top_restaurant": {"name": "NIMO CAFE", "category": "飲食店", "star": 4.88, "review": 2}}, {"name": "めがね橋 (賑橋)", "name_en": "Meganebashi Bridge (Nigiwaibashi)", "lat": 32.7470452, "lon": 129.8785403, "osm_id": 1326681370, "operator": "", "railway": "tram_stop", "wikidata": "Q11635049", "wikipedia_tag": "ja:賑橋停留場", "lines": ["長崎電気軌道2号系統 (蛍茶屋 => 赤迫)", "長崎電気軌道4号系統 (蛍茶屋 => 崇福寺)", "長崎電気軌道5号系統 (蛍茶屋 => 石橋)"], "pref": "長崎県", "nearby_bus_stops": [{"name": "めがね橋", "lat": 32.746914, "lon": 129.8785096, "distance_m": 15, "operator": ""}, {"name": "めがね橋", "lat": 32.7469591, "lon": 129.8779232, "distance_m": 59, "operator": ""}, {"name": "めがね橋", "lat": 32.7471665, "lon": 129.8773109, "distance_m": 116, "operator": ""}, {"name": "長崎市役所", "lat": 32.7488183, "lon": 129.8803834, "distance_m": 262, "operator": ""}, {"name": "興善町", "lat": 32.748059, "lon": 129.8760161, "distance_m": 262, "operator": ""}], "nearest_convenience": {"name": "ローソン", "lat": 32.7505369, "lon": 129.8794853, "address": "", "distance_m": 398, "brand": "ローソン"}, "nearest_restaurant": {"name": "勝鹿", "lat": 32.7455218, "lon": 129.8794112, "address": "", "distance_m": 188, "cuisine": ""}, "nearby_pois": {"コンビニ": [{"name": "セブンイレブン 長崎栄町", "address": "長崎県長崎市栄町4-20", "lat": 32.7470272, "lon": 129.8779861, "category": "コンビニ", "category_id": "0200487", "time": ["00:00-24:00"], "star": 4.03, "review": 30}, {"name": "セブンイレブン 長崎万屋町", "address": "長崎県長崎市万屋町6-5", "lat": 32.7454607, "lon": 129.8796222, "category": "コンビニ", "category_id": "0200487", "time": ["00:00-24:00"], "star": 4.74, "review": 169}, {"name": "ローソン 長崎賑町", "address": "長崎県長崎市賑町7-11", "lat": 32.7460745, "lon": 129.8768557, "category": "コンビニ", "category_id": "0200487", "time": ["00:00-24:00"], "star": 4.14, "review": 19}, {"name": "ローソン 長崎桜町", "address": "長崎県長崎市恵美須町4-5", "lat": 32.7504935, "lon": 129.8759084, "category": "コンビニ", "category_id": "0200487", "time": ["00:00-24:00"], "star": 4.12, "review": 18}, {"name": "デイリーヤマザキ 長崎興善町店", "address": "長崎県長崎市興善町4-2", "lat": 32.7480604, "lon": 129.8760696, "category": "コンビニ", "category_id": "0200487", "time": ["00:00-24:00"], "star": 4.17, "review": 6}, {"name": "セブンイレブン 長崎思案橋", "address": "長崎県長崎市本石灰町5-6", "lat": 32.7425277, "lon": 129.8797473, "category": "コンビニ", "category_id": "0200487", "time": ["00:00-24:00"], "star": 4.09, "review": 21}, {"name": "ローソン 出島", "address": "長崎県長崎市出島町5-3", "lat": 32.7432941, "lon": 129.8721173, "category": "コンビニ", "category_id": "0200487", "time": ["00:00-24:00"], "star": 4.12, "review": 26}, {"name": "セブンイレブン 長崎築町", "address": "長崎県長崎市築町5-7", "lat": 32.7450051, "lon": 129.8758947, "category": "コンビニ", "category_id": "0200487", "time": ["00:00-24:00"], "star": 3.9, "review": 35}, {"name": "ファミリーマート 長崎銀屋町店", "address": "長崎県長崎市銀屋町4-5", "lat": 32.7461273, "lon": 129.8803554, "category": "コンビニ", "category_id": "0200487", "time": ["00:00-24:00"], "star": 3.96, "review": 19}, {"name": "セブンイレブン 長崎麹屋町", "address": "長崎県長崎市麹屋町2-3", "lat": 32.7488799, "lon": 129.8827885, "category": "コンビニ", "category_id": "0200487", "time": ["00:00-24:00"], "star": 4.61, "review": 77}, {"name": "ローソン 長崎勝山町", "address": "長崎県長崎市勝山町37", "lat": 32.7513852, "lon": 129.8803247, "category": "コンビニ", "category_id": "0200487", "time": ["00:00-24:00"], "star": 4.22, "review": 13}, {"name": "セブンイレブン 長崎万才町", "address": "長崎県長崎市万才町2-12", "lat": 32.7475521, "lon": 129.8752808, "category": "コンビニ", "category_id": "0200487", "time": ["00:00-24:00"], "star": 3.74, "review": 34}, {"name": "ローソン 長崎桶屋町", "address": "長崎県長崎市桶屋町41", "lat": 32.7491465, "lon": 129.881658, "category": "コンビニ", "category_id": "0200487", "time": ["00:00-24:00"], "star": 4.26, "review": 41}, {"name": "ローソン 長崎大波止", "address": "長崎県長崎市元船町13-10", "lat": 32.7461522, "lon": 129.8719144, "category": "コンビニ", "category_id": "0200487", "time": ["00:00-24:00"], "star": 4.24, "review": 39}, {"name": "デイリーヤマザキ ニューヤマザキデイリーストア長崎市役所店", "address": "長崎県長崎市魚の町4-1", "lat": 32.7495159, "lon": 129.8798109, "category": "コンビニ", "category_id": "0200487", "time": [], "star": 3.17, "review": 12}, {"name": "セブンイレブン 長崎五島町", "address": "長崎県長崎市五島町2-29", "lat": 32.7503574, "lon": 129.8731503, "category": "コンビニ", "category_id": "0200487", "time": ["00:00-24:00"], "star": 4.41, "review": 39}, {"name": "ファミリーマート 長崎銅座町店", "address": "長崎県長崎市銅座町7-24", "lat": 32.7422277, "lon": 129.8762753, "category": "コンビニ", "category_id": "0200487", "time": ["00:00-24:00"], "star": 4.04, "review": 18}, {"name": "セブンイレブン 長崎西浜通り", "address": "長崎県長崎市銅座町6-20", "lat": 32.7431998, "lon": 129.8767836, "category": "コンビニ", "category_id": "0200487", "time": ["00:00-24:00"], "star": 3.76, "review": 16}, {"name": "ローソン 長崎中央郵便局前", "address": "長崎県長崎市大黒町9-22", "lat": 32.751785, "lon": 129.873303, "category": "コンビニ", "category_id": "0200487", "time": ["00:00-24:00"], "star": 4.15, "review": 24}, {"name": "ファミリーマート 長崎樺島町店", "address": "長崎県長崎市樺島町1-7", "lat": 32.7468882, "lon": 129.8726115, "category": "コンビニ", "category_id": "0200487", "time": ["00:00-24:00"], "star": 4.12, "review": 55}], "ラーメン": [{"name": "らーめん AWAGAI", "address": "長崎県長崎市浜町10-11 稲垣屋ビル 1F", "lat": 32.743121867197, "lon": 129.88018786872, "category": "ラーメン店", "category_id": "0100097", "time": [], "star": 0.0, "review": 1}, {"name": "天下無双 マルハチらーめん 桜町店", "address": "長崎県長崎市桜町1-4 鶴洋ビル1F", "lat": 32.750430041851, "lon": 129.87670417876, "category": "ラーメン店", "category_id": "0100097", "time": [], "star": 4.0, "review": 1}, {"name": "朝日屋", "address": "長崎県長崎市尾上町2", "lat": 32.750572345544, "lon": 129.87122213184, "category": "ラーメン店", "category_id": "0100097", "time": [], "star": 3.2, "review": 3}, {"name": "味噌らぁめん きりゅう", "address": "長崎県長崎市栄町1-2 尾上ビル 1F", "lat": 32.747561136624, "lon": 129.87697186052, "category": "ラーメン店", "category_id": "0100097", "time": ["11:00-14:00"], "star": 3.82, "review": 22}, {"name": "BABAKE", "address": "長崎県長崎市江戸町6-13", "lat": 32.744282317431, "lon": 129.87500183165, "category": "ラーメン店", "category_id": "0100097", "time": ["11:30-14:00", "18:00-22:30"], "star": 4.1, "review": 69}, {"name": "らーめん柊 銅座本店", "address": "長崎県長崎市銅座町6-9", "lat": 32.743231736627, "lon": 129.87752306048, "category": "ラーメン店", "category_id": "0100097", "time": ["11:00-29:00"], "star": 4.03, "review": 117}, {"name": "クワイ", "address": "長崎県長崎市興善町4-16 荒木ビル 1F", "lat": 32.747828247429, "lon": 129.87619273169, "category": "ラーメン店", "category_id": "0100097", "time": ["11:30-14:00", "18:00-20:30"], "star": 3.85, "review": 22}, {"name": "BABAKE 興善町店", "address": "長崎県長崎市興善町8-15", "lat": 32.74767796, "lon": 129.87682981, "category": "ラーメン店", "category_id": "0100097", "time": ["11:30-14:00", "17:30-21:30"], "star": 4.01, "review": 60}, {"name": "麺也オールウェイズ", "address": "長崎県長崎市万屋町5-22", "lat": 32.744192527433, "lon": 129.88032879165, "category": "ラーメン店", "category_id": "0100097", "time": ["11:00-22:00"], "star": 3.96, "review": 85}, {"name": "天龍", "address": "長崎県長崎市銅座町7-24", "lat": 32.742214732378, "lon": 129.87628413128, "category": "ラーメン店", "category_id": "0100097", "time": [], "star": 0.0, "review": 0}, {"name": "かどや", "address": "長崎県長崎市浜町6-23 YBビル 1F", "lat": 32.743227637433, "lon": 129.87863356164, "category": "ラーメン店", "category_id": "0100097", "time": ["11:00-27:00"], "star": 4.13, "review": 70}, {"name": "三八ラーメン 銅座店", "address": "長崎県長崎市銅座町14-11", "lat": 32.74286595, "lon": 129.87836125, "category": "ラーメン店", "category_id": "0100097", "time": ["11:00-14:30", "18:00-26:00"], "star": 3.71, "review": 39}, {"name": "家庭料理居酒屋 たんぽぽ", "address": "長崎県長崎市江戸町1-12 梅屋ビル 1階", "lat": 32.74491026743, "lon": 129.87238268166, "category": "居酒屋", "category_id": "0101495", "time": ["17:00-22:00"], "star": 3.9, "review": 2}, {"name": "思案橋ラーメン", "address": "長崎県長崎市浜町6-17", "lat": 32.743098137433, "lon": 129.87923942164, "category": "ラーメン店", "category_id": "0100097", "time": ["11:00-25:30"], "star": 3.54, "review": 251}, {"name": "中華軽食 三八 浜町店", "address": "長崎県長崎市浜町9-18", "lat": 32.743232157433, "lon": 129.87908485164, "category": "ラーメン店", "category_id": "0100097", "time": ["11:00-21:00"], "star": 3.89, "review": 42}, {"name": "麺や一番 ゆめタウン夢彩都店", "address": "長崎県長崎市元船町10-1 ゆめタウン夢彩都 B1F", "lat": 32.74627710217, "lon": 129.87003549803, "category": "ラーメン店", "category_id": "0100097", "time": ["10:00-20:30"], "star": 3.35, "review": 2}, {"name": "中華そば 佐々木麺之介", "address": "長崎県長崎市浜町8-20 きむらやビル2F", "lat": 32.74393862, "lon": 129.87972223, "category": "飲食店", "category_id": "0102732", "time": [], "star": 4.39, "review": 7}, {"name": "金龍", "address": "長崎県長崎市金屋町9-12", "lat": 32.75007579, "lon": 129.87594923, "category": "ラーメン店", "category_id": "0100097", "time": ["11:00-21:00"], "star": 3.45, "review": 21}, {"name": "コバチラーメン店", "address": "長崎県長崎市銅座町15-16", "lat": 32.74248183, "lon": 129.87823322, "category": "ラーメン店", "category_id": "0100097", "time": ["18:00-27:00"], "star": 3.46, "review": 23}, {"name": "ラーメン亭長崎", "address": "長崎県長崎市浜町11-15", "lat": 32.743249517469, "lon": 129.88025158926, "category": "飲食店", "category_id": "0102732", "time": [], "star": 3.83, "review": 1}], "飲食店": [{"name": "カフェ・ソレイユ", "address": "長崎県長崎市諏訪町5-11", "lat": 32.747631, "lon": 129.881929, "category": "カフェ・喫茶", "category_id": "0100344", "time": [], "star": 4.8, "review": 4}, {"name": "ノスドール", "address": "長崎県長崎市古川町8-7", "lat": 32.746592887432, "lon": 129.88086249167, "category": "カフェ・喫茶", "category_id": "0100344", "time": [], "star": 3.77, "review": 5}, {"name": "カフェ・エニイ", "address": "長崎県長崎市栄町4-9", "lat": 32.74741136743, "lon": 129.87816942168, "category": "カフェ・喫茶", "category_id": "0100344", "time": [], "star": 2.03, "review": 3}, {"name": "旬彩房 菜魚", "address": "長崎県長崎市東古川町3-22", "lat": 32.745800217432, "lon": 129.88023013166, "category": "居酒屋", "category_id": "0101495", "time": ["18:00-22:00"], "star": 4.0, "review": 17}, {"name": "串揚げ 七瀬", "address": "長崎県長崎市鍛冶屋町6-55", "lat": 32.743636657434, "lon": 129.88094761164, "category": "串揚げ店", "category_id": "0101000", "time": ["18:00-22:00"], "star": 4.33, "review": 13}, {"name": "ソムパテ", "address": "長崎県長崎市浜町11-2", "lat": 32.743672368614, "lon": 129.87987737161, "category": "バー", "category_id": "0100536", "time": [], "star": 3.92, "review": 2}, {"name": "ちょこっとBar・モリヤマ", "address": "長崎県長崎市賑町3-9", "lat": 32.74634398743, "lon": 129.87651300167, "category": "立ち飲み店", "category_id": "0102815", "time": ["17:00-21:30"], "star": 3.86, "review": 13}, {"name": "炭火串焼 もりや めがね橋店", "address": "長崎県長崎市古川町5-4", "lat": 32.7464305, "lon": 129.8792975, "category": "焼き鳥店", "category_id": "0101960", "time": [], "star": 4.5, "review": 0}, {"name": "吉宗 観光通り店", "address": "長崎県長崎市浜町8-3", "lat": 32.744573617432, "lon": 129.87860876165, "category": "和食店", "category_id": "0100126", "time": ["10:30-20:00"], "star": 3.92, "review": 19}, {"name": "梅家", "address": "長崎県長崎市船大工町5-30 こがねビル 1F", "lat": 32.741349927434, "lon": 129.87798681162, "category": "居酒屋", "category_id": "0101495", "time": ["18:00-24:00"], "star": 4.23, "review": 16}, {"name": "ゆるり～うちごはん", "address": "長崎県長崎市銅座町13-6 1F", "lat": 32.742792927433, "lon": 129.87797930164, "category": "レストラン", "category_id": "0100111", "time": ["18:00-23:00"], "star": 4.63, "review": 2}, {"name": "ネロ・ウルフ", "address": "長崎県長崎市万才町1-9", "lat": 32.747395368897, "lon": 129.87467958149, "category": "カフェ・喫茶", "category_id": "0100344", "time": [], "star": 3.8, "review": 8}, {"name": "ワイン食堂 コクレ", "address": "長崎県長崎市魚の町7-7 1F", "lat": 32.748141636625, "lon": 129.87984786053, "category": "ワインバー", "category_id": "0100954", "time": [], "star": 4.1, "review": 6}, {"name": "なかむら", "address": "長崎県長崎市浜町8-4", "lat": 32.744454147432, "lon": 129.87850536165, "category": "カフェ・喫茶", "category_id": "0100344", "time": ["10:30-16:00"], "star": 3.8, "review": 13}, {"name": "韓国料理 MOMO", "address": "長崎県長崎市築町3-18地下1階", "lat": 32.74562452, "lon": 129.87604466, "category": "居酒屋", "category_id": "0101495", "time": ["14:00-23:00"], "star": 0.0, "review": 0}, {"name": "カフェ&レストラン", "address": "長崎県長崎市新地町13-10", "lat": 32.741555437433, "lon": 129.87587266162, "category": "洋食店", "category_id": "0100129", "time": ["07:00-10:00", "11:30-22:00"], "star": 4.57, "review": 3}, {"name": "思案橋 宝雲亭", "address": "長崎県長崎市本石灰町1-8", "lat": 32.742745807434, "lon": 129.87957051163, "category": "餃子店", "category_id": "0102733", "time": ["17:30-23:30"], "star": 3.92, "review": 31}, {"name": "Ruby Jewelry Cafe", "address": "長崎県長崎市魚の町6-15 中島川パークサイドビル 1F", "lat": 32.748169107431, "lon": 129.88096909169, "category": "カフェ・喫茶", "category_id": "0100344", "time": ["10:30-18:30"], "star": 3.9, "review": 1}, {"name": "居酒屋Goheita", "address": "長崎県長崎市浜町3-10", "lat": 32.7450306, "lon": 129.8780671, "category": "居酒屋", "category_id": "0101495", "time": [], "star": 4.5, "review": 2}, {"name": "ルパン", "address": "長崎県長崎市桜町1-1", "lat": 32.750350942186, "lon": 129.87647172038, "category": "カフェ・喫茶", "category_id": "0100344", "time": ["11:00-16:00"], "star": 3.92, "review": 14}], "カフェ": [{"name": "ノスドール", "address": "長崎県長崎市古川町8-7", "lat": 32.746592887432, "lon": 129.88086249167, "category": "カフェ・喫茶", "category_id": "0100344", "time": [], "star": 3.77, "review": 5}, {"name": "カフェ・ソレイユ", "address": "長崎県長崎市諏訪町5-11", "lat": 32.747631, "lon": 129.881929, "category": "カフェ・喫茶", "category_id": "0100344", "time": [], "star": 4.8, "review": 4}, {"name": "カフェ&レストラン", "address": "長崎県長崎市新地町13-10", "lat": 32.741555437433, "lon": 129.87587266162, "category": "洋食店", "category_id": "0100129", "time": ["07:00-10:00", "11:30-22:00"], "star": 4.57, "review": 3}, {"name": "カフェ・エニイ", "address": "長崎県長崎市栄町4-9", "lat": 32.74741136743, "lon": 129.87816942168, "category": "カフェ・喫茶", "category_id": "0100344", "time": [], "star": 2.03, "review": 3}, {"name": "ネロ・ウルフ", "address": "長崎県長崎市万才町1-9", "lat": 32.747395368897, "lon": 129.87467958149, "category": "カフェ・喫茶", "category_id": "0100344", "time": [], "star": 3.8, "review": 8}, {"name": "なかむら", "address": "長崎県長崎市浜町8-4", "lat": 32.744454147432, "lon": 129.87850536165, "category": "カフェ・喫茶", "category_id": "0100344", "time": ["10:30-16:00"], "star": 3.8, "review": 13}, {"name": "Ruby Jewelry Cafe", "address": "長崎県長崎市魚の町6-15 中島川パークサイドビル 1F", "lat": 32.748169107431, "lon": 129.88096909169, "category": "カフェ・喫茶", "category_id": "0100344", "time": ["10:30-18:30"], "star": 3.9, "review": 1}, {"name": "ルパン", "address": "長崎県長崎市桜町1-1", "lat": 32.750350942186, "lon": 129.87647172038, "category": "カフェ・喫茶", "category_id": "0100344", "time": ["11:00-16:00"], "star": 3.92, "review": 14}, {"name": "AGRI+ カフェ", "address": "長崎県長崎市元船町5-27", "lat": 32.749239809358, "lon": 129.87201660737, "category": "カフェ・喫茶", "category_id": "0100344", "time": [], "star": 4.28, "review": 7}, {"name": "カフェ&バル さくら亭", "address": "長崎県長崎市鍛冶屋町2-3", "lat": 32.7443322, "lon": 129.8805576, "category": "カフェ・喫茶", "category_id": "0100344", "time": [], "star": 4.13, "review": 5}, {"name": "カフェ モンレーヴ プチ", "address": "長崎県長崎市万屋町5-9 セントラルビル 5F", "lat": 32.744941097432, "lon": 129.87928461166, "category": "スイーツ店", "category_id": "0100534", "time": ["11:00-19:00"], "star": 4.27, "review": 12}, {"name": "トニーアンドクロエ", "address": "長崎県長崎市浜町2-17 1F", "lat": 32.745261836626, "lon": 129.8778228605, "category": "カフェ・喫茶", "category_id": "0100344", "time": ["12:00-23:00"], "star": 3.99, "review": 18}, {"name": "南蛮茶屋", "address": "長崎県長崎市古川町5-9", "lat": 32.74616895, "lon": 129.87951161, "category": "カフェ・喫茶", "category_id": "0100344", "time": ["11:00-23:00"], "star": 4.07, "review": 22}, {"name": "喫茶ルミネ", "address": "長崎県長崎市魚の町3-4", "lat": 32.7493149, "lon": 129.878935, "category": "カフェ・喫茶", "category_id": "0100344", "time": [], "star": 4.0, "review": 1}, {"name": "cafe Smoky", "address": "長崎県長崎市浜町2-20 2番街ビル2F", "lat": 32.7450691, "lon": 129.8779554, "category": "カフェ・喫茶", "category_id": "0100344", "time": [], "star": 0.0, "review": 0}, {"name": "HUTTE310", "address": "長崎県長崎市賑町6-9 2F", "lat": 32.746605167431, "lon": 129.87756096167, "category": "カフェ・喫茶", "category_id": "0100344", "time": ["11:30-14:00", "18:00-21:00"], "star": 4.1, "review": 2}, {"name": "キートス", "address": "長崎県長崎市諏訪町6-21-2F", "lat": 32.746761, "lon": 129.880886, "category": "カフェ・喫茶", "category_id": "0100344", "time": [], "star": 0.0, "review": 0}, {"name": "サニーバード", "address": "長崎県長崎市江戸町5-3 1F", "lat": 32.744362402066, "lon": 129.87547985626, "category": "カフェ・喫茶", "category_id": "0100344", "time": ["11:00-23:59"], "star": 0.0, "review": 0}, {"name": "grace3", "address": "長崎県長崎市築町1-14 野口ビル 1F", "lat": 32.744925537431, "lon": 129.87551516166, "category": "カフェ・喫茶", "category_id": "0100344", "time": ["11:00-22:00"], "star": 3.5, "review": 1}, {"name": "カフェ サザン", "address": "長崎県長崎市今博多町9 サザンパレスII", "lat": 32.750851927429, "lon": 129.88189711171, "category": "カフェ・喫茶", "category_id": "0100344", "time": ["09:30-17:00"], "star": 3.7, "review": 1}], "ドラッグストア": [{"name": "ココカラファイン 万屋町店", "address": "長崎県長崎市万屋町6-5", "lat": 32.74544679, "lon": 129.87953608, "category": "ドラッグストア", "category_id": "0200699", "time": ["09:00-21:00"], "star": 4.29, "review": 6}, {"name": "サンドラッグ浜町店", "address": "長崎県長崎市浜町1-9 今井ビル１Ｆ", "lat": 32.74442742, "lon": 129.87699741, "category": "ドラッグストア", "category_id": "0200699", "time": ["09:30-21:00"], "star": 4.34, "review": 191}, {"name": "ココカラファイン 浜の町中央店", "address": "長崎県長崎市浜町8-37", "lat": 32.74410804, "lon": 129.87871397, "category": "ドラッグストア", "category_id": "0200699", "time": ["09:00-21:00"], "star": 3.64, "review": 12}, {"name": "マツモトキヨシ 薬 浜の町店", "address": "長崎県長崎市浜町4-9", "lat": 32.7440414, "lon": 129.8777224, "category": "ドラッグストア", "category_id": "0200699", "time": ["09:00-22:00"], "star": 3.94, "review": 78}, {"name": "サンドラッグ ＣＡＲＥＲ浜町店", "address": "長崎県長崎市浜町２－３４　１Ｆ", "lat": 32.74506069, "lon": 129.87754457, "category": "ドラッグストア", "category_id": "0200699", "time": ["09:00-21:00"], "star": 3.75, "review": 0}, {"name": "マツモトキヨシ ドラッグストア 出島店", "address": "長崎県長崎市出島町14-7", "lat": 32.7421082, "lon": 129.8741032, "category": "ドラッグストア", "category_id": "0200699", "time": ["09:00-22:00"], "star": 4.29, "review": 37}, {"name": "ココカラファイン 銅座町店", "address": "長崎県長崎市銅座町3-12 1F", "lat": 32.74311644, "lon": 129.87580309, "category": "ドラッグストア", "category_id": "0200699", "time": ["09:00-22:00"], "star": 4.35, "review": 58}, {"name": "コクミンドラッグ 銅座町店", "address": "長崎県長崎市銅座町５ー７", "lat": 32.74338865, "lon": 129.8766364, "category": "ドラッグストア", "category_id": "0200699", "time": ["09:00-21:00"], "star": 3.36, "review": 9}, {"name": "ココカラファイン 長崎アミュプラザ店", "address": "長崎県長崎市尾上町1-1 長崎アミュプラザ1F", "lat": 32.75167387, "lon": 129.87088933, "category": "ドラッグストア", "category_id": "0200699", "time": ["10:00-20:00"], "star": 4.0, "review": 12}, {"name": "ツルハドラッグ 大波止店", "address": "長崎県長崎市元船町14-41", "lat": 32.74567722, "lon": 129.87173943, "category": "ドラッグストア", "category_id": "0200699", "time": ["09:00-22:00"], "star": 4.5, "review": 0}, {"name": "ココカラファイン 新大工店", "address": "長崎県長崎市新大工町2-21 だるまやビル1F", "lat": 32.75311843, "lon": 129.8852686, "category": "ドラッグストア", "category_id": "0200699", "time": [], "star": 3.23, "review": 10}, {"name": "ココカラファイン薬局 万屋町店", "address": "長崎県長崎市万屋町6-5", "lat": 32.74544679, "lon": 129.87953608, "category": "調剤薬局", "category_id": "0202315", "time": ["09:00-19:30"], "star": 4.5, "review": 1}, {"name": "サンドラッグ ＣＡＲＥＲ浜町薬局店", "address": "長崎県長崎市浜町２－３４　１Ｆ", "lat": 32.74506069, "lon": 129.87754457, "category": "ドラッグストア", "category_id": "0200699", "time": [], "star": 0.0, "review": 0}, {"name": "ダイレックス 新大工町ファンスクエア店", "address": "長崎県長崎市新大工町5-35", "lat": 32.7526935, "lon": 129.886338, "category": "ドラッグストア", "category_id": "0200699", "time": ["09:00-22:00"], "star": 4.67, "review": 0}, {"name": "くすりのクボ", "address": "長崎県長崎市油屋町1-36", "lat": 32.7427241, "lon": 129.880983, "category": "ドラッグストア", "category_id": "0200699", "time": [], "star": 0.0, "review": 0}, {"name": "野田薬局", "address": "長崎県長崎市万屋町5-1", "lat": 32.74476852, "lon": 129.87878727, "category": "調剤薬局", "category_id": "0202315", "time": [], "star": 4.0, "review": 0}, {"name": "やすらぎ薬局", "address": "長崎県長崎市恵美須町4-1", "lat": 32.75053842, "lon": 129.87556993, "category": "調剤薬局", "category_id": "0202315", "time": [], "star": 4.5, "review": 0}, {"name": "オレンジ薬局めがね橋店", "address": "長崎県長崎市古川町3-10", "lat": 32.746861344568, "lon": 129.88043339449, "category": "調剤薬局", "category_id": "0202315", "time": ["09:00-18:00"], "star": 4.0, "review": 0}, {"name": "中島川薬局", "address": "長崎県長崎市諏訪町6-7", "lat": 32.7473166, "lon": 129.8809557, "category": "調剤薬局", "category_id": "0202315", "time": ["09:00-18:00"], "star": 4.0, "review": 0}, {"name": "アインズ&トルペ アミュプラザ長崎店", "address": "長崎県長崎市尾上町1-1 アミュプラザ長崎 新館 3F", "lat": 32.7523462, "lon": 129.870078, "category": "ドラッグストア", "category_id": "0200699", "time": ["10:00-20:00"], "star": 0.0, "review": 0}], "ATM": [{"name": "長崎銀行 ATM 思案橋支店(仮店舗)", "address": "長崎県長崎市栄町1-15", "lat": 32.7476133, "lon": 129.87775, "category": "ATM", "category_id": "0402785", "time": ["09:00-11:30"], "star": 3.6, "review": 2}, {"name": "長崎銀行 本店営業部(仮店舗)", "address": "長崎県長崎市栄町1-15", "lat": 32.7476133, "lon": 129.87775, "category": "銀行", "category_id": "0402596", "time": ["08:00-21:00"], "star": 4.3, "review": 0}, {"name": "十八親和銀行 観光通支店", "address": "長崎県長崎市万屋町3-17", "lat": 32.7453218, "lon": 129.87908251, "category": "銀行", "category_id": "0402596", "time": ["09:00-15:00"], "star": 4.33, "review": 3}, {"name": "長崎銀行別館", "address": "長崎県長崎市栄町1-15", "lat": 32.74762936, "lon": 129.87780696, "category": "銀行", "category_id": "0402596", "time": [], "star": 4.17, "review": 1}, {"name": "十八親和銀行 桜町支店", "address": "長崎県長崎市桜町4-1", "lat": 32.7494302, "lon": 129.877388, "category": "銀行", "category_id": "0402596", "time": ["09:00-15:00"], "star": 4.2, "review": 1}, {"name": "佐賀銀行 長崎支店", "address": "長崎県長崎市浜町2-11 SGB浜町 2F", "lat": 32.7466744, "lon": 129.875378, "category": "銀行", "category_id": "0402596", "time": [], "star": 4.4, "review": 3}, {"name": "みずほ銀行 長崎支店", "address": "長崎県長崎市浜町3-28 ", "lat": 32.74451909, "lon": 129.87761682, "category": "銀行", "category_id": "0402596", "time": ["09:00-15:00"], "star": 3.29, "review": 3}, {"name": "セブン銀行 長崎万才町店", "address": "長崎県長崎市万才町2-12", "lat": 32.7475682, "lon": 129.875321, "category": "ATM", "category_id": "0402785", "time": ["00:00-24:00"], "star": 4.33, "review": 1}, {"name": "十八親和銀行 浜町支店", "address": "長崎県長崎市浜町10-16", "lat": 32.7430387, "lon": 129.8799667, "category": "銀行", "category_id": "0402596", "time": ["09:00-15:00"], "star": 4.5, "review": 2}, {"name": "十八親和銀行 ATM 浜町アーケード", "address": "長崎県長崎市浜町1-9", "lat": 32.7445274, "lon": 129.876991, "category": "ATM", "category_id": "0402785", "time": [], "star": 0.0, "review": 1}, {"name": "福岡銀行 長崎支店", "address": "長崎県長崎市油屋町1-1", "lat": 32.7428443, "lon": 129.8803944, "category": "銀行", "category_id": "0402596", "time": ["09:00-15:00"], "star": 4.5, "review": 1}, {"name": "株式会社長崎銀行 事務部", "address": "長崎県長崎市栄町1-15", "lat": 32.74763009, "lon": 129.87780604, "category": "銀行", "category_id": "0402596", "time": [], "star": 3.0, "review": 0}, {"name": "十八親和銀行 本店営業部", "address": "長崎県長崎市銅座町1-11", "lat": 32.74315531, "lon": 129.87487566, "category": "銀行", "category_id": "0402596", "time": ["09:00-15:00"], "star": 4.5, "review": 2}, {"name": "肥後銀行 長崎支店", "address": "長崎県長崎市江戸町5-2", "lat": 32.7444746, "lon": 129.8753309, "category": "銀行", "category_id": "0402596", "time": ["09:00-15:00"], "star": 4.67, "review": 2}, {"name": "JAバンク 長崎西彼農業協同組合(JA長崎せいひ)本店", "address": "長崎県長崎市興善町6-7", "lat": 32.7489148, "lon": 129.877294, "category": "銀行", "category_id": "0402596", "time": ["09:00-15:30"], "star": 3.33, "review": 1}, {"name": "三菱UFJ銀行 長崎支店", "address": "長崎県長崎市銅座町7-36", "lat": 32.742947, "lon": 129.8767753, "category": "銀行", "category_id": "0402596", "time": ["09:00-15:00"], "star": 3.82, "review": 4}, {"name": "ゆうちょ銀行 長崎万屋郵便局", "address": "長崎県長崎市万屋町6-29", "lat": 32.7444835, "lon": 129.880264, "category": "銀行", "category_id": "0402596", "time": [], "star": 4.67, "review": 1}, {"name": "十八親和銀行 ATM メルカつきまち", "address": "長崎県長崎市築町3-18", "lat": 32.7456445, "lon": 129.875945, "category": "ATM", "category_id": "0402785", "time": [], "star": 0.0, "review": 1}, {"name": "西日本シティ銀行 長崎支店", "address": "長崎県長崎市五島町5-32", "lat": 32.7474465, "lon": 129.8727476, "category": "銀行", "category_id": "0402596", "time": ["09:00-12:00"], "star": 4.25, "review": 3}, {"name": "十八親和銀行 ATM 長崎市役所支店", "address": "長崎県長崎市魚の町4-1 3F", "lat": 32.7494986, "lon": 129.87985, "category": "ATM", "category_id": "0402785", "time": [], "star": 0.0, "review": 0}], "銭湯 温泉": [{"name": "白菊湯", "address": "長崎県長崎市片淵1丁目2-11", "lat": 32.75337674, "lon": 129.88509027, "category": "銭湯", "category_id": "0400578", "time": ["14:10-18:00"], "star": 4.25, "review": 0}, {"name": "日帰り入浴 みなとサウナ", "address": "長崎県長崎市樺島町7-9", "lat": 32.746003330608, "lon": 129.87276039225, "category": "日帰り入浴", "category_id": "0401679", "time": ["00:00-24:00"], "star": 0.0, "review": 0}, {"name": "カンデオホテルズ 長崎新地中華街 スカイスパ", "address": "長崎県長崎市銅座町3番12号", "lat": 32.74275522065816, "lon": 129.8760951808235, "category": "日帰り入浴", "category_id": "0401679", "time": ["06:00-11:00", "15:00-23:00"], "star": 0.0, "review": 0}, {"name": "日帰り入浴 コナミスポーツクラブ長崎", "address": "長崎県長崎市五島町5-38", "lat": 32.74810204, "lon": 129.87295648, "category": "日帰り入浴", "category_id": "0401679", "time": ["10:00-23:00"], "star": 0.0, "review": 0}], "スーパーマーケット": [{"name": "まるたか生鮮市場 FH観光通り店", "address": "長崎県長崎市万屋町6-40", "lat": 32.7450996, "lon": 129.8794444, "category": "スーパー", "category_id": "0200612", "time": ["09:30-20:00"], "star": 4.05, "review": 91}, {"name": "北野エース 長崎浜屋店", "address": "長崎県長崎市浜町7-11 長崎浜屋 B1F", "lat": 32.7435859, "lon": 129.8784529, "category": "スーパー", "category_id": "0200612", "time": ["10:00-19:30"], "star": 4.12, "review": 4}, {"name": "A-プライス 長崎万屋町店", "address": "長崎県長崎市万屋町5-38", "lat": 32.7446163, "lon": 129.8790223, "category": "スーパー", "category_id": "0200612", "time": ["10:00-19:00"], "star": 3.74, "review": 42}, {"name": "イオン 長崎店", "address": "長崎県長崎市新地町3-17", "lat": 32.7416971, "lon": 129.8743671, "category": "スーパー", "category_id": "0200612", "time": ["09:00-22:00"], "star": 3.67, "review": 256}, {"name": "まるたか生鮮市場 FH鍛冶屋町店", "address": "長崎県長崎市油屋町2-3", "lat": 32.7433998, "lon": 129.8806722, "category": "スーパー", "category_id": "0200612", "time": ["09:30-22:00"], "star": 3.72, "review": 66}, {"name": "SUNNY 長崎駅店(旧:西友長崎駅店)", "address": "長崎県長崎市尾上町1-1 アミュプラザ長崎 1F", "lat": 32.7517072, "lon": 129.8708671, "category": "スーパー", "category_id": "0200612", "time": ["07:00-24:00"], "star": 3.92, "review": 418}, {"name": "Sマート 新大工店", "address": "長崎県長崎市新大工町5-7", "lat": 32.752724, "lon": 129.8858491, "category": "スーパー", "category_id": "0200612", "time": ["09:00-21:00"], "star": 4.06, "review": 41}, {"name": "有限会社ナガサキストアー 麹屋町店", "address": "長崎県長崎市下西山町1-14", "lat": 32.74819, "lon": 129.88286, "category": "スーパー", "category_id": "0200612", "time": [], "star": 4.64, "review": 8}, {"name": "中村屋", "address": "長崎県長崎市築町1-8", "lat": 32.7451533, "lon": 129.8755961, "category": "スーパー", "category_id": "0200612", "time": ["09:00-19:00"], "star": 3.75, "review": 11}, {"name": "ジョイフルサン新大工町ファンスクエア店", "address": "長崎県長崎市新大工町5-35", "lat": 32.7526907, "lon": 129.8863546, "category": "スーパー", "category_id": "0200612", "time": [], "star": 4.1, "review": 9}, {"name": "Jマート", "address": "長崎県長崎市丸山町1-27", "lat": 32.74106216430664, "lon": 129.88018798828125, "category": "スーパー", "category_id": "0200612", "time": [], "star": 3.52, "review": 2}, {"name": "有限会社ナガサキストアー 駅前店", "address": "長崎県長崎市大黒町4-26", "lat": 32.7531034, "lon": 129.8729276, "category": "スーパー", "category_id": "0200612", "time": [], "star": 4.19, "review": 4}, {"name": "北海道フーディスト 北海道うまいもの館 アミュプラザ長崎店", "address": "長崎県長崎市尾上町1-1 アミュプラザ長崎 1F", "lat": 32.7519276, "lon": 129.870822, "category": "スーパー", "category_id": "0200612", "time": ["10:00-20:00"], "star": 4.8, "review": 0}, {"name": "イエスマート", "address": "長崎県長崎市新大工町5-35 ファンスクエア 2F", "lat": 32.752824, "lon": 129.8865185, "category": "スーパー", "category_id": "0200612", "time": [], "star": 3.64, "review": 1}, {"name": "株式会社デザイン・スーパーマーケット", "address": "長崎県長崎市銀屋町6-1", "lat": 32.74560181, "lon": 129.88180952, "category": "企業・オフィス", "category_id": "0502930", "time": [], "star": 0.0, "review": 0}, {"name": "銅座市場協同組合", "address": "長崎県長崎市銅座町15-18", "lat": 32.7426574, "lon": 129.8784137, "category": "スーパー", "category_id": "0200612", "time": [], "star": 0.0, "review": 0}, {"name": "ゆめタウン 夢彩都", "address": "長崎県長崎市元船町10-1", "lat": 32.746193, "lon": 129.8700449, "category": "ショッピングセンター・モール", "category_id": "0200537", "time": ["10:00-20:30"], "star": 4.13, "review": 182}, {"name": "ゆめタウン夢彩都1階 アルゴス", "address": "長崎県長崎市元船町10-1", "lat": 32.74645464, "lon": 129.86987648, "category": "衣料品店", "category_id": "0201401", "time": [], "star": 4.4, "review": 9}, {"name": "カルディコーヒーファーム 長崎浜町店", "address": "長崎県長崎市浜町4-11 ハマクロス411 1F", "lat": 32.7439525, "lon": 129.8779029, "category": "コーヒー豆店", "category_id": "0200497", "time": ["10:00-20:00"], "star": 4.17, "review": 109}, {"name": "マックスバリュ 新大工町ファンスクエア店", "address": "長崎県長崎市新大工町5-35 ライオンズタワー新大工 1F", "lat": 32.7524979, "lon": 129.886398, "category": "スーパー", "category_id": "0200612", "time": [], "star": 0.0, "review": 0}]}, "top_restaurant": {"name": "カフェ・ソレイユ", "category": "カフェ・喫茶", "star": 4.8, "review": 4}}, {"name": "めがね橋 (賑橋)", "name_en": "Meganebashi Bridge (Nigiwaibashi)", "lat": 32.7470651, "lon": 129.8785187, "osm_id": 6786874773, "operator": "", "railway": "tram_stop", "wikidata": "Q11635049", "wikipedia_tag": "ja:賑橋停留場", "lines": ["長崎電気軌道2号系統 (赤迫 => 蛍茶屋)", "長崎電気軌道4号系統 (崇福寺 => 蛍茶屋)", "長崎電気軌道5号系統 (石橋 => 蛍茶屋)"], "pref": "長崎県", "nearby_bus_stops": [{"name": "めがね橋", "lat": 32.746914, "lon": 129.8785096, "distance_m": 17, "operator": ""}, {"name": "めがね橋", "lat": 32.7469591, "lon": 129.8779232, "distance_m": 57, "operator": ""}, {"name": "めがね橋", "lat": 32.7471665, "lon": 129.8773109, "distance_m": 114, "operator": ""}, {"name": "興善町", "lat": 32.748059, "lon": 129.8760161, "distance_m": 259, "operator": ""}, {"name": "長崎市役所", "lat": 32.7488183, "lon": 129.8803834, "distance_m": 262, "operator": ""}], "nearest_convenience": {"name": "ローソン", "lat": 32.7505369, "lon": 129.8794853, "address": "", "distance_m": 396, "brand": "ローソン"}, "nearest_restaurant": {"name": "勝鹿", "lat": 32.7455218, "lon": 129.8794112, "address": "", "distance_m": 191, "cuisine": ""}, "nearby_pois": {"コンビニ": [{"name": "セブンイレブン 長崎栄町", "address": "長崎県長崎市栄町4-20", "lat": 32.7470272, "lon": 129.8779861, "category": "コンビニ", "category_id": "0200487", "time": ["00:00-24:00"], "star": 4.03, "review": 30}, {"name": "セブンイレブン 長崎万屋町", "address": "長崎県長崎市万屋町6-5", "lat": 32.7454607, "lon": 129.8796222, "category": "コンビニ", "category_id": "0200487", "time": ["00:00-24:00"], "star": 4.74, "review": 169}, {"name": "ローソン 長崎賑町", "address": "長崎県長崎市賑町7-11", "lat": 32.7460745, "lon": 129.8768557, "category": "コンビニ", "category_id": "0200487", "time": ["00:00-24:00"], "star": 4.14, "review": 19}, {"name": "ローソン 長崎桜町", "address": "長崎県長崎市恵美須町4-5", "lat": 32.7504935, "lon": 129.8759084, "category": "コンビニ", "category_id": "0200487", "time": ["00:00-24:00"], "star": 4.12, "review": 18}, {"name": "デイリーヤマザキ 長崎興善町店", "address": "長崎県長崎市興善町4-2", "lat": 32.7480604, "lon": 129.8760696, "category": "コンビニ", "category_id": "0200487", "time": ["00:00-24:00"], "star": 4.17, "review": 6}, {"name": "セブンイレブン 長崎思案橋", "address": "長崎県長崎市本石灰町5-6", "lat": 32.7425277, "lon": 129.8797473, "category": "コンビニ", "category_id": "0200487", "time": ["00:00-24:00"], "star": 4.09, "review": 21}, {"name": "ローソン 出島", "address": "長崎県長崎市出島町5-3", "lat": 32.7432941, "lon": 129.8721173, "category": "コンビニ", "category_id": "0200487", "time": ["00:00-24:00"], "star": 4.12, "review": 26}, {"name": "セブンイレブン 長崎築町", "address": "長崎県長崎市築町5-7", "lat": 32.7450051, "lon": 129.8758947, "category": "コンビニ", "category_id": "0200487", "time": ["00:00-24:00"], "star": 3.9, "review": 35}, {"name": "セブンイレブン 長崎麹屋町", "address": "長崎県長崎市麹屋町2-3", "lat": 32.7488799, "lon": 129.8827885, "category": "コンビニ", "category_id": "0200487", "time": ["00:00-24:00"], "star": 4.61, "review": 77}, {"name": "ファミリーマート 長崎銀屋町店", "address": "長崎県長崎市銀屋町4-5", "lat": 32.7461273, "lon": 129.8803554, "category": "コンビニ", "category_id": "0200487", "time": ["00:00-24:00"], "star": 3.96, "review": 19}, {"name": "ローソン 長崎勝山町", "address": "長崎県長崎市勝山町37", "lat": 32.7513852, "lon": 129.8803247, "category": "コンビニ", "category_id": "0200487", "time": ["00:00-24:00"], "star": 4.22, "review": 13}, {"name": "セブンイレブン 長崎万才町", "address": "長崎県長崎市万才町2-12", "lat": 32.7475521, "lon": 129.8752808, "category": "コンビニ", "category_id": "0200487", "time": ["00:00-24:00"], "star": 3.74, "review": 34}, {"name": "ローソン 長崎桶屋町", "address": "長崎県長崎市桶屋町41", "lat": 32.7491465, "lon": 129.881658, "category": "コンビニ", "category_id": "0200487", "time": ["00:00-24:00"], "star": 4.26, "review": 41}, {"name": "ローソン 長崎大波止", "address": "長崎県長崎市元船町13-10", "lat": 32.7461522, "lon": 129.8719144, "category": "コンビニ", "category_id": "0200487", "time": ["00:00-24:00"], "star": 4.24, "review": 39}, {"name": "デイリーヤマザキ ニューヤマザキデイリーストア長崎市役所店", "address": "長崎県長崎市魚の町4-1", "lat": 32.7495159, "lon": 129.8798109, "category": "コンビニ", "category_id": "0200487", "time": [], "star": 3.17, "review": 12}, {"name": "セブンイレブン 長崎五島町", "address": "長崎県長崎市五島町2-29", "lat": 32.7503574, "lon": 129.8731503, "category": "コンビニ", "category_id": "0200487", "time": ["00:00-24:00"], "star": 4.41, "review": 39}, {"name": "ファミリーマート 長崎銅座町店", "address": "長崎県長崎市銅座町7-24", "lat": 32.7422277, "lon": 129.8762753, "category": "コンビニ", "category_id": "0200487", "time": ["00:00-24:00"], "star": 4.04, "review": 18}, {"name": "ローソン 長崎中央郵便局前", "address": "長崎県長崎市大黒町9-22", "lat": 32.751785, "lon": 129.873303, "category": "コンビニ", "category_id": "0200487", "time": ["00:00-24:00"], "star": 4.15, "review": 24}, {"name": "セブンイレブン 長崎西浜通り", "address": "長崎県長崎市銅座町6-20", "lat": 32.7431998, "lon": 129.8767836, "category": "コンビニ", "category_id": "0200487", "time": ["00:00-24:00"], "star": 3.76, "review": 16}, {"name": "ファミリーマート 長崎樺島町店", "address": "長崎県長崎市樺島町1-7", "lat": 32.7468882, "lon": 129.8726115, "category": "コンビニ", "category_id": "0200487", "time": ["00:00-24:00"], "star": 4.12, "review": 55}], "ラーメン": [{"name": "らーめん AWAGAI", "address": "長崎県長崎市浜町10-11 稲垣屋ビル 1F", "lat": 32.743121867197, "lon": 129.88018786872, "category": "ラーメン店", "category_id": "0100097", "time": [], "star": 0.0, "review": 1}, {"name": "天下無双 マルハチらーめん 桜町店", "address": "長崎県長崎市桜町1-4 鶴洋ビル1F", "lat": 32.750430041851, "lon": 129.87670417876, "category": "ラーメン店", "category_id": "0100097", "time": [], "star": 4.0, "review": 1}, {"name": "朝日屋", "address": "長崎県長崎市尾上町2", "lat": 32.750572345544, "lon": 129.87122213184, "category": "ラーメン店", "category_id": "0100097", "time": [], "star": 3.2, "review": 3}, {"name": "味噌らぁめん きりゅう", "address": "長崎県長崎市栄町1-2 尾上ビル 1F", "lat": 32.747561136624, "lon": 129.87697186052, "category": "ラーメン店", "category_id": "0100097", "time": ["11:00-14:00"], "star": 3.82, "review": 22}, {"name": "BABAKE", "address": "長崎県長崎市江戸町6-13", "lat": 32.744282317431, "lon": 129.87500183165, "category": "ラーメン店", "category_id": "0100097", "time": ["11:30-14:00", "18:00-22:30"], "star": 4.1, "review": 69}, {"name": "クワイ", "address": "長崎県長崎市興善町4-16 荒木ビル 1F", "lat": 32.747828247429, "lon": 129.87619273169, "category": "ラーメン店", "category_id": "0100097", "time": ["11:30-14:00", "18:00-20:30"], "star": 3.85, "review": 22}, {"name": "らーめん柊 銅座本店", "address": "長崎県長崎市銅座町6-9", "lat": 32.743231736627, "lon": 129.87752306048, "category": "ラーメン店", "category_id": "0100097", "time": ["11:00-29:00"], "star": 4.03, "review": 117}, {"name": "BABAKE 興善町店", "address": "長崎県長崎市興善町8-15", "lat": 32.74767796, "lon": 129.87682981, "category": "ラーメン店", "category_id": "0100097", "time": ["11:30-14:00", "17:30-21:30"], "star": 4.01, "review": 60}, {"name": "麺也オールウェイズ", "address": "長崎県長崎市万屋町5-22", "lat": 32.744192527433, "lon": 129.88032879165, "category": "ラーメン店", "category_id": "0100097", "time": ["11:00-22:00"], "star": 3.96, "review": 85}, {"name": "天龍", "address": "長崎県長崎市銅座町7-24", "lat": 32.742214732378, "lon": 129.87628413128, "category": "ラーメン店", "category_id": "0100097", "time": [], "star": 0.0, "review": 0}, {"name": "かどや", "address": "長崎県長崎市浜町6-23 YBビル 1F", "lat": 32.743227637433, "lon": 129.87863356164, "category": "ラーメン店", "category_id": "0100097", "time": ["11:00-27:00"], "star": 4.13, "review": 70}, {"name": "三八ラーメン 銅座店", "address": "長崎県長崎市銅座町14-11", "lat": 32.74286595, "lon": 129.87836125, "category": "ラーメン店", "category_id": "0100097", "time": ["11:00-14:30", "18:00-26:00"], "star": 3.71, "review": 39}, {"name": "家庭料理居酒屋 たんぽぽ", "address": "長崎県長崎市江戸町1-12 梅屋ビル 1階", "lat": 32.74491026743, "lon": 129.87238268166, "category": "居酒屋", "category_id": "0101495", "time": ["17:00-22:00"], "star": 3.9, "review": 2}, {"name": "思案橋ラーメン", "address": "長崎県長崎市浜町6-17", "lat": 32.743098137433, "lon": 129.87923942164, "category": "ラーメン店", "category_id": "0100097", "time": ["11:00-25:30"], "star": 3.54, "review": 251}, {"name": "中華軽食 三八 浜町店", "address": "長崎県長崎市浜町9-18", "lat": 32.743232157433, "lon": 129.87908485164, "category": "ラーメン店", "category_id": "0100097", "time": ["11:00-21:00"], "star": 3.89, "review": 42}, {"name": "コバチラーメン店", "address": "長崎県長崎市銅座町15-16", "lat": 32.74248183, "lon": 129.87823322, "category": "ラーメン店", "category_id": "0100097", "time": ["18:00-27:00"], "star": 3.46, "review": 23}, {"name": "麺や一番 ゆめタウン夢彩都店", "address": "長崎県長崎市元船町10-1 ゆめタウン夢彩都 B1F", "lat": 32.74627710217, "lon": 129.87003549803, "category": "ラーメン店", "category_id": "0100097", "time": ["10:00-20:30"], "star": 3.35, "review": 2}, {"name": "中華そば 佐々木麺之介", "address": "長崎県長崎市浜町8-20 きむらやビル2F", "lat": 32.74393862, "lon": 129.87972223, "category": "飲食店", "category_id": "0102732", "time": [], "star": 4.39, "review": 7}, {"name": "金龍", "address": "長崎県長崎市金屋町9-12", "lat": 32.75007579, "lon": 129.87594923, "category": "ラーメン店", "category_id": "0100097", "time": ["11:00-21:00"], "star": 3.45, "review": 21}, {"name": "ラーメン亭長崎", "address": "長崎県長崎市浜町11-15", "lat": 32.743249517469, "lon": 129.88025158926, "category": "飲食店", "category_id": "0102732", "time": [], "star": 3.83, "review": 1}], "飲食店": [{"name": "カフェ・ソレイユ", "address": "長崎県長崎市諏訪町5-11", "lat": 32.747631, "lon": 129.881929, "category": "カフェ・喫茶", "category_id": "0100344", "time": [], "star": 4.8, "review": 4}, {"name": "ノスドール", "address": "長崎県長崎市古川町8-7", "lat": 32.746592887432, "lon": 129.88086249167, "category": "カフェ・喫茶", "category_id": "0100344", "time": [], "star": 3.77, "review": 5}, {"name": "カフェ・エニイ", "address": "長崎県長崎市栄町4-9", "lat": 32.74741136743, "lon": 129.87816942168, "category": "カフェ・喫茶", "category_id": "0100344", "time": [], "star": 2.03, "review": 3}, {"name": "串揚げ 七瀬", "address": "長崎県長崎市鍛冶屋町6-55", "lat": 32.743636657434, "lon": 129.88094761164, "category": "串揚げ店", "category_id": "0101000", "time": ["18:00-22:00"], "star": 4.33, "review": 13}, {"name": "旬彩房 菜魚", "address": "長崎県長崎市東古川町3-22", "lat": 32.745800217432, "lon": 129.88023013166, "category": "居酒屋", "category_id": "0101495", "time": ["18:00-22:00"], "star": 4.0, "review": 17}, {"name": "ソムパテ", "address": "長崎県長崎市浜町11-2", "lat": 32.743672368614, "lon": 129.87987737161, "category": "バー", "category_id": "0100536", "time": [], "star": 3.92, "review": 2}, {"name": "ちょこっとBar・モリヤマ", "address": "長崎県長崎市賑町3-9", "lat": 32.74634398743, "lon": 129.87651300167, "category": "立ち飲み店", "category_id": "0102815", "time": ["17:00-21:30"], "star": 3.86, "review": 13}, {"name": "炭火串焼 もりや めがね橋店", "address": "長崎県長崎市古川町5-4", "lat": 32.7464305, "lon": 129.8792975, "category": "焼き鳥店", "category_id": "0101960", "time": [], "star": 4.5, "review": 0}, {"name": "吉宗 観光通り店", "address": "長崎県長崎市浜町8-3", "lat": 32.744573617432, "lon": 129.87860876165, "category": "和食店", "category_id": "0100126", "time": ["10:30-20:00"], "star": 3.92, "review": 19}, {"name": "梅家", "address": "長崎県長崎市船大工町5-30 こがねビル 1F", "lat": 32.741349927434, "lon": 129.87798681162, "category": "居酒屋", "category_id": "0101495", "time": ["18:00-24:00"], "star": 4.23, "review": 16}, {"name": "ゆるり～うちごはん", "address": "長崎県長崎市銅座町13-6 1F", "lat": 32.742792927433, "lon": 129.87797930164, "category": "レストラン", "category_id": "0100111", "time": ["18:00-23:00"], "star": 4.63, "review": 2}, {"name": "ネロ・ウルフ", "address": "長崎県長崎市万才町1-9", "lat": 32.747395368897, "lon": 129.87467958149, "category": "カフェ・喫茶", "category_id": "0100344", "time": [], "star": 3.8, "review": 8}, {"name": "ワイン食堂 コクレ", "address": "長崎県長崎市魚の町7-7 1F", "lat": 32.748141636625, "lon": 129.87984786053, "category": "ワインバー", "category_id": "0100954", "time": [], "star": 4.1, "review": 6}, {"name": "なかむら", "address": "長崎県長崎市浜町8-4", "lat": 32.744454147432, "lon": 129.87850536165, "category": "カフェ・喫茶", "category_id": "0100344", "time": ["10:30-16:00"], "star": 3.8, "review": 13}, {"name": "韓国料理 MOMO", "address": "長崎県長崎市築町3-18地下1階", "lat": 32.74562452, "lon": 129.87604466, "category": "居酒屋", "category_id": "0101495", "time": ["14:00-23:00"], "star": 0.0, "review": 0}, {"name": "カフェ&レストラン", "address": "長崎県長崎市新地町13-10", "lat": 32.741555437433, "lon": 129.87587266162, "category": "洋食店", "category_id": "0100129", "time": ["07:00-10:00", "11:30-22:00"], "star": 4.57, "review": 3}, {"name": "Ruby Jewelry Cafe", "address": "長崎県長崎市魚の町6-15 中島川パークサイドビル 1F", "lat": 32.748169107431, "lon": 129.88096909169, "category": "カフェ・喫茶", "category_id": "0100344", "time": ["10:30-18:30"], "star": 3.9, "review": 1}, {"name": "思案橋 宝雲亭", "address": "長崎県長崎市本石灰町1-8", "lat": 32.742745807434, "lon": 129.87957051163, "category": "餃子店", "category_id": "0102733", "time": ["17:30-23:30"], "star": 3.92, "review": 31}, {"name": "居酒屋Goheita", "address": "長崎県長崎市浜町3-10", "lat": 32.7450306, "lon": 129.8780671, "category": "居酒屋", "category_id": "0101495", "time": [], "star": 4.5, "review": 2}, {"name": "ルパン", "address": "長崎県長崎市桜町1-1", "lat": 32.750350942186, "lon": 129.87647172038, "category": "カフェ・喫茶", "category_id": "0100344", "time": ["11:00-16:00"], "star": 3.92, "review": 14}], "カフェ": [{"name": "ノスドール", "address": "長崎県長崎市古川町8-7", "lat": 32.746592887432, "lon": 129.88086249167, "category": "カフェ・喫茶", "category_id": "0100344", "time": [], "star": 3.77, "review": 5}, {"name": "カフェ・ソレイユ", "address": "長崎県長崎市諏訪町5-11", "lat": 32.747631, "lon": 129.881929, "category": "カフェ・喫茶", "category_id": "0100344", "time": [], "star": 4.8, "review": 4}, {"name": "カフェ&レストラン", "address": "長崎県長崎市新地町13-10", "lat": 32.741555437433, "lon": 129.87587266162, "category": "洋食店", "category_id": "0100129", "time": ["07:00-10:00", "11:30-22:00"], "star": 4.57, "review": 3}, {"name": "カフェ・エニイ", "address": "長崎県長崎市栄町4-9", "lat": 32.74741136743, "lon": 129.87816942168, "category": "カフェ・喫茶", "category_id": "0100344", "time": [], "star": 2.03, "review": 3}, {"name": "ネロ・ウルフ", "address": "長崎県長崎市万才町1-9", "lat": 32.747395368897, "lon": 129.87467958149, "category": "カフェ・喫茶", "category_id": "0100344", "time": [], "star": 3.8, "review": 8}, {"name": "なかむら", "address": "長崎県長崎市浜町8-4", "lat": 32.744454147432, "lon": 129.87850536165, "category": "カフェ・喫茶", "category_id": "0100344", "time": ["10:30-16:00"], "star": 3.8, "review": 13}, {"name": "Ruby Jewelry Cafe", "address": "長崎県長崎市魚の町6-15 中島川パークサイドビル 1F", "lat": 32.748169107431, "lon": 129.88096909169, "category": "カフェ・喫茶", "category_id": "0100344", "time": ["10:30-18:30"], "star": 3.9, "review": 1}, {"name": "ルパン", "address": "長崎県長崎市桜町1-1", "lat": 32.750350942186, "lon": 129.87647172038, "category": "カフェ・喫茶", "category_id": "0100344", "time": ["11:00-16:00"], "star": 3.92, "review": 14}, {"name": "AGRI+ カフェ", "address": "長崎県長崎市元船町5-27", "lat": 32.749239809358, "lon": 129.87201660737, "category": "カフェ・喫茶", "category_id": "0100344", "time": [], "star": 4.28, "review": 7}, {"name": "カフェ&バル さくら亭", "address": "長崎県長崎市鍛冶屋町2-3", "lat": 32.7443322, "lon": 129.8805576, "category": "カフェ・喫茶", "category_id": "0100344", "time": [], "star": 4.13, "review": 5}, {"name": "カフェ モンレーヴ プチ", "address": "長崎県長崎市万屋町5-9 セントラルビル 5F", "lat": 32.744941097432, "lon": 129.87928461166, "category": "スイーツ店", "category_id": "0100534", "time": ["11:00-19:00"], "star": 4.27, "review": 12}, {"name": "トニーアンドクロエ", "address": "長崎県長崎市浜町2-17 1F", "lat": 32.745261836626, "lon": 129.8778228605, "category": "カフェ・喫茶", "category_id": "0100344", "time": ["12:00-23:00"], "star": 3.99, "review": 18}, {"name": "南蛮茶屋", "address": "長崎県長崎市古川町5-9", "lat": 32.74616895, "lon": 129.87951161, "category": "カフェ・喫茶", "category_id": "0100344", "time": ["11:00-23:00"], "star": 4.07, "review": 22}, {"name": "喫茶ルミネ", "address": "長崎県長崎市魚の町3-4", "lat": 32.7493149, "lon": 129.878935, "category": "カフェ・喫茶", "category_id": "0100344", "time": [], "star": 4.0, "review": 1}, {"name": "cafe Smoky", "address": "長崎県長崎市浜町2-20 2番街ビル2F", "lat": 32.7450691, "lon": 129.8779554, "category": "カフェ・喫茶", "category_id": "0100344", "time": [], "star": 0.0, "review": 0}, {"name": "HUTTE310", "address": "長崎県長崎市賑町6-9 2F", "lat": 32.746605167431, "lon": 129.87756096167, "category": "カフェ・喫茶", "category_id": "0100344", "time": ["11:30-14:00", "18:00-21:00"], "star": 4.1, "review": 2}, {"name": "キートス", "address": "長崎県長崎市諏訪町6-21-2F", "lat": 32.746761, "lon": 129.880886, "category": "カフェ・喫茶", "category_id": "0100344", "time": [], "star": 0.0, "review": 0}, {"name": "サニーバード", "address": "長崎県長崎市江戸町5-3 1F", "lat": 32.744362402066, "lon": 129.87547985626, "category": "カフェ・喫茶", "category_id": "0100344", "time": ["11:00-23:59"], "star": 0.0, "review": 0}, {"name": "grace3", "address": "長崎県長崎市築町1-14 野口ビル 1F", "lat": 32.744925537431, "lon": 129.87551516166, "category": "カフェ・喫茶", "category_id": "0100344", "time": ["11:00-22:00"], "star": 3.5, "review": 1}, {"name": "カフェ サザン", "address": "長崎県長崎市今博多町9 サザンパレスII", "lat": 32.750851927429, "lon": 129.88189711171, "category": "カフェ・喫茶", "category_id": "0100344", "time": ["09:30-17:00"], "star": 3.7, "review": 1}], "ドラッグストア": [{"name": "ココカラファイン 万屋町店", "address": "長崎県長崎市万屋町6-5", "lat": 32.74544679, "lon": 129.87953608, "category": "ドラッグストア", "category_id": "0200699", "time": ["09:00-21:00"], "star": 4.29, "review": 6}, {"name": "サンドラッグ浜町店", "address": "長崎県長崎市浜町1-9 今井ビル１Ｆ", "lat": 32.74442742, "lon": 129.87699741, "category": "ドラッグストア", "category_id": "0200699", "time": ["09:30-21:00"], "star": 4.34, "review": 191}, {"name": "ココカラファイン 浜の町中央店", "address": "長崎県長崎市浜町8-37", "lat": 32.74410804, "lon": 129.87871397, "category": "ドラッグストア", "category_id": "0200699", "time": ["09:00-21:00"], "star": 3.64, "review": 12}, {"name": "マツモトキヨシ 薬 浜の町店", "address": "長崎県長崎市浜町4-9", "lat": 32.7440414, "lon": 129.8777224, "category": "ドラッグストア", "category_id": "0200699", "time": ["09:00-22:00"], "star": 3.94, "review": 78}, {"name": "サンドラッグ ＣＡＲＥＲ浜町店", "address": "長崎県長崎市浜町２－３４　１Ｆ", "lat": 32.74506069, "lon": 129.87754457, "category": "ドラッグストア", "category_id": "0200699", "time": ["09:00-21:00"], "star": 3.75, "review": 0}, {"name": "マツモトキヨシ ドラッグストア 出島店", "address": "長崎県長崎市出島町14-7", "lat": 32.7421082, "lon": 129.8741032, "category": "ドラッグストア", "category_id": "0200699", "time": ["09:00-22:00"], "star": 4.29, "review": 37}, {"name": "ココカラファイン 銅座町店", "address": "長崎県長崎市銅座町3-12 1F", "lat": 32.74311644, "lon": 129.87580309, "category": "ドラッグストア", "category_id": "0200699", "time": ["09:00-22:00"], "star": 4.35, "review": 58}, {"name": "コクミンドラッグ 銅座町店", "address": "長崎県長崎市銅座町５ー７", "lat": 32.74338865, "lon": 129.8766364, "category": "ドラッグストア", "category_id": "0200699", "time": ["09:00-21:00"], "star": 3.36, "review": 9}, {"name": "ココカラファイン 長崎アミュプラザ店", "address": "長崎県長崎市尾上町1-1 長崎アミュプラザ1F", "lat": 32.75167387, "lon": 129.87088933, "category": "ドラッグストア", "category_id": "0200699", "time": ["10:00-20:00"], "star": 4.0, "review": 12}, {"name": "ツルハドラッグ 大波止店", "address": "長崎県長崎市元船町14-41", "lat": 32.74567722, "lon": 129.87173943, "category": "ドラッグストア", "category_id": "0200699", "time": ["09:00-22:00"], "star": 4.5, "review": 0}, {"name": "ココカラファイン 新大工店", "address": "長崎県長崎市新大工町2-21 だるまやビル1F", "lat": 32.75311843, "lon": 129.8852686, "category": "ドラッグストア", "category_id": "0200699", "time": [], "star": 3.23, "review": 10}, {"name": "ココカラファイン薬局 万屋町店", "address": "長崎県長崎市万屋町6-5", "lat": 32.74544679, "lon": 129.87953608, "category": "調剤薬局", "category_id": "0202315", "time": ["09:00-19:30"], "star": 4.5, "review": 1}, {"name": "サンドラッグ ＣＡＲＥＲ浜町薬局店", "address": "長崎県長崎市浜町２－３４　１Ｆ", "lat": 32.74506069, "lon": 129.87754457, "category": "ドラッグストア", "category_id": "0200699", "time": [], "star": 0.0, "review": 0}, {"name": "ダイレックス 新大工町ファンスクエア店", "address": "長崎県長崎市新大工町5-35", "lat": 32.7526935, "lon": 129.886338, "category": "ドラッグストア", "category_id": "0200699", "time": ["09:00-22:00"], "star": 4.67, "review": 0}, {"name": "くすりのクボ", "address": "長崎県長崎市油屋町1-36", "lat": 32.7427241, "lon": 129.880983, "category": "ドラッグストア", "category_id": "0200699", "time": [], "star": 0.0, "review": 0}, {"name": "やすらぎ薬局", "address": "長崎県長崎市恵美須町4-1", "lat": 32.75053842, "lon": 129.87556993, "category": "調剤薬局", "category_id": "0202315", "time": [], "star": 4.5, "review": 0}, {"name": "野田薬局", "address": "長崎県長崎市万屋町5-1", "lat": 32.74476852, "lon": 129.87878727, "category": "調剤薬局", "category_id": "0202315", "time": [], "star": 4.0, "review": 0}, {"name": "オレンジ薬局めがね橋店", "address": "長崎県長崎市古川町3-10", "lat": 32.746861344568, "lon": 129.88043339449, "category": "調剤薬局", "category_id": "0202315", "time": ["09:00-18:00"], "star": 4.0, "review": 0}, {"name": "中島川薬局", "address": "長崎県長崎市諏訪町6-7", "lat": 32.7473166, "lon": 129.8809557, "category": "調剤薬局", "category_id": "0202315", "time": ["09:00-18:00"], "star": 4.0, "review": 0},