[{"name": "いこいの広場", "name_en": "Ikoinohiroba", "lat": 34.7881142, "lon": 137.9637041, "osm_id": 384115801, "operator": "", "railway": "station", "wikidata": "Q5996082", "wikipedia_tag": "ja:いこいの広場駅", "lines": ["天竜浜名湖鉄道天竜浜名湖線"], "pref": "静岡県", "wikipedia_text": "いこいの広場駅（いこいのひろばえき）は、静岡県掛川市細谷にある天竜浜名湖鉄道天竜浜名湖線の駅である。", "wikipedia_image": "https://upload.wikimedia.org/wikipedia/commons/7/72/Ikoi-no-hiroba_stn.jpg", "nearest_convenience": {"name": "ミニストップ", "lat": 34.7812099, "lon": 137.9672951, "address": "", "distance_m": 835, "brand": ""}, "nearest_restaurant": {"name": "花峰庵たかやま", "lat": 34.7891253, "lon": 137.9643838, "address": "", "distance_m": 128, "cuisine": "japanese"}, "nearby_pois": {"コンビニ": [{"name": "ファミリーマート 掛川細谷店", "address": "静岡県掛川市細谷288-2", "lat": 34.7925604, "lon": 137.9632001, "category": "コンビニ", "category_id": "0200487", "time": ["00:00-24:00"], "star": 4.06, "review": 8}, {"name": "ファミリーマート 掛川家代の里店", "address": "静岡県掛川市家代の里3-2-1", "lat": 34.7887221, "lon": 137.9746188, "category": "コンビニ", "category_id": "0200487", "time": ["00:00-24:00"], "star": 3.9, "review": 18}], "ラーメン": [{"name": "ラーメンショップ 細谷店", "address": "静岡県掛川市細谷826-3", "lat": 34.78526671, "lon": 137.96546677, "category": "ラーメン店", "category_id": "0100097", "time": ["07:00-14:00"], "star": 3.78, "review": 23}], "飲食店": [{"name": "ステーショナリーカフェ konohi", "address": "静岡県掛川市細谷535-1", "lat": 34.787891477471, "lon": 137.96460611749, "category": "カフェ・喫茶", "category_id": "0100344", "time": [], "star": 4.64, "review": 16}, {"name": "花峰庵 高山", "address": "静岡県掛川市細谷415", "lat": 34.78911106, "lon": 137.9643901, "category": "和食店", "category_id": "0100126", "time": ["11:30-14:00", "17:00-21:00"], "star": 4.34, "review": 15}, {"name": "静岡よみうりカントリークラブ レストラン", "address": "静岡県掛川市家代1188 静岡よみうりカントリークラブ", "lat": 34.7962694379, "lon": 137.96825527554, "category": "定食屋", "category_id": "0101441", "time": [], "star": 3.35, "review": 2}, {"name": "ステーショナリーカフェ コノヒ", "address": "静岡県掛川市細谷535-1", "lat": 34.78786812, "lon": 137.96460317, "category": "カフェ・喫茶", "category_id": "0100344", "time": ["12:00-19:00"], "star": 3.81, "review": 8}, {"name": "ラーメンショップ 細谷店", "address": "静岡県掛川市細谷826-3", "lat": 34.78526671, "lon": 137.96546677, "category": "ラーメン店", "category_id": "0100097", "time": ["07:00-14:00"], "star": 3.78, "review": 23}, {"name": "居酒屋ふる里", "address": "静岡県掛川市吉岡768-8", "lat": 34.78866425, "lon": 137.95410974, "category": "居酒屋", "category_id": "0101495", "time": [], "star": 4.83, "review": 2}, {"name": "Nちゃチャ 本店", "address": "静岡県掛川市静岡県 掛川市 細谷586", "lat": 34.79171371459961, "lon": 137.96559143066406, "category": "飲食店", "category_id": "0102732", "time": [], "star": 0.0, "review": 0}, {"name": "夢泥棒 細谷店", "address": "静岡県掛川市細谷697-2", "lat": 34.782508253227, "lon": 137.96768948136, "category": "レストラン", "category_id": "0100111", "time": [], "star": 0.0, "review": 0}, {"name": "たつ美", "address": "静岡県掛川市細谷1032-1", "lat": 34.7956429, "lon": 137.9621227, "category": "", "category_id": "", "time": [], "star": 0.0, "review": 0}, {"name": "静岡よみうりカントリークラブ", "address": "静岡県掛川市家代1188", "lat": 34.7961408, "lon": 137.9683913, "category": "ゴルフ場", "category_id": "0300506", "time": ["07:00-17:00"], "star": 3.81, "review": 16}, {"name": "花", "address": "静岡県掛川市細谷697-2", "lat": 34.7825083, "lon": 137.9676895, "category": "居酒屋", "category_id": "0101495", "time": [], "star": 0.0, "review": 0}], "カフェ": [{"name": "ステーショナリーカフェ konohi", "address": "静岡県掛川市細谷535-1", "lat": 34.787891477471, "lon": 137.96460611749, "category": "カフェ・喫茶", "category_id": "0100344", "time": [], "star": 4.64, "review": 16}, {"name": "ステーショナリーカフェ コノヒ", "address": "静岡県掛川市細谷535-1", "lat": 34.78786812, "lon": 137.96460317, "category": "カフェ・喫茶", "category_id": "0100344", "time": ["12:00-19:00"], "star": 3.81, "review": 8}], "ドラッグストア": [{"name": "クスリのアオキ 掛川細谷店", "address": "静岡県掛川市細谷900-1", "lat": 34.7887692, "lon": 137.9649279, "category": "ドラッグストア", "category_id": "0200699", "time": ["09:00-22:00"], "star": 3.82, "review": 14}, {"name": "クスリのアオキ調剤 掛川細谷店", "address": "静岡県掛川市細谷900-1", "lat": 34.7889144, "lon": 137.964864, "category": "調剤薬局", "category_id": "0202315", "time": ["09:00-22:00"], "star": 0.0, "review": 0}], "ATM": [{"name": "銀行ATM イーネット ファミリーマート掛川細谷 共同出張所", "address": "静岡県掛川市細谷288-2 ", "lat": 34.79257432, "lon": 137.96318624, "category": "ATM", "category_id": "0402785", "time": ["00:00-24:00"], "star": 0.0, "review": 0}, {"name": "銀行ATM イーネット ファミリーマート掛川家代の里 共同出張所", "address": "静岡県掛川市家代の里3-2-1 ", "lat": 34.78871097, "lon": 137.97459384, "category": "ATM", "category_id": "0402785", "time": ["00:00-24:00"], "star": 0.0, "review": 0}, {"name": "ゆうちょ銀行 和田岡簡易郵便局", "address": "静岡県掛川市吉岡貝戸919-2", "lat": 34.7907819, "lon": 137.953376, "category": "銀行", "category_id": "0402596", "time": [], "star": 0.0, "review": 0}, {"name": "JAバンク ATM 掛川市農業協同組合(JA掛川市)西部営農経済センター", "address": "静岡県掛川市吉岡696-3", "lat": 34.7834683, "lon": 137.954496, "category": "ATM", "category_id": "0402785", "time": [], "star": 0.0, "review": 0}]}, "top_restaurant": {"name": "居酒屋ふる里", "category": "居酒屋", "star": 4.83, "review": 2}}, {"name": "さぎの宮", "name_en": "Saginomiya", "lat": 34.7575253, "lon": 137.7574892, "osm_id": 7603799192, "operator": "", "railway": "station", "wikidata": "Q7399284", "wikipedia_tag": "ja:さぎの宮駅", "lines": [], "pref": "静岡県", "wikipedia_text": "さぎの宮駅（さぎのみやえき）は、静岡県浜松市中央区大瀬町にある遠州鉄道鉄道線の駅である。駅番号はET09。", "wikipedia_image": "https://upload.wikimedia.org/wikipedia/commons/3/3d/ET-Saginomiya_Station-Building.jpg", "nearest_convenience": {"name": "セブン-イレブン", "lat": 34.7580419, "lon": 137.7571504, "address": "", "distance_m": 65, "brand": "7-ELEVEN"}, "nearest_restaurant": {"name": "かつや", "lat": 34.7604424, "lon": 137.753706, "address": "", "distance_m": 474, "cuisine": "fried_food"}, "nearby_pois": {"コンビニ": [{"name": "セブンイレブン 浜松大瀬町", "address": "静岡県浜松市中央区大瀬町472-7", "lat": 34.7579854, "lon": 137.7571429, "category": "コンビニ", "category_id": "0200487", "time": ["00:00-24:00"], "star": 4.36, "review": 33}, {"name": "ファミリーマート 浜松有玉北店", "address": "静岡県浜松市中央区有玉北町1754-1", "lat": 34.7600017, "lon": 137.7539235, "category": "コンビニ", "category_id": "0200487", "time": ["00:00-24:00"], "star": 4.08, "review": 36}, {"name": "ローソン 浜松有玉南", "address": "静岡県浜松市中央区有玉南町1486-1", "lat": 34.7535691, "lon": 137.7497829, "category": "コンビニ", "category_id": "0200487", "time": ["00:00-24:00"], "star": 4.26, "review": 45}], "ラーメン": [{"name": "ラーメン山岡家 浜松有玉店", "address": "静岡県浜松市東区有玉北町2281-1", "lat": 34.75919623, "lon": 137.75264592, "category": "ラーメン店", "category_id": "0100097", "time": ["00:00-24:00"], "star": 3.69, "review": 62}, {"name": "麺匠家 マックス 有玉店", "address": "静岡県浜松市中央区有玉南町462-1", "lat": 34.75856604, "lon": 137.75292819, "category": "ラーメン店", "category_id": "0100097", "time": ["11:00-25:00"], "star": 4.04, "review": 48}, {"name": "奉仕丸", "address": "静岡県浜松市中央区有玉北町1611-2", "lat": 34.75933461, "lon": 137.75603557, "category": "飲食店", "category_id": "0102732", "time": ["11:00-14:00", "18:00-20:30"], "star": 3.72, "review": 23}, {"name": "京都北白川ラーメン魁力屋 浜松有玉店", "address": "静岡県浜松市中央区有玉南町1922番地1号 ", "lat": 34.75133605, "lon": 137.74956099, "category": "ラーメン店", "category_id": "0100097", "time": ["10:00-24:00"], "star": 4.02, "review": 36}, {"name": "麺屋 山彦", "address": "静岡県浜松市中央区小池町693", "lat": 34.75059967, "lon": 137.75986887, "category": "つけ麺店", "category_id": "0102844", "time": ["11:00-14:00", "18:00-21:00"], "star": 3.54, "review": 26}, {"name": "麺屋はやたろう 有玉店", "address": "静岡県浜松市中央区有玉南町1353-1", "lat": 34.75468011, "lon": 137.7505708, "category": "ラーメン店", "category_id": "0100097", "time": ["11:30-14:30", "18:00-24:00"], "star": 3.87, "review": 29}, {"name": "餃子の砂子", "address": "静岡県浜松市中央区有玉北町1589", "lat": 34.75881387, "lon": 137.75711803, "category": "餃子店", "category_id": "0102733", "time": ["11:30-21:00"], "star": 4.12, "review": 67}, {"name": "むら松", "address": "静岡県浜松市中央区小池町163-2", "lat": 34.75474046, "lon": 137.76368335, "category": "和食店", "category_id": "0100126", "time": ["11:30-14:00", "17:00-23:00"], "star": 4.14, "review": 6}], "飲食店": [{"name": "いっ福茶屋 しき彩", "address": "静岡県浜松市中央区有玉北町2297-1 四季彩堂有玉本店", "lat": 34.758351688661, "lon": 137.75221752647, "category": "カフェ・喫茶", "category_id": "0100344", "time": ["11:00-17:30"], "star": 3.71, "review": 3}, {"name": "Soraweach", "address": "静岡県浜松市中央区小池町68-1", "lat": 34.7502145, "lon": 137.7636271, "category": "タイ料理店", "category_id": "0100629", "time": [], "star": 4.5, "review": 0}, {"name": "奉仕丸", "address": "静岡県浜松市中央区有玉北町1611-2", "lat": 34.75933461, "lon": 137.75603557, "category": "飲食店", "category_id": "0102732", "time": ["11:00-14:00", "18:00-20:30"], "star": 3.72, "review": 23}, {"name": "むつみ屋有玉店", "address": "静岡県浜松市中央区有玉南町549-4", "lat": 34.75664655, "lon": 137.75201016, "category": "定食屋", "category_id": "0101441", "time": ["11:00-17:00"], "star": 4.26, "review": 53}, {"name": "餃子の砂子", "address": "静岡県浜松市中央区有玉北町1589", "lat": 34.75881387, "lon": 137.75711803, "category": "餃子店", "category_id": "0102733", "time": ["11:30-21:00"], "star": 4.12, "review": 67}, {"name": "広島お好み焼きタイラ", "address": "静岡県浜松市東区有玉南町508-3 広島お好み焼き　タイラ", "lat": 34.75619346, "lon": 137.75217198, "category": "和食店", "category_id": "0100126", "time": ["11:00-14:00", "16:00-20:30"], "star": 4.25, "review": 62}, {"name": "さわもと", "address": "静岡県浜松市中央区有玉北町1759", "lat": 34.76025335, "lon": 137.75437367, "category": "居酒屋", "category_id": "0101495", "time": ["11:30-14:00", "17:00-24:00"], "star": 4.06, "review": 10}, {"name": "食事処 柏や", "address": "静岡県浜松市中央区大瀬町642", "lat": 34.76202672, "lon": 137.76267968, "category": "定食屋", "category_id": "0101441", "time": ["11:30-14:00", "17:00-20:00"], "star": 3.96, "review": 12}, {"name": "奈加島", "address": "静岡県浜松市中央区有玉南町1363-1", "lat": 34.75373801, "lon": 137.75063895, "category": "和食店", "category_id": "0100126", "time": ["11:30-14:00", "17:30-23:00"], "star": 4.09, "review": 26}, {"name": "星乃珈琲店 浜松有玉店", "address": "静岡県浜松市中央区有玉南町581-4", "lat": 34.7564521, "lon": 137.7510686, "category": "コーヒー店", "category_id": "0100496", "time": ["08:00-20:00"], "star": 4.12, "review": 61}, {"name": "亀庵総本店 有玉店", "address": "静岡県浜松市中央区有玉北町789-1", "lat": 34.76512767, "lon": 137.75586152, "category": "和食店", "category_id": "0100126", "time": ["11:00-21:30"], "star": 4.17, "review": 44}, {"name": "さわやか 浜松有玉店", "address": "静岡県浜松市東区有玉南町547-1 ", "lat": 34.75629381, "lon": 137.751838, "category": "ハンバーグ店", "category_id": "0100571", "time": ["10:45-22:00"], "star": 4.44, "review": 205}, {"name": "珈楽庵浜松店", "address": "静岡県浜松市中央区有玉北町1229", "lat": 34.7649914, "lon": 137.75948055, "category": "コーヒー店", "category_id": "0100496", "time": ["08:00-20:00"], "star": 4.16, "review": 50}, {"name": "やよい軒 浜松有玉店", "address": "静岡県浜松市中央区有玉南町570-1", "lat": 34.7573215, "lon": 137.7518629, "category": "定食屋", "category_id": "0101441", "time": ["10:00-23:00"], "star": 3.98, "review": 53}, {"name": "中国料理 正木", "address": "静岡県浜松市中央区小池町928-2", "lat": 34.74990069, "lon": 137.76287734, "category": "中華料理店", "category_id": "0100990", "time": ["11:30-14:00", "17:30-21:00"], "star": 4.46, "review": 16}, {"name": "むら松", "address": "静岡県浜松市中央区小池町163-2", "lat": 34.75474046, "lon": 137.76368335, "category": "和食店", "category_id": "0100126", "time": ["11:30-14:00", "17:00-23:00"], "star": 4.14, "review": 6}, {"name": "佐の寿し", "address": "静岡県浜松市中央区大瀬町27-120", "lat": 34.75619161, "lon": 137.76249019, "category": "寿司店", "category_id": "0100101", "time": ["11:30-13:45", "17:00-21:30"], "star": 4.08, "review": 15}, {"name": "磯ずし", "address": "静岡県浜松市中央区大瀬町27-167", "lat": 34.754914318667, "lon": 137.76401719643, "category": "寿司店", "category_id": "0100101", "time": [], "star": 4.17, "review": 6}, {"name": "エ カリーナ", "address": "静岡県浜松市中央区小池町153", "lat": 34.75415023, "lon": 137.76327429, "category": "イタリア料理店", "category_id": "0100263", "time": ["11:30-13:30", "17:30-21:00"], "star": 3.83, "review": 5}, {"name": "鐘庵 浜松有玉店", "address": "静岡県浜松市中央区有玉南町1602-1", "lat": 34.75259007, "lon": 137.74970166, "category": "蕎麦店", "category_id": "0100034", "time": ["10:30-21:00"], "star": 4.23, "review": 39}], "カフェ": [{"name": "いっ福茶屋 しき彩", "address": "静岡県浜松市中央区有玉北町2297-1 四季彩堂有玉本店", "lat": 34.758351688661, "lon": 137.75221752647, "category": "カフェ・喫茶", "category_id": "0100344", "time": ["11:00-17:30"], "star": 3.71, "review": 3}, {"name": "珈楽庵浜松店", "address": "静岡県浜松市中央区有玉北町1229", "lat": 34.7649914, "lon": 137.75948055, "category": "コーヒー店", "category_id": "0100496", "time": ["08:00-20:00"], "star": 4.16, "review": 50}, {"name": "星乃珈琲店 浜松有玉店", "address": "静岡県浜松市中央区有玉南町581-4", "lat": 34.7564521, "lon": 137.7510686, "category": "コーヒー店", "category_id": "0100496", "time": ["08:00-20:00"], "star": 4.12, "review": 61}, {"name": "四季彩堂 有玉本店 食彩館", "address": "静岡県浜松市中央区有玉北町2297-3", "lat": 34.758369378661, "lon": 137.75202464647, "category": "スイーツ店", "category_id": "0100534", "time": ["10:00-19:50"], "star": 4.16, "review": 45}, {"name": "もとカフェ", "address": "静岡県浜松市中央区有玉北町1735-4 ", "lat": 34.75908517, "lon": 137.75417634, "category": "コーヒー豆店", "category_id": "0200497", "time": ["14:00-19:00"], "star": 0.0, "review": 0}, {"name": "むつみ屋有玉店", "address": "静岡県浜松市中央区有玉南町549-4", "lat": 34.75664655, "lon": 137.75201016, "category": "定食屋", "category_id": "0101441", "time": ["11:00-17:00"], "star": 4.26, "review": 53}, {"name": "もとカフェ", "address": "静岡県浜松市中央区有玉北町1735-4", "lat": 34.75909627, "lon": 137.75418078, "category": "建築リフォーム工事業", "category_id": "0501569", "time": [], "star": 0.0, "review": 0}, {"name": "薔薇", "address": "静岡県浜松市東区小池町32-1", "lat": 34.7545466, "lon": 137.763705, "category": "カフェ・喫茶", "category_id": "0100344", "time": [], "star": 0.0, "review": 0}, {"name": "淡竹屋", "address": "静岡県浜松市中央区有玉北町1300番地", "lat": 34.7638827, "lon": 137.75996068, "category": "健康食品店", "category_id": "0201107", "time": ["10:00-18:00"], "star": 3.83, "review": 7}, {"name": "アンタレス", "address": "静岡県浜松市東区有玉南町1482-3", "lat": 34.7531354, "lon": 137.7499312, "category": "カフェ・喫茶", "category_id": "0100344", "time": [], "star": 0.0, "review": 0}, {"name": "五右衛門 浜松有玉店", "address": "静岡県浜松市中央区有玉南町581-1", "lat": 34.75626769, "lon": 137.7513461, "category": "パスタ料理店", "category_id": "0100575", "time": ["11:30-21:30"], "star": 3.86, "review": 44}], "ドラッグストア": [{"name": "マツモトキヨシ ドラッグストア さぎの宮駅前店", "address": "静岡県浜松市中央区大瀬町489", "lat": 34.7571882, "lon": 137.7569569, "category": "ドラッグストア", "category_id": "0200699", "time": [], "star": 3.89, "review": 35}, {"name": "スギ薬局 浜松北店", "address": "静岡県浜松市中央区有玉北町1154-1", "lat": 34.7646785, "lon": 137.754822, "category": "ドラッグストア", "category_id": "0200699", "time": ["09:00-22:00"], "star": 4.13, "review": 22}, {"name": "杏林堂薬局 有玉南町店　調剤", "address": "静岡県浜松市中央区有玉南町519", "lat": 34.7552745, "lon": 137.75214087, "category": "調剤薬局", "category_id": "0202315", "time": ["09:00-21:45"], "star": 4.11, "review": 192}, {"name": "杏林堂薬局 有玉南町店", "address": "静岡県浜松市中央区有玉南町519", "lat": 34.7552745, "lon": 137.75214087, "category": "ドラッグストア", "category_id": "0200699", "time": ["08:00-19:00"], "star": 4.46, "review": 4}, {"name": "スギ薬局浜松北店", "address": "静岡県浜松市中央区有玉北町1154-1", "lat": 34.7647038, "lon": 137.7548422, "category": "ドラッグストア", "category_id": "0200699", "time": [], "star": 4.0, "review": 7}, {"name": "アトム薬局", "address": "静岡県浜松市 中央区有玉北町1760-10", "lat": 34.7603519, "lon": 137.7546869, "category": "調剤薬局", "category_id": "0202315", "time": ["09:00-19:00"], "star": 0.0, "review": 0}, {"name": "Ｖ・drug 浜松有玉薬局", "address": "静岡県浜松市東区有玉南町720-1", "lat": 34.75663828, "lon": 137.75530432, "category": "調剤薬局", "category_id": "0202315", "time": [], "star": 3.0, "review": 1}, {"name": "おあしす薬局", "address": "静岡県浜松市中央区有玉南町395-2", "lat": 34.75666826, "lon": 137.75435995, "category": "調剤薬局", "category_id": "0202315", "time": ["09:00-18:30"], "star": 0.0, "review": 0}, {"name": "このみ薬局小池店", "address": "静岡県浜松市 中央区小池町535-1", "lat": 34.7515588, "lon": 137.7565467, "category": "調剤薬局", "category_id": "0202315", "time": ["08:30-18:30"], "star": 0.0, "review": 0}, {"name": "有玉あきは薬局", "address": "静岡県浜松市中央区有玉北町1992-2", "lat": 34.762466, "lon": 137.75015525, "category": "調剤薬局", "category_id": "0202315", "time": ["09:00-17:00"], "star": 0.0, "review": 0}, {"name": "株式会社マス・メディカル", "address": "静岡県浜松市 中央区有玉北町1992-2", "lat": 34.76248739, "lon": 137.75015136, "category": "調剤薬局", "category_id": "0202315", "time": [], "star": 0.0, "review": 0}, {"name": "有限会社少林堂", "address": "静岡県浜松市 中央区有玉北町770-3", "lat": 34.76582913, "lon": 137.75676288, "category": "指圧・マッサージ", "category_id": "0400029", "time": [], "star": 0.0, "review": 0}], "ATM": [{"name": "セブン銀行 浜松大瀬町店", "address": "静岡県浜松市中央区大瀬町472-7", "lat": 34.7580243, "lon": 137.757132, "category": "ATM", "category_id": "0402785", "time": ["00:00-24:00"], "star": 0.0, "review": 0}, {"name": "ゆうちょ銀行 浜松有玉郵便局", "address": "静岡県浜松市中央区有玉南町287", "lat": 34.7571401, "lon": 137.754992, "category": "銀行", "category_id": "0402596", "time": [], "star": 3.63, "review": 7}, {"name": "清水銀行 有玉支店", "address": "静岡県浜松市中央区有玉北町1737", "lat": 34.7593712, "lon": 137.7532486, "category": "銀行", "category_id": "0402596", "time": ["09:00-15:00"], "star": 3.0, "review": 1}, {"name": "JAバンク とぴあ浜松農業協同組合(JAとぴあ浜松)有玉支店", "address": "静岡県浜松市中央区有玉南町1299-1", "lat": 34.7554558, "lon": 137.750978, "category": "銀行", "category_id": "0402596", "time": [], "star": 4.5, "review": 1}, {"name": "清水銀行 ATM 有玉支店", "address": "静岡県浜松市中央区有玉北町1737", "lat": 34.7593326, "lon": 137.753336, "category": "ATM", "category_id": "0402785", "time": [], "star": 0.0, "review": 0}, {"name": "ゆうちょ銀行 積志郵便局", "address": "静岡県浜松市中央区有玉北町774-1", "lat": 34.7655437, "lon": 137.756102, "category": "銀行", "category_id": "0402596", "time": ["09:00-19:00"], "star": 4.13, "review": 10}, {"name": "ゆうちょ銀行 ATM 浜松有玉郵便局", "address": "静岡県浜松市中央区有玉南町287", "lat": 34.7571771, "lon": 137.754944, "category": "ATM", "category_id": "0402785", "time": [], "star": 0.0, "review": 0}, {"name": "静岡銀行ATM", "address": "静岡県浜松市中央区有玉南町519", "lat": 34.75552725, "lon": 137.75204779, "category": "銀行", "category_id": "0402596", "time": [], "star": 0.0, "review": 0}, {"name": "銀行ATM イーネット ファミリーマート浜松有玉北 共同出張所", "address": "静岡県浜松市中央区有玉北町1754-1 ", "lat": 34.759995, "lon": 137.753922, "category": "ATM", "category_id": "0402785", "time": ["00:00-24:00"], "star": 0.0, "review": 0}, {"name": "静岡銀行 ATM 杏林堂薬局有玉南町店", "address": "静岡県浜松市中央区有玉南町519", "lat": 34.7553052, "lon": 137.751989, "category": "ATM", "category_id": "0402785", "time": [], "star": 0.0, "review": 0}, {"name": "JAバンク ATM とぴあ浜松農業協同組合(JAとぴあ浜松)有玉支店", "address": "静岡県浜松市中央区有玉南町1299-1", "lat": 34.7554772, "lon": 137.7509382, "category": "ATM", "category_id": "0402785", "time": [], "star": 0.0, "review": 0}, {"name": "ゆうちょ銀行 浜松鷺宮郵便局", "address": "静岡県浜松市中央区小池町1", "lat": 34.7530125, "lon": 137.765743, "category": "銀行", "category_id": "0402596", "time": [], "star": 4.0, "review": 9}, {"name": "浜松磐田信用金庫 有玉支店", "address": "静岡県浜松市中央区有玉北町1746-1", "lat": 34.7595184, "lon": 137.7535291, "category": "信用金庫", "category_id": "0401098", "time": ["09:00-15:00"], "star": 0.0, "review": 1}, {"name": "ゆうちょ銀行 ATM 積志郵便局", "address": "静岡県浜松市中央区有玉北町774-1", "lat": 34.7654953, "lon": 137.756176, "category": "ATM", "category_id": "0402785", "time": [], "star": 0.0, "review": 0}, {"name": "ゆうちょ銀行 ATM 浜松鷺宮郵便局", "address": "静岡県浜松市中央区小池町1", "lat": 34.7530125, "lon": 137.765717, "category": "ATM", "category_id": "0402785", "time": [], "star": 0.0, "review": 0}, {"name": "ローソン銀行 浜松有玉南共同出張所", "address": "静岡県浜松市中央区有玉南町1486-1", "lat": 34.7534961, "lon": 137.749805, "category": "ATM", "category_id": "0402785", "time": ["00:00-24:00"], "star": 0.0, "review": 0}, {"name": "浜松いわた信用金庫有玉文書管理センター有玉用度品管理センター", "address": "静岡県浜松市中央区有玉北町1749-1", "lat": 34.75997337, "lon": 137.75359823, "category": "信用金庫", "category_id": "0401098", "time": [], "star": 0.0, "review": 0}], "スーパーマーケット": [{"name": "遠鉄ストア マツモトキヨシさぎの宮駅前店", "address": "静岡県浜松市中央区大瀬町489", "lat": 34.7572806, "lon": 137.756922, "category": "スーパー", "category_id": "0200612", "time": ["09:00-20:30"], "star": 4.01, "review": 70}, {"name": "マツモトキヨシ ドラッグストア さぎの宮駅前店", "address": "静岡県浜松市中央区大瀬町489", "lat": 34.7571882, "lon": 137.7569569, "category": "ドラッグストア", "category_id": "0200699", "time": [], "star": 3.89, "review": 35}, {"name": "杏林堂薬局 有玉南町店　調剤", "address": "静岡県浜松市中央区有玉南町519", "lat": 34.7552745, "lon": 137.75214087, "category": "調剤薬局", "category_id": "0202315", "time": ["09:00-21:45"], "star": 4.11, "review": 192}]}, "top_restaurant": {"name": "Soraweach", "category": "タイ料理店", "star": 4.5, "review": 0}}, {"name": "ひらんだ", "name_en": "Hiranda", "lat": 35.1649404, "lon": 138.1684848, "osm_id": 11699754240, "operator": "", "railway": "station", "wikidata": "Q5769417", "wikipedia_tag": "ja:ひらんだ駅", "lines": [], "pref": "静岡県", "wikipedia_text": "ひらんだ駅（ひらんだえき）は、静岡県榛原郡川根本町犬間にある大井川鐵道井川線の駅である。\n漢字では「平田」（ひらんだ）と書くが、難読地名のため駅名は平仮名とされている。", "wikipedia_image": "https://upload.wikimedia.org/wikipedia/commons/7/7c/Hiranda-Sta.jpg", "nearest_restaurant": {"name": "天狗石茶屋", "lat": 35.1803906, "lon": 138.1855346, "address": "", "distance_m": 2314, "cuisine": ""}, "nearby_pois": {}}, {"name": "アプトいちしろ", "name_en": "Abt Ichishiro", "lat": 35.1673085, "lon": 138.1448136, "osm_id": 11699754243, "operator": "", "railway": "station", "wikidata": "Q4669999", "wikipedia_tag": "ja:アプトいちしろ駅", "lines": [], "pref": "静岡県", "wikipedia_text": "アプトいちしろ駅（アプトいちしろえき）は静岡県榛原郡川根本町梅地にある、大井川鐵道井川線の駅である。", "wikipedia_image": "https://upload.wikimedia.org/wikipedia/commons/b/b2/ABT-Ichishiro-Sta.jpg", "nearest_restaurant": {"name": "古民家お茶カフェ山口屋", "lat": 35.174763, "lon": 138.1196821, "address": "", "distance_m": 2430, "cuisine": ""}, "nearby_pois": {"飲食店": [{"name": "森と湖の里", "address": "静岡県榛原郡川根本町梅地県道388号線", "lat": 35.164678058041, "lon": 138.1514219434, "category": "蕎麦店", "category_id": "0100034", "time": [], "star": 0.0, "review": 0}]}}, {"name": "ジヤトコ前", "name_en": "Jatco-mae", "lat": 35.1576341, "lon": 138.6901224, "osm_id": 7986304497, "operator": "", "railway": "station", "wikidata": "Q6164530", "wikipedia_tag": "ja:ジヤトコ前駅", "lines": [], "pref": "静岡県", "nearby_bus_stops": [{"name": "岳鉄ジヤトコ前駅", "lat": 35.1575639, "lon": 138.6897272, "distance_m": 37, "operator": ""}, {"name": "岳鉄ジヤトコ前駅", "lat": 35.1574589, "lon": 138.6897114, "distance_m": 42, "operator": ""}, {"name": "荒田島2", "lat": 35.1567781, "lon": 138.6885216, "distance_m": 174, "operator": ""}, {"name": "荒田島2北", "lat": 35.1581228, "lon": 138.6881871, "distance_m": 184, "operator": ""}, {"name": "南町", "lat": 35.1591807, "lon": 138.6881798, "distance_m": 247, "operator": ""}], "wikipedia_text": "ジヤトコ前駅（ジャトコまええき）は、静岡県富士市依田原町にある岳南電車岳南鉄道線の駅である。副称はジヤトコ1地区前（ジャトコいっちくまえ）。駅番号はGD02。\n隣の吉原駅とは2.3 km離れており、線内で最も駅間距離が長い。", "wikipedia_image": "https://upload.wikimedia.org/wikipedia/commons/6/66/Jatco_mae-eki01.JPG", "nearest_convenience": {"name": "セブン-イレブン", "lat": 35.1618079, "lon": 138.6867285, "address": "", "distance_m": 557, "brand": "7 ELEVEN"}, "nearest_restaurant": {"name": "保志奈食堂", "lat": 35.1609966, "lon": 138.6908678, "address": "", "distance_m": 380, "cuisine": "japanese"}, "nearby_pois": {"コンビニ": [{"name": "セブンイレブン 富士市荒田島", "address": "静岡県富士市荒田島町10-27", "lat": 35.1563266, "lon": 138.6899595, "category": "コンビニ", "category_id": "0200487", "time": ["00:00-24:00"], "star": 4.21, "review": 17}, {"name": "ファミリーマート 富士本吉原店", "address": "静岡県富士市今泉1-14-32", "lat": 35.1629064, "lon": 138.6921815, "category": "コンビニ", "category_id": "0200487", "time": ["00:00-24:00"], "star": 4.33, "review": 3}, {"name": "セブンイレブン 富士市八代町", "address": "静岡県富士市八代町8-20", "lat": 35.154324, "lon": 138.6951701, "category": "コンビニ", "category_id": "0200487", "time": ["00:00-24:00"], "star": 3.94, "review": 14}, {"name": "セブンイレブン 富士市御幸町", "address": "静岡県富士市御幸町4-1", "lat": 35.1617926, "lon": 138.6867348, "category": "コンビニ", "category_id": "0200487", "time": ["00:00-24:00"], "star": 4.24, "review": 18}, {"name": "ファミリーマート 富士新橋町店", "address": "静岡県富士市新橋町2-5", "lat": 35.1616454, "lon": 138.6959478, "category": "コンビニ", "category_id": "0200487", "time": ["00:00-24:00"], "star": 4.32, "review": 6}, {"name": "セブンイレブン 富士市津田町", "address": "静岡県富士市津田町121-1", "lat": 35.153638, "lon": 138.6826603, "category": "コンビニ", "category_id": "0200487", "time": ["00:00-24:00"], "star": 4.34, "review": 16}, {"name": "セブンイレブン 富士市新橋町", "address": "静岡県富士市新橋町3-6", "lat": 35.1616593, "lon": 138.6974254, "category": "コンビニ", "category_id": "0200487", "time": ["00:00-24:00"], "star": 4.09, "review": 8}, {"name": "セブンイレブン 富士緑町", "address": "静岡県富士市緑町6-35", "lat": 35.1597123, "lon": 138.6811021, "category": "コンビニ", "category_id": "0200487", "time": ["00:00-24:00"], "star": 3.76, "review": 15}, {"name": "ミニストップ 富士津田町店", "address": "静岡県富士市津田町146", "lat": 35.1544518, "lon": 138.6838796, "category": "コンビニ", "category_id": "0200487", "time": [], "star": 4.0, "review": 12}, {"name": "セブンイレブン 富士市高嶺町", "address": "静岡県富士市高嶺町3-12", "lat": 35.1565266, "lon": 138.6828269, "category": "コンビニ", "category_id": "0200487", "time": ["05:00-23:00"], "star": 3.82, "review": 17}, {"name": "ザ・ビッグ 富士荒田島店", "address": "静岡県富士市荒田島町11-8", "lat": 35.15629328, "lon": 138.68809302, "category": "ディスカウントストア", "category_id": "0200677", "time": ["07:00-22:00"], "star": 3.93, "review": 322}, {"name": "マックスバリュエクスプレス富士御幸町店", "address": "静岡県富士市御幸町1番1号 ", "lat": 35.16149266, "lon": 138.68564048, "category": "スーパー", "category_id": "0200612", "time": ["00:00-24:00"], "star": 4.01, "review": 52}, {"name": "食鮮館タイヨー 荒田島店", "address": "静岡県富士市荒田島町2-12", "lat": 35.1576209, "lon": 138.6860293, "category": "スーパー", "category_id": "0200612", "time": ["10:00-19:00"], "star": 3.0, "review": 90}, {"name": "リカー&コンビニエンスはやし", "address": "静岡県富士市吉原3丁目5-4", "lat": 35.16437316, "lon": 138.68678536, "category": "", "category_id": "", "time": ["08:00-23:00"], "star": 4.5, "review": 0}], "ラーメン": [{"name": "麺家 虎龍", "address": "静岡県富士市南町7-51", "lat": 35.15901268, "lon": 138.68652401, "category": "ラーメン店", "category_id": "0100097", "time": ["10:00-19:00"], "star": 3.88, "review": 10}, {"name": "ラーメン居酒屋友一", "address": "静岡県富士市吉原3-1-2", "lat": 35.162466708703, "lon": 138.6896236499, "category": "ラーメン店", "category_id": "0100097", "time": ["11:00-13:30", "17:00-24:00"], "star": 3.38, "review": 1}, {"name": "ばんから 旭川味噌ラーメン 富士店", "address": "静岡県富士市津田54-1", "lat": 35.15605718, "lon": 138.68225752, "category": "ラーメン店", "category_id": "0100097", "time": ["11:00-24:00"], "star": 3.82, "review": 28}, {"name": "来来亭 富士吉原店", "address": "静岡県富士市八代町12", "lat": 35.15177739, "lon": 138.69577306, "category": "ラーメン店", "category_id": "0100097", "time": ["11:00-23:00"], "star": 4.11, "review": 75}, {"name": "大喜", "address": "静岡県富士市御幸町4-10", "lat": 35.161873737897, "lon": 138.68722567873, "category": "ラーメン店", "category_id": "0100097", "time": ["19:00-26:00"], "star": 3.62, "review": 9}, {"name": "極み豚骨 青達真", "address": "静岡県富士市中央町3-5-20 1F", "lat": 35.16182258, "lon": 138.68099625, "category": "ラーメン店", "category_id": "0100097", "time": ["11:00-15:00", "17:00-21:00"], "star": 3.12, "review": 17}, {"name": "富士吉原 魂心家", "address": "静岡県富士市依田原326-4", "lat": 35.15236594, "lon": 138.69315361, "category": "家系ラーメン店", "category_id": "0102859", "time": ["11:00-25:00"], "star": 3.64, "review": 61}, {"name": "ごはんどき 荒田島店", "address": "静岡県富士市荒田島町10-37", "lat": 35.1567625, "lon": 138.68973, "category": "定食屋", "category_id": "0101441", "time": ["11:00-17:00"], "star": 2.25, "review": 1}, {"name": "味いち", "address": "静岡県富士市吉原1-4-12", "lat": 35.16053111, "lon": 138.69115715, "category": "餃子店", "category_id": "0102733", "time": ["17:30-22:30"], "star": 3.96, "review": 8}, {"name": "らーめん 唐ジル", "address": "静岡県浜松市中区央町3-5-20", "lat": 35.1618444, "lon": 138.6809662, "category": "ラーメン店", "category_id": "0100097", "time": [], "star": 0.0, "review": 1}, {"name": "台湾料理 香味館 富士店", "address": "静岡県富士市八代町8-17", "lat": 35.1545318, "lon": 138.69491231, "category": "台湾料理店", "category_id": "0101283", "time": ["11:00-14:30", "17:00-25:30"], "star": 3.9, "review": 20}, {"name": "富士南町 個室居酒屋 いなほ", "address": "静岡県富士市南町3-26", "lat": 35.15966788, "lon": 138.68820856, "category": "居酒屋", "category_id": "0101495", "time": ["17:30-24:00"], "star": 3.6, "review": 13}, {"name": "ごはんどき 吉原店", "address": "静岡県富士市八代町12-12", "lat": 35.152158, "lon": 138.695129, "category": "定食屋", "category_id": "0101441", "time": ["11:00-15:00"], "star": 3.63, "review": 2}, {"name": "瓔珞", "address": "静岡県富士市吉原3-10-1", "lat": 35.16490781, "lon": 138.68535662, "category": "中華料理店", "category_id": "0100990", "time": ["11:00-14:00", "17:00-19:30"], "star": 3.46, "review": 8}, {"name": "焼肉すだく家族亭 富士店", "address": "静岡県富士市御幸町12-8", "lat": 35.1597, "lon": 138.684879, "category": "居酒屋", "category_id": "0101495", "time": ["17:00-22:30"], "star": 2.66, "review": 24}, {"name": "バーミヤン 富士今泉店", "address": "静岡県富士市今泉1丁目17-38 ", "lat": 35.16241, "lon": 138.6923, "category": "ファミリーレストラン", "category_id": "0100788", "time": ["10:00-23:30"], "star": 4.09, "review": 68}, {"name": "鐘庵 富士田島店", "address": "静岡県富士市田島141-1", "lat": 35.15207153, "lon": 138.69400046, "category": "蕎麦店", "category_id": "0100034", "time": ["11:00-21:30"], "star": 3.74, "review": 16}, {"name": "台湾料理鴻運来", "address": "静岡県富士市荒田島170-1", "lat": 35.15326807, "lon": 138.6917507, "category": "台湾料理店", "category_id": "0101283", "time": [], "star": 1.1, "review": 3}, {"name": "本手打 鯛屋", "address": "静岡県富士市吉原2-3-21 鯛屋旅館", "lat": 35.16313969, "lon": 138.6849986, "category": "蕎麦店", "category_id": "0100034", "time": ["11:00-14:30", "17:30-21:00"], "star": 3.67, "review": 11}], "飲食店": [{"name": "いっぷく茶屋 しき彩 四季彩堂 富士吉原", "address": "静岡県富士市今泉3-1-37", "lat": 35.162175938705, "lon": 138.69557347989, "category": "カフェ・喫茶", "category_id": "0100344", "time": [], "star": 3.99, "review": 35}, {"name": "はんなり 天ぷらと出汁茶漬けの店", "address": "静岡県富士市吉原4-3-5 大山ビル 2F", "lat": 35.1640362187, "lon": 138.68336126992, "category": "天ぷら店", "category_id": "0100155", "time": ["17:00-22:00"], "star": 3.85, "review": 3}, {"name": "カミレオンカフェ58", "address": "静岡県富士市吉原4-2-2", "lat": 35.163658907743, "lon": 138.68435327055, "category": "カフェ・喫茶", "category_id": "0100344", "time": [], "star": 0.0, "review": 0}, {"name": "アーバンカウボーイ", "address": "静岡県富士市吉原3-3-18", "lat": 35.162995037896, "lon": 138.68782597874, "category": "レストラン", "category_id": "0100111", "time": [], "star": 0.0, "review": 0}, {"name": "コラソン", "address": "静岡県富士市吉原3-1-3 1F", "lat": 35.162444387281, "lon": 138.6895479048, "category": "バー", "category_id": "0100536", "time": ["18:00-26:00"], "star": 0.0, "review": 0}, {"name": "牛恋愛", "address": "静岡県富士市吉原3-8-9", "lat": 35.164370833608, "lon": 138.68498849079, "category": "焼肉店", "category_id": "0101963", "time": [], "star": 0.0, "review": 0}, {"name": "和雅家のごはん まさ", "address": "静岡県富士市吉原2-11-8 ほんいちビル 1F", "lat": 35.162051338702, "lon": 138.6883241799, "category": "定食屋", "category_id": "0101441", "time": [], "star": 0.0, "review": 1}, {"name": "クーペ", "address": "静岡県富士市吉原2-8-12", "lat": 35.162813008702, "lon": 138.6877681599, "category": "パスタ料理店", "category_id": "0100575", "time": ["18:00-24:00"], "star": 0.0, "review": 0}, {"name": "序ノ口", "address": "静岡県富士市今泉1-10-6", "lat": 35.162986848702, "lon": 138.6902716899, "category": "居酒屋", "category_id": "0101495", "time": ["17:30-23:00"], "star": 2.33, "review": 2}, {"name": "八百万屋", "address": "静岡県富士市今泉1-10-6", "lat": 35.162991868702, "lon": 138.6902239999, "category": "定食屋", "category_id": "0101441", "time": [], "star": 0.0, "review": 0}, {"name": "なごみ", "address": "静岡県富士市中央町2-7-11 ラホール富士2階", "lat": 35.160656385916, "lon": 138.68091997101, "category": "カフェ・喫茶", "category_id": "0100344", "time": [], "star": 0.0, "review": 0}, {"name": "DEN", "address": "静岡県富士市吉原3-6-20清水ビル 1F", "lat": 35.163693, "lon": 138.686083, "category": "おでん店", "category_id": "0100040", "time": ["18:00-24:00"], "star": 0.0, "review": 0}, {"name": "ヤミーズ", "address": "静岡県富士市荒田島町9-26", "lat": 35.15778838, "lon": 138.68802969, "category": "レストラン", "category_id": "0100111", "time": [], "star": 4.5, "review": 0}, {"name": "わかさ", "address": "静岡県富士市吉原2-6-14", "lat": 35.16346743, "lon": 138.68592656, "category": "和食店", "category_id": "0100126", "time": [], "star": 3.0, "review": 1}, {"name": "おでん 和ぎ", "address": "静岡県富士市今泉1-3-1 スカイプラザシゲノブ 1F東", "lat": 35.163605458701, "lon": 138.68821642991, "category": "居酒屋", "category_id": "0101495", "time": [], "star": 0.0, "review": 1}, {"name": "ラ ソワレ", "address": "静岡県富士市吉原2-1-3", "lat": 35.162468137896, "lon": 138.68626557874, "category": "ワインバー", "category_id": "0100954", "time": ["19:30-24:00"], "star": 4.0, "review": 1}, {"name": "おでん 響", "address": "静岡県富士市中央町2-2-17", "lat": 35.162799659459, "lon": 138.68295608104, "category": "おでん店", "category_id": "0100040", "time": [], "star": 0.0, "review": 0}, {"name": "究極の生ジュース寿太郎号富士", "address": "静岡県富士市荒田島町 11-20", "lat": 35.155879974365234, "lon": 138.68930053710938, "category": "飲食店", "category_id": "0102732", "time": ["10:00-18:00"], "star": 4.5, "review": 1}, {"name": "キチトナルキッチン 富士高嶺店", "address": "静岡県富士市高嶺町11-9", "lat": 35.15659183, "lon": 138.68059297, "category": "レストラン", "category_id": "0100111", "time": ["11:00-15:00", "17:00-22:00"], "star": 4.07, "review": 60}, {"name": "Kmino-soba", "address": "静岡県富士市吉原2-13-11", "lat": 35.162278257198, "lon": 138.68744447603, "category": "定食屋", "category_id": "0101441", "time": [], "star": 0.0, "review": 0}], "カフェ": [{"name": "いっぷく茶屋 しき彩 四季彩堂 富士吉原", "address": "静岡県富士市今泉3-1-37", "lat": 35.162175938705, "lon": 138.69557347989, "category": "カフェ・喫茶", "category_id": "0100344", "time": [], "star": 3.99, "review": 35}, {"name": "カミレオンカフェ58", "address": "静岡県富士市吉原4-2-2", "lat": 35.163658907743, "lon": 138.68435327055, "category": "カフェ・喫茶", "category_id": "0100344", "time": [], "star": 0.0, "review": 0}, {"name": "なごみ", "address": "静岡県富士市中央町2-7-11 ラホール富士2階", "lat": 35.160656385916, "lon": 138.68091997101, "category": "カフェ・喫茶", "category_id": "0100344", "time": [], "star": 0.0, "review": 0}, {"name": "四季彩堂富士吉原店", "address": "静岡県富士市今泉3丁目1-3", "lat": 35.16244757, "lon": 138.69590666, "category": "カフェ・喫茶", "category_id": "0100344", "time": ["09:30-18:50"], "star": 4.2, "review": 13}, {"name": "アラビカコーヒー 富士店", "address": "静岡県富士市緑町6-30", "lat": 35.160010137896, "lon": 138.68050487872, "category": "コーヒー店", "category_id": "0100496", "time": ["09:30-19:00"], "star": 4.18, "review": 29}, {"name": "COFFEE SHOP アドニス", "address": "静岡県富士市吉原2丁目3-16", "lat": 35.16331078, "lon": 138.68452143, "category": "カフェ・喫茶", "category_id": "0100344", "time": ["11:00-21:00"], "star": 3.9, "review": 47}, {"name": "Kamileon Cafe 58", "address": "静岡県富士市吉原4-2-2", "lat": 35.1636619487, "lon": 138.68436217992, "category": "カフェ・喫茶", "category_id": "0100344", "time": ["09:00-18:00"], "star": 4.08, "review": 11}, {"name": "むしか", "address": "静岡県富士市吉原3-4-12", "lat": 35.1645352487, "lon": 138.68718584992, "category": "カフェ・喫茶", "category_id": "0100344", "time": ["12:00-20:00"], "star": 3.58, "review": 6}, {"name": "Kitchen Corie", "address": "静岡県富士市高嶺町7-28 高嶺ツインビルA 1F", "lat": 35.158421568702, "lon": 138.68130179986, "category": "カフェ・喫茶", "category_id": "0100344", "time": ["11:00-16:00", "17:30-20:30"], "star": 3.34, "review": 11}, {"name": "山家", "address": "静岡県富士市吉原2-11-3", "lat": 35.16195233, "lon": 138.6879983, "category": "カフェ・喫茶", "category_id": "0100344", "time": ["17:00-22:00"], "star": 2.5, "review": 1}, {"name": "きりんのたんそく", "address": "静岡県富士市今泉1丁目10-6", "lat": 35.1629524, "lon": 138.6902709, "category": "カフェ・喫茶", "category_id": "0100344", "time": [], "star": 0.0, "review": 0}, {"name": "Community Space ANTERA", "address": "静岡県富士市吉原1-3-1 WAKAOビル", "lat": 35.161068868704, "lon": 138.69020397988, "category": "ダイニングバー", "category_id": "0100645", "time": ["11:00-24:00"], "star": 2.0, "review": 0}, {"name": "キチトナルキッチン 富士高嶺店", "address": "静岡県富士市高嶺町11-9", "lat": 35.15659183, "lon": 138.68059297, "category": "レストラン", "category_id": "0100111", "time": ["11:00-15:00", "17:00-22:00"], "star": 4.07, "review": 60}, {"name": "ぱんぷきん", "address": "静岡県富士市御幸町12-6 2F", "lat": 35.159672148703, "lon": 138.68509070987, "category": "カフェ・喫茶", "category_id": "0100344", "time": [], "star": 0.0, "review": 0}, {"name": "キャプテン", "address": "静岡県富士市今泉1丁目11-39", "lat": 35.1633618, "lon": 138.6907324, "category": "カフェ・喫茶", "category_id": "0100344", "time": [], "star": 0.0, "review": 0}, {"name": "杉山フルーツ", "address": "静岡県富士市吉原2-4-3", "lat": 35.16359102, "lon": 138.6851633, "category": "スイーツ店", "category_id": "0100534", "time": ["09:00-17:00"], "star": 4.29, "review": 49}, {"name": "Zappaビル", "address": "静岡県富士市中央町1丁目10-9", "lat": 35.1598298, "lon": 138.6841748, "category": "カフェ・喫茶", "category_id": "0100344", "time": [], "star": 0.0, "review": 0}, {"name": "ポワポワ", "address": "静岡県富士市御幸町11-17", "lat": 35.15819111, "lon": 138.68446172, "category": "飲食店", "category_id": "0102732", "time": ["11:00-21:00"], "star": 0.0, "review": 1}, {"name": "リリー茶房", "address": "静岡県富士市吉原2丁目2-10", "lat": 35.1626885, "lon": 138.6858679, "category": "カフェ・喫茶", "category_id": "0100344", "time": [], "star": 0.0, "review": 0}, {"name": "快活CLUB 富士吉原店", "address": "静岡県富士市依田原325-1", "lat": 35.1524909, "lon": 138.6929314, "category": "ネットカフェ", "category_id": "0100271", "time": [], "star": 4.16, "review": 23}], "ドラッグストア": [{"name": "コスモス 吉原店", "address": "静岡県富士市南町5-15", "lat": 35.1599067, "lon": 138.6888457, "category": "ドラッグストア", "category_id": "0200699", "time": ["10:00-21:00"], "star": 3.96, "review": 13}, {"name": "ウエルシア富士南町店", "address": "静岡県富士市南町6-10", "lat": 35.159049, "lon": 138.687553, "category": "ドラッグストア", "category_id": "0200699", "time": ["08:00-24:00"], "star": 4.25, "review": 46}, {"name": "ウエルシア富士今泉店", "address": "静岡県富士市今泉3-5-1", "lat": 35.16443, "lon": 138.696796, "category": "ドラッグストア", "category_id": "0200699", "time": ["09:00-22:00"], "star": 4.38, "review": 6}, {"name": "フジイチ薬局", "address": "静岡県富士市吉原2丁目7-10", "lat": 35.1631341, "lon": 138.6869098, "category": "調剤薬局", "category_id": "0202315", "time": ["09:00-19:00"], "star": 0.0, "review": 0}, {"name": "ななほし薬局", "address": "静岡県富士市荒田島町9-26-2", "lat": 35.15799863, "lon": 138.68812912, "category": "調剤薬局", "category_id": "0202315", "time": [], "star": 0.0, "review": 0}, {"name": "うさぎ薬局 荒田島店", "address": "静岡県富士市荒田島町3-20 1F", "lat": 35.15719595, "lon": 138.68460365, "category": "調剤薬局", "category_id": "0202315", "time": [], "star": 0.0, "review": 0}, {"name": "合資会社近藤薬局", "address": "静岡県富士市吉原2丁目8-21", "lat": 35.1626705, "lon": 138.6875162, "category": "調剤薬局", "category_id": "0202315", "time": ["11:00-21:00"], "star": 0.0, "review": 0}, {"name": "原田薬局御幸通り店", "address": "静岡県富士市荒田島町6-20", "lat": 35.156280517578125, "lon": 138.68429565429688, "category": "調剤薬局", "category_id": "0202315", "time": [], "star": 0.0, "review": 0}, {"name": "富士漢方薬局", "address": "静岡県富士市中央町2丁目5-29", "lat": 35.16074412, "lon": 138.68251887, "category": "調剤薬局", "category_id": "0202315", "time": ["09:00-19:00"], "star": 4.0, "review": 0}, {"name": "はなまる薬局がっこう前店", "address": "静岡県富士市緑町2-34", "lat": 35.1589224, "lon": 138.68379124, "category": "調剤薬局", "category_id": "0202315", "time": ["08:30-18:00"], "star": 0.0, "review": 1}, {"name": "ユニスマイル薬局 たかね店", "address": "静岡県富士市高嶺町4-22 ", "lat": 35.15661544, "lon": 138.68182422, "category": "医療・薬・保険衛生関連", "category_id": "0401237", "time": ["08:30-18:30"], "star": 0.0, "review": 0}, {"name": "さくら薬局中央町店", "address": "静岡県富士市中央町1丁目5-23", "lat": 35.16237339, "lon": 138.68449004, "category": "調剤薬局", "category_id": "0202315", "time": [], "star": 0.0, "review": 0}, {"name": "はなまる薬局", "address": "静岡県富士市今泉2丁目1-33", "lat": 35.16399377, "lon": 138.69204621, "category": "調剤薬局", "category_id": "0202315", "time": [], "star": 0.0, "review": 0}, {"name": "まごころ薬局 津田店", "address": "静岡県富士市津田町183", "lat": 35.15200424194336, "lon": 138.68292236328125, "category": "調剤薬局", "category_id": "0202315", "time": ["08:30-19:00"], "star": 0.0, "review": 0}, {"name": "大黒屋望月薬局", "address": "静岡県富士市中央町1丁目5-12", "lat": 35.16272862, "lon": 138.68423641, "category": "調剤薬局", "category_id": "0202315", "time": [], "star": 0.0, "review": 0}, {"name": "アイン薬局富士吉原店", "address": "静岡県富士市吉原4丁目6-27-2", "lat": 35.1637321, "lon": 138.68279439, "category": "調剤薬局", "category_id": "0202315", "time": ["09:00-18:00"], "star": 0.0, "review": 0}, {"name": "アイセイ薬局 富士錦町店", "address": "静岡県富士市錦町1-42", "lat": 35.15885765, "lon": 138.67980305, "category": "調剤薬局", "category_id": "0202315", "time": ["08:30-18:30"], "star": 0.0, "review": 0}, {"name": "丸善薬舗", "address": "静岡県富士市今泉1丁目5-19", "lat": 35.16427373, "lon": 138.68976228, "category": "薬店", "category_id": "0202316", "time": [], "star": 0.0, "review": 0}, {"name": "はなまる薬局", "address": "静岡県 富士市 今泉2-79-38", "lat": 35.164042400813706, "lon": 138.6920338157303, "category": "", "category_id": "", "time": ["08:30-18:00"], "star": 0.0, "review": 0}, {"name": "長沢薬局", "address": "静岡県富士市吉原4丁目13-18", "lat": 35.16513945, "lon": 138.68522857, "category": "調剤薬局", "category_id": "0202315", "time": [], "star": 0.0, "review": 0}], "ATM": [{"name": "みずほ銀行 ATM ザ・ビッグ富士荒田島店出張所", "address": "静岡県富士市荒田島町11-8", "lat": 35.1563069, "lon": 138.688242, "category": "ATM", "category_id": "0402785", "time": [], "star": 4.0, "review": 1}, {"name": "スルガ銀行 富士吉原支店", "address": "静岡県富士市南町6-12", "lat": 35.1590124, "lon": 138.6878236, "category": "銀行", "category_id": "0402596", "time": ["09:00-15:00"], "star": 4.25, "review": 1}, {"name": "静岡銀行 吉原北支店", "address": "静岡県富士市今泉1-17-52", "lat": 35.1620371, "lon": 138.6937563, "category": "銀行", "category_id": "0402596", "time": ["09:00-15:00"], "star": 4.25, "review": 2}, {"name": "イオン銀行 ATM ザ・ビッグ富士荒田島店出張所(サービスカウンター)", "address": "静岡県富士市荒田島町11-8", "lat": 35.1563867, "lon": 138.688212, "category": "ATM", "category_id": "0402785", "time": ["07:00-22:00"], "star": 0.0, "review": 0}, {"name": "スルガ銀行 ATM 富士吉原支店", "address": "静岡県富士市南町6-12", "lat": 35.1590047, "lon": 138.687821, "category": "ATM", "category_id": "0402785", "time": [], "star": 0.0, "review": 0}, {"name": "清水銀行 吉原支店", "address": "静岡県富士市御幸町1-7", "lat": 35.1609261, "lon": 138.6856349, "category": "銀行", "category_id": "0402596", "time": ["09:00-15:00"], "star": 3.17, "review": 0}, {"name": "清水銀行富士ローンセンター", "address": "静岡県富士市御幸町1-7", "lat": 35.1607858, "lon": 138.68539634, "category": "銀行", "category_id": "0402596", "time": [], "star": 4.5, "review": 0}, {"name": "静岡銀行 吉原支店(しずぎん吉原プラザ)", "address": "静岡県富士市吉原4-1-10", "lat": 35.1634896, "lon": 138.6839323, "category": "銀行", "category_id": "0402596", "time": ["09:00-15:00"], "star": 4.0, "review": 2}, {"name": "セブン銀行 富士市荒田島店", "address": "静岡県富士市荒田島町10-27", "lat": 35.1562103, "lon": 138.689974, "category": "ATM", "category_id": "0402785", "time": ["00:00-24:00"], "star": 0.0, "review": 0}, {"name": "静岡銀行 ATM 富士市場", "address": "静岡県富士市田島100", "lat": 35.1504097, "lon": 138.693682, "category": "ATM", "category_id": "0402785", "time": [], "star": 4.5, "review": 0}, {"name": "清水銀行 ATM 吉原支店", "address": "静岡県富士市御幸町1-7", "lat": 35.1609026, "lon": 138.685648, "category": "ATM", "category_id": "0402785", "time": [], "star": 0.0, "review": 0}, {"name": "静岡銀行 ATM 吉原北支店", "address": "静岡県富士市今泉1-17-52", "lat": 35.1620412, "lon": 138.693767, "category": "ATM", "category_id": "0402785", "time": [], "star": 0.0, "review": 0}, {"name": "ゆうちょ銀行 富士依田橋郵便局", "address": "静岡県富士市依田橋町7-11", "lat": 35.1566961, "lon": 138.697364, "category": "銀行", "category_id": "0402596", "time": [], "star": 4.0, "review": 0}, {"name": "静岡中央銀行 ATM 吉原支店", "address": "静岡県富士市吉原2-4-4", "lat": 35.163534, "lon": 138.684897, "category": "ATM", "category_id": "0402785", "time": [], "star": 0.0, "review": 0}, {"name": "静岡銀行 ATM 西友富士今泉店", "address": "静岡県富士市今泉3-5-1", "lat": 35.1646982, "lon": 138.696902, "category": "ATM", "category_id": "0402785", "time": [], "star": 0.0, "review": 0}, {"name": "ゆうちょ銀行 吉原中央町郵便局", "address": "静岡県富士市中央町1-9-38", "lat": 35.1606854, "lon": 138.682916, "category": "銀行", "category_id": "0402596", "time": [], "star": 3.0, "review": 1}, {"name": "静岡銀行 ATM 吉原支店(しずぎん吉原プラザ)", "address": "静岡県富士市吉原4-1-10", "lat": 35.1634451, "lon": 138.683916, "category": "ATM", "category_id": "0402785", "time": [], "star": 0.0, "review": 1}, {"name": "JAバンク 富士伊豆農業協同組合(JAふじ伊豆)今泉支店", "address": "静岡県富士市今泉2-6-47", "lat": 35.1652136, "lon": 138.691783, "category": "銀行", "category_id": "0402596", "time": [], "star": 4.0, "review": 1}, {"name": "JAバンク ATM 富士伊豆農業協同組合(JAふじ伊豆)島田支店", "address": "静岡県富士市津田町120", "lat": 35.1541047, "lon": 138.6829241, "category": "ATM", "category_id": "0402785", "time": [], "star": 0.0, "review": 0}, {"name": "銀行ATM イーネット ファミリーマート富士本吉原 共同出張所", "address": "静岡県富士市今泉1-14-32 ", "lat": 35.1629064, "lon": 138.69213427, "category": "ATM", "category_id": "0402785", "time": ["00:00-24:00"], "star": 0.0, "review": 0}], "スーパーマーケット": [{"name": "ザ・ビッグ 富士荒田島店", "address": "静岡県富士市荒田島町11-8", "lat": 35.15629328, "lon": 138.68809302, "category": "ディスカウントストア", "category_id": "0200677", "time": ["07:00-22:00"], "star": 3.93, "review": 322}, {"name": "食鮮館タイヨー 荒田島店", "address": "静岡県富士市荒田島町2-12", "lat": 35.1576209, "lon": 138.6860293, "category": "スーパー", "category_id": "0200612", "time": ["10:00-19:00"], "star": 3.0, "review": 90}, {"name": "マックスバリュエクスプレス富士御幸町店", "address": "静岡県富士市御幸町1番1号 ", "lat": 35.16149266, "lon": 138.68564048, "category": "スーパー", "category_id": "0200612", "time": ["00:00-24:00"], "star": 4.01, "review": 52}, {"name": "西友 富士今泉店", "address": "静岡県富士市今泉3-5-1", "lat": 35.1646507, "lon": 138.6969699, "category": "スーパー", "category_id": "0200612", "time": ["00:00-24:00"], "star": 3.81, "review": 142}, {"name": "業務スーパー 吉原今泉店", "address": "静岡県富士市今泉1-4-6", "lat": 35.164434, "lon": 138.6883985, "category": "スーパー", "category_id": "0200612", "time": ["09:30-19:30"], "star": 4.11, "review": 58}, {"name": "インターナショナルハウス", "address": "静岡県富士市吉原2丁目11-13", "lat": 35.16190123, "lon": 138.68883349, "category": "スーパー", "category_id": "0200612", "time": ["11:00-19:00"], "star": 0.0, "review": 0}, {"name": "無印良品 西友富士今泉", "address": "静岡県富士市今泉３－５－１西友富士今泉店 １Ｆ", "lat": 35.16436458, "lon": 138.69688378, "category": "雑貨店", "category_id": "0201522", "time": ["10:00-20:00"], "star": 4.04, "review": 50}]}, "top_restaurant": {"name": "究極の生ジュース寿太郎号富士", "category": "飲食店", "star": 4.5, "review": 1}}, {"name": "フルーツパーク", "name_en": "Fruit Park", "lat": 34.8345062, "lon": 137.7325018, "osm_id": 382974421, "operator": "", "railway": "station", "wikidata": "Q5506377", "wikipedia_tag": "ja:フルーツパーク駅", "lines": ["天竜浜名湖鉄道天竜浜名湖線"], "pref": "静岡県", "wikipedia_text": "フルーツパーク駅（フルーツパークえき）は、静岡県浜松市浜名区都田町にある天竜浜名湖鉄道天竜浜名湖線の駅である。「KATANA」の副駅名がある。\n国鉄二俣線の第三セクター鉄道転換後に新設された。", "wikipedia_image": "https://upload.wikimedia.org/wikipedia/commons/8/88/FruitPark_Station.jpg", "nearest_convenience": {"name": "MINISTOP", "lat": 34.840664, "lon": 137.7485337, "address": "", "distance_m": 1615, "brand": ""}, "nearest_restaurant": {"name": "", "lat": 34.8249354, "lon": 137.7283406, "address": "", "distance_m": 1130, "cuisine": ""}, "nearby_pois": {"飲食店": [{"name": "なかやま", "address": "静岡県浜松市中央区都田町4161-1", "lat": 34.835610288606, "lon": 137.73388636727, "category": "和食店", "category_id": "0100126", "time": [], "star": 3.75, "review": 3}, {"name": "展望レストハウス パークウェイ", "address": "静岡県浜松市北区都田町4263-1 はままつフルーツパーク", "lat": 34.841090038601, "lon": 137.73114857732, "category": "レストラン", "category_id": "0100111", "time": [], "star": 3.6, "review": 2}, {"name": "バーベキューガーデン", "address": "静岡県浜松市浜名区都田町4263-1 はままつフルーツパーク時之栖", "lat": 34.838837132652, "lon": 137.73154678629, "category": "バーベキュー店", "category_id": "0100732", "time": ["10:30-14:00", "17:00-20:00"], "star": 3.5, "review": 8}, {"name": "ブロート リーベン 都田店", "address": "静岡県浜松市浜名区都田町3522-1", "lat": 34.82790661, "lon": 137.73487322, "category": "ベーカリー", "category_id": "0100522", "time": ["09:00-18:00"], "star": 4.28, "review": 94}, {"name": "PIZZA工房", "address": "静岡県浜松市浜名区都田町4263-1 はままつ フルーツパーク時之栖", "lat": 34.839855128603, "lon": 137.73239449731, "category": "ピザ店", "category_id": "0100780", "time": ["11:00-17:00"], "star": 3.51, "review": 10}, {"name": "バーベキュウハウス・マンゴー", "address": "静岡県浜松市北区都田町4263-1", "lat": 34.8399369, "lon": 137.7337424, "category": "", "category_id": "", "time": [], "star": 0.0, "review": 1}, {"name": "ペルレ", "address": "静岡県浜松市浜名区都田町4263-1 はままつフルーツパーク時之栖 フードコート", "lat": 34.839584695527, "lon": 137.73204367937, "category": "ビュッフェレストラン", "category_id": "0100764", "time": ["10:00-21:00"], "star": 3.8, "review": 15}, {"name": "アガプ", "address": "静岡県浜松市北区都田町4263-1", "lat": 34.8399369, "lon": 137.7337424, "category": "", "category_id": "", "time": [], "star": 0.0, "review": 0}], "カフェ": [{"name": "ブロート リーベン 都田店", "address": "静岡県浜松市浜名区都田町3522-1", "lat": 34.82790661, "lon": 137.73487322, "category": "ベーカリー", "category_id": "0100522", "time": ["09:00-18:00"], "star": 4.28, "review": 94}]}, "top_restaurant": {"name": "ブロート リーベン 都田店", "category": "ベーカリー", "star": 4.28, "review": 94}}, {"name": "上島", "name_en": "Kamijima", "lat": 34.7416361, "lon": 137.7453317, "osm_id": 7603727972, "operator": "", "railway": "station", "wikidata": "Q169614", "wikipedia_tag": "ja:上島駅 (静岡県)", "lines": [], "pref": "静岡県", "nearby_bus_stops": [{"name": "上島", "lat": 34.7415125, "lon": 137.745285, "distance_m": 14, "operator": "遠鉄バス"}, {"name": "上島駅東", "lat": 34.7417139, "lon": 137.7455898, "distance_m": 25, "operator": "遠鉄バス"}, {"name": "上島", "lat": 34.7414374, "lon": 137.74503, "distance_m": 35, "operator": "遠鉄バス"}, {"name": "上島北", "lat": 34.7438753, "lon": 137.7428099, "distance_m": 339, "operator": "遠鉄バス"}, {"name": "上島西", "lat": 34.7427552, "lon": 137.7415727, "distance_m": 365, "operator": ""}], "wikipedia_text": "上島駅（かみじまえき）は、静岡県浜松市中央区上島三丁目にある遠州鉄道鉄道線の駅。駅番号はET07。アクセントは頭高型で語頭の「か」を高く発音する。", "wikipedia_image": "https://upload.wikimedia.org/wikipedia/commons/2/27/ET-Kamijima_Station-Building_1.jpg", "nearest_convenience": {"name": "セブン−イレブン", "lat": 34.7411082, "lon": 137.7452992, "address": "", "distance_m": 59, "brand": ""}, "nearest_restaurant": {"name": "うさぎ庵", "lat": 34.7423442, "lon": 137.7444461, "address": "静岡県浜松市上島五丁目730", "distance_m": 113, "cuisine": "soba"}, "nearby_pois": {"コンビニ": [{"name": "セブンイレブン 浜松上島3丁目", "address": "静岡県浜松市中央区上島3-41-5", "lat": 34.7411954, "lon": 137.7453735, "category": "コンビニ", "category_id": "0200487", "time": ["00:00-24:00"], "star": 3.94, "review": 26}, {"name": "ファミリーマート 浜松上島東店", "address": "静岡県浜松市中央区上島3-18-5", "lat": 34.7397957, "lon": 137.7475931, "category": "コンビニ", "category_id": "0200487", "time": ["00:00-24:00"], "star": 4.13, "review": 11}, {"name": "ファミリーマート 浜松上島五丁目店", "address": "静岡県浜松市中央区上島 5-10-16", "lat": 34.7435062, "lon": 137.7454955, "category": "コンビニ", "category_id": "0200487", "time": ["00:00-24:00"], "star": 3.99, "review": 22}, {"name": "ローソン 浜松十軒町", "address": "静岡県浜松市中央区十軒町63-1", "lat": 34.7342958, "lon": 137.7421935, "category": "コンビニ", "category_id": "0200487", "time": ["00:00-24:00"], "star": 4.64, "review": 12}, {"name": "ファミリーマート 浜松上島北店", "address": "静岡県浜松市中央区上島7-5-18", "lat": 34.7461447, "lon": 137.7417119, "category": "コンビニ", "category_id": "0200487", "time": ["00:00-24:00"], "star": 4.44, "review": 12}, {"name": "ローソン 浜松上島", "address": "静岡県浜松市中央区上島6-23-7", "lat": 34.7445363, "lon": 137.7368594, "category": "コンビニ", "category_id": "0200487", "time": ["00:00-24:00"], "star": 4.06, "review": 18}, {"name": "セブンイレブン 浜松曳馬6丁目", "address": "静岡県浜松市中央区曳馬6-13-20", "lat": 34.7369563, "lon": 137.7378738, "category": "コンビニ", "category_id": "0200487", "time": ["00:00-24:00"], "star": 4.52, "review": 12}, {"name": "西友 浜松有玉南店", "address": "静岡県浜松市中央区有玉南町2321-1", "lat": 34.7467421, "lon": 137.7498754, "category": "スーパー", "category_id": "0200612", "time": ["00:00-24:00"], "star": 4.02, "review": 128}], "ラーメン": [{"name": "ラーメン山 まさか", "address": "静岡県浜松市中央区十軒町238-27", "lat": 34.73760535, "lon": 137.7435931, "category": "ラーメン店", "category_id": "0100097", "time": ["11:00-14:00", "17:00-21:00"], "star": 3.84, "review": 61}, {"name": "鶏パイタン らーめん武蔵", "address": "静岡県浜松市中央区上島5-7-3", "lat": 34.742454768668, "lon": 137.74411958632, "category": "ラーメン店", "category_id": "0100097", "time": ["10:30-15:00", "17:00-24:00"], "star": 3.9, "review": 56}, {"name": "豚鬼", "address": "静岡県浜松市中央区上島1丁目26-19", "lat": 34.73963291, "lon": 137.74340232, "category": "ラーメン店", "category_id": "0100097", "time": ["07:00-13:00"], "star": 4.17, "review": 46}, {"name": "電撃羅愛麺 青空きっど零ZERO", "address": "静岡県浜松市中央区曳馬5丁目24-19", "lat": 34.73374438, "lon": 137.74063854, "category": "ラーメン店", "category_id": "0100097", "time": ["10:45-15:00", "17:30-20:00"], "star": 4.24, "review": 77}, {"name": "ラーメン三太", "address": "静岡県浜松市中央区早出町1025-1", "lat": 34.7343672, "lon": 137.74567555, "category": "ラーメン店", "category_id": "0100097", "time": ["11:00-15:00"], "star": 0.0, "review": 0}, {"name": "麺's Natural", "address": "静岡県浜松市中央区萩丘4-10-38", "lat": 34.74716893, "lon": 137.73839614, "category": "ラーメン店", "category_id": "0100097", "time": ["11:30-16:30"], "star": 3.99, "review": 30}, {"name": "麺屋はやたろう 上島店", "address": "静岡県浜松市中央区上島1-25-1", "lat": 34.73769547, "lon": 137.74175776, "category": "ラーメン店", "category_id": "0100097", "time": ["11:30-14:30", "18:00-24:00"], "star": 3.5, "review": 20}, {"name": "虎跑", "address": "静岡県浜松市中央区有玉南町1867", "lat": 34.749447638665, "lon": 137.74892076639, "category": "中華料理店", "category_id": "0100990", "time": ["11:30-14:00", "17:30-21:00"], "star": 4.16, "review": 32}, {"name": "ディパック", "address": "静岡県浜松市中央区小池町1579", "lat": 34.747694, "lon": 137.75239, "category": "インド料理店", "category_id": "0100282", "time": ["11:00-14:45", "17:00-21:45"], "star": 4.3, "review": 61}, {"name": "RAMEN STOCK 24 八幡餃子浜松店", "address": "静岡県浜松市東区有玉南町2378-1", "lat": 34.7467067, "lon": 137.747, "category": "食料品店", "category_id": "0200122", "time": [], "star": 0.0, "review": 0}], "飲食店": [{"name": "カン来鳥", "address": "静岡県浜松市中央区上島6-18-23", "lat": 34.743434898665, "lon": 137.73735714633, "category": "レストラン", "category_id": "0100111", "time": [], "star": 3.0, "review": 1}, {"name": "秀丸", "address": "静岡県浜松市中央区上島6-22-10", "lat": 34.745413527099, "lon": 137.73662216444, "category": "居酒屋", "category_id": "0101495", "time": [], "star": 4.0, "review": 1}, {"name": "merci", "address": "静岡県浜松市中央区上島3丁目10-14", "lat": 34.73884855, "lon": 137.74812125, "category": "カフェ・喫茶", "category_id": "0100344", "time": [], "star": 3.89, "review": 14}, {"name": "キャレフール", "address": "静岡県浜松市中央区上島5丁目15-43", "lat": 34.74438929, "lon": 137.74144184, "category": "カフェ・喫茶", "category_id": "0100344", "time": ["09:00-18:00"], "star": 4.27, "review": 31}, {"name": "酒肴遊善あまの", "address": "静岡県浜松市中央区上島2-23-16", "lat": 34.74212576, "lon": 137.7440526, "category": "シーフード・海鮮料理店", "category_id": "0100542", "time": ["17:00-23:00"], "star": 4.43, "review": 4}, {"name": "日高", "address": "静岡県浜松市 中央区上島2丁目27-14", "lat": 34.74084491, "lon": 137.74445153, "category": "居酒屋", "category_id": "0101495", "time": [], "star": 4.0, "review": 2}, {"name": "備長扇屋 浜松遠鉄自動車学校前店 ", "address": "静岡県浜松市中央区小池町1578", "lat": 34.747689, "lon": 137.752534, "category": "焼き鳥店", "category_id": "0101960", "time": ["17:00-24:00"], "star": 3.68, "review": 4}, {"name": "シーン", "address": "静岡県浜松市中央区上島1-13-8", "lat": 34.73988723, "lon": 137.741982, "category": "カフェ・喫茶", "category_id": "0100344", "time": [], "star": 4.07, "review": 17}, {"name": "うさぎ庵", "address": "静岡県浜松市中央区上島5-7-30", "lat": 34.742420498668, "lon": 137.74435483632, "category": "蕎麦店", "category_id": "0100034", "time": ["11:30-15:00", "17:00-20:30"], "star": 4.15, "review": 19}, {"name": "桂川", "address": "静岡県浜松市中央区上島2-24-21", "lat": 34.74162586, "lon": 137.74488238, "category": "和食店", "category_id": "0100126", "time": ["17:00-23:00"], "star": 3.13, "review": 7}, {"name": "Momma’sKitchen", "address": "静岡県浜松市中央区上島2丁目25-15", "lat": 34.7406884, "lon": 137.74393082, "category": "飲食店", "category_id": "0102732", "time": [], "star": 0.0, "review": 0}, {"name": "カフェ いすず", "address": "静岡県浜松市中央区上島2-15-11", "lat": 34.74235005, "lon": 137.74188787, "category": "カフェ・喫茶", "category_id": "0100344", "time": ["09:00-21:00"], "star": 3.65, "review": 7}, {"name": "一休", "address": "静岡県浜松市中央区上島2-24-6", "lat": 34.741478187736, "lon": 137.74468992388, "category": "お好み焼き店", "category_id": "0100046", "time": ["11:30-14:00", "17:00-21:00"], "star": 3.99, "review": 14}, {"name": "100Cafe", "address": "静岡県浜松市中央区紺屋町300-21 SceNext 1F", "lat": 34.73743841, "lon": 137.74012691, "category": "カフェ・喫茶", "category_id": "0100344", "time": ["11:00-20:00"], "star": 4.33, "review": 2}, {"name": "PINKHEART", "address": "静岡県浜松市中央区上島5丁目1-12", "lat": 34.74352348, "lon": 137.74043055, "category": "飲食店", "category_id": "0102732", "time": [], "star": 4.0, "review": 1}, {"name": "8月のたそがれ", "address": "静岡県浜松市中央区上島4丁目28-2", "lat": 34.74340574, "lon": 137.74629965, "category": "飲食店", "category_id": "0102732", "time": ["17:00-21:00"], "star": 0.0, "review": 0}, {"name": "豚鬼", "address": "静岡県浜松市中央区上島1丁目26-19", "lat": 34.73963291, "lon": 137.74340232, "category": "ラーメン店", "category_id": "0100097", "time": ["07:00-13:00"], "star": 4.17, "review": 46}, {"name": "コンパル上島", "address": "静岡県浜松市中央区上島5-2-21", "lat": 34.742882938667, "lon": 137.74090152633, "category": "カフェ・喫茶", "category_id": "0100344", "time": [], "star": 3.37, "review": 14}, {"name": "B.violet", "address": "静岡県浜松市中央区小池町2819-2", "lat": 34.73799204, "lon": 137.75433386, "category": "カフェ・喫茶", "category_id": "0100344", "time": ["10:00-15:00"], "star": 4.43, "review": 11}, {"name": "おばんざいと串揚げ酒場 久和", "address": "静岡県浜松市中区上島5-7-30", "lat": 34.742433388668, "lon": 137.74434600632, "category": "居酒屋", "category_id": "0101495", "time": ["16:00-22:30"], "star": 3.4, "review": 2}], "カフェ": [{"name": "merci", "address": "静岡県浜松市中央区上島3丁目10-14", "lat": 34.73884855, "lon": 137.74812125, "category": "カフェ・喫茶", "category_id": "0100344", "time": [], "star": 3.89, "review": 14}, {"name": "キャレフール", "address": "静岡県浜松市中央区上島5丁目15-43", "lat": 34.74438929, "lon": 137.74144184, "category": "カフェ・喫茶", "category_id": "0100344", "time": ["09:00-18:00"], "star": 4.27, "review": 31}, {"name": "シーン", "address": "静岡県浜松市中央区上島1-13-8", "lat": 34.73988723, "lon": 137.741982, "category": "カフェ・喫茶", "category_id": "0100344", "time": [], "star": 4.07, "review": 17}, {"name": "カフェ いすず", "address": "静岡県浜松市中央区上島2-15-11", "lat": 34.74235005, "lon": 137.74188787, "category": "カフェ・喫茶", "category_id": "0100344", "time": ["09:00-21:00"], "star": 3.65, "review": 7}, {"name": "Cafe glanz", "address": "静岡県浜松市中央区有玉南町2212", "lat": 34.74890036, "lon": 137.74438992, "category": "カフェ・喫茶", "category_id": "0100344", "time": ["11:00-18:00"], "star": 4.06, "review": 7}, {"name": "モキチカフェ 本棚日陰", "address": "静岡県浜松市中央区上島6-18-46", "lat": 34.74282838313266, "lon": 137.73705323904102, "category": "カフェ・喫茶", "category_id": "0100344", "time": [], "star": 3.88, "review": 3}, {"name": "B.violet", "address": "静岡県浜松市中央区小池町2819-2", "lat": 34.73799204, "lon": 137.75433386, "category": "カフェ・喫茶", "category_id": "0100344", "time": ["10:00-15:00"], "star": 4.43, "review": 11}, {"name": "100Cafe", "address": "静岡県浜松市中央区紺屋町300-21 SceNext 1F", "lat": 34.73743841, "lon": 137.74012691, "category": "カフェ・喫茶", "category_id": "0100344", "time": ["11:00-20:00"], "star": 4.33, "review": 2}, {"name": "コンパル上島", "address": "静岡県浜松市中央区上島5-2-21", "lat": 34.742882938667, "lon": 137.74090152633, "category": "カフェ・喫茶", "category_id": "0100344", "time": [], "star": 3.37, "review": 14}, {"name": "珈琲館カプチーノ", "address": "静岡県浜松市中央区有玉南町2212", "lat": 34.748892880966, "lon": 137.74436909443, "category": "カフェ・喫茶", "category_id": "0100344", "time": [], "star": 3.9, "review": 3}, {"name": "ドトール EneJet浜松上島店", "address": "静岡県浜松市中央区上島6-1-39", "lat": 34.7397116, "lon": 137.7370125, "category": "コーヒー店", "category_id": "0100496", "time": ["07:00-22:00"], "star": 4.08, "review": 42}, {"name": "みつばや", "address": "静岡県 浜松市中区 早出町394", "lat": 34.7350196, "lon": 137.7508357, "category": "飲食店", "category_id": "0102732", "time": ["10:00-16:00"], "star": 4.29, "review": 7}, {"name": "ジェイワイ", "address": "静岡県浜松市中区上島6丁目1-30", "lat": 34.740166, "lon": 137.7376378, "category": "カフェ・喫茶", "category_id": "0100344", "time": [], "star": 4.5, "review": 0}, {"name": "快活CLUB 浜松上島店", "address": "静岡県浜松市中央区上島7-2-30", "lat": 34.7449059, "lon": 137.7408315, "category": "ネットカフェ", "category_id": "0100271", "time": ["00:00-23:59"], "star": 3.88, "review": 22}, {"name": "やどりぎ", "address": "静岡県浜松市中央区上島6丁目23-26", "lat": 34.74432882, "lon": 137.73721165, "category": "カフェ・喫茶", "category_id": "0100344", "time": ["10:30-17:00"], "star": 0.0, "review": 0}, {"name": "なんでモール", "address": "静岡県浜松市中央区上島5丁目22-26", "lat": 34.74483141, "lon": 137.7462853, "category": "ライブハウス", "category_id": "0300905", "time": [], "star": 0.0, "review": 0}, {"name": "君んち", "address": "静岡県浜松市中区曳馬6丁目12-20", "lat": 34.7357648, "lon": 137.7390301, "category": "カフェ・喫茶", "category_id": "0100344", "time": [], "star": 0.0, "review": 0}, {"name": "ラスプール", "address": "静岡県浜松市中区曳馬5丁目23-30", "lat": 34.7338234, "lon": 137.7400107, "category": "カフェ・喫茶", "category_id": "0100344", "time": [], "star": 0.0, "review": 0}, {"name": "ディパック", "address": "静岡県浜松市中央区小池町1579", "lat": 34.747694, "lon": 137.75239, "category": "インド料理店", "category_id": "0100282", "time": ["11:00-14:45", "17:00-21:45"], "star": 4.3, "review": 61}], "ドラッグストア": [{"name": "杏林堂ドラッグストア 上島駅前店", "address": "静岡県浜松市中央区上島3-28-10", "lat": 34.74140377, "lon": 137.74671796, "category": "ドラッグストア", "category_id": "0200699", "time": ["09:00-21:45"], "star": 4.29, "review": 33}, {"name": "スギ薬局 早出店", "address": "静岡県浜松市中央区早出町1012-3", "lat": 34.7351488, "lon": 137.7457908, "category": "ドラッグストア", "category_id": "0200699", "time": ["09:30-21:00"], "star": 4.25, "review": 18}, {"name": "杏林堂ドラッグストア 上島駅前店　調剤", "address": "静岡県浜松市中央区上島3-28-10", "lat": 34.74140377, "lon": 137.74671796, "category": "調剤薬局", "category_id": "0202315", "time": ["09:00-19:30"], "star": 3.94, "review": 17}, {"name": "スギ薬局 早出店", "address": "静岡県浜松市 中央区早出町1012-3", "lat": 34.73514604, "lon": 137.74612724, "category": "調剤薬局", "category_id": "0202315", "time": [], "star": 4.33, "review": 3}, {"name": "あるぷす薬局上島本店", "address": "静岡県浜松市中央区上島5丁目11-22", "lat": 34.74319736, "lon": 137.74490497, "category": "調剤薬局", "category_id": "0202315", "time": ["09:00-18:00"], "star": 4.0, "review": 0}, {"name": "アクト薬局 上島店", "address": "静岡県浜松市中央区上島5-12-29 ", "lat": 34.74277013, "lon": 137.74404281, "category": "調剤薬局", "category_id": "0202315", "time": ["09:00-18:30"], "star": 0.0, "review": 0}, {"name": "ゆい薬局上島店", "address": "静岡県浜松市中央区上島5丁目21-26", "lat": 34.74378984, "lon": 137.74596433, "category": "調剤薬局", "category_id": "0202315", "time": [], "star": 0.0, "review": 0}, {"name": "やまざき薬局浜松上島店", "address": "静岡県浜松市中央区上島2丁目11-10", "lat": 34.74216943, "lon": 137.74053011, "category": "調剤薬局", "category_id": "0202315", "time": ["08:30-18:30"], "star": 0.0, "review": 0}, {"name": "おおぞら薬局上島店", "address": "静岡県浜松市中央区上島6丁目3", "lat": 34.74165769, "lon": 137.73857822, "category": "調剤薬局", "category_id": "0202315", "time": ["09:00-18:00"], "star": 0.0, "review": 0}, {"name": "そうで薬局", "address": "静岡県浜松市中央区早出町222-12", "lat": 34.73857308, "lon": 137.7527856, "category": "調剤薬局", "category_id": "0202315", "time": ["08:30-18:30"], "star": 0.0, "review": 0}, {"name": "Amazon Hub ロッカー ぼんたんづけ", "address": "静岡県浜松市中央区上島3-28-10 杏林堂ドラッグストア 上島駅前店", "lat": 34.7415453, "lon": 137.746774, "category": "宅配便ロッカー", "category_id": "0402783", "time": [], "star": 0.0, "review": 0}, {"name": "エス薬局 ひくま店", "address": "静岡県浜松市 中央区曳馬6丁目8-16", "lat": 34.734729681169, "lon": 137.73846319142, "category": "調剤薬局", "category_id": "0202315", "time": [], "star": 0.0, "review": 0}, {"name": "あい薬局小池店", "address": "静岡県浜松市中央区小池町1566", "lat": 34.74666023, "lon": 137.7524666, "category": "調剤薬局", "category_id": "0202315", "time": ["08:30-18:30"], "star": 0.0, "review": 0}, {"name": "フィール みのりタウン", "address": "静岡県浜松市中央区早出町1012-3", "lat": 34.7351044, "lon": 137.7461881, "category": "スーパー", "category_id": "0200612", "time": ["09:30-21:00"], "star": 3.77, "review": 146}, {"name": "おおぞら薬局有玉店", "address": "静岡県浜松市中央区有玉南町1844", "lat": 34.74922934, "lon": 137.75002037, "category": "調剤薬局", "category_id": "0202315", "time": ["09:00-18:30"], "star": 0.0, "review": 0}, {"name": "西友 浜松有玉南店", "address": "静岡県浜松市中央区有玉南町2321-1", "lat": 34.7467421, "lon": 137.7498754, "category": "スーパー", "category_id": "0200612", "time": ["00:00-24:00"], "star": 4.02, "review": 128}, {"name": "ザ・ビッグ 浜松萩丘店", "address": "静岡県浜松市中区萩丘4-5-1", "lat": 34.74665562, "lon": 137.73797313, "category": "ディスカウントストア", "category_id": "0200677", "time": ["07:00-22:00"], "star": 4.34, "review": 182}], "ATM": [{"name": "静岡銀行 上島支店", "address": "静岡県浜松市中央区上島2-24-12", "lat": 34.7418453, "lon": 137.744979, "category": "銀行", "category_id": "0402596", "time": ["09:00-15:00"], "star": 3.33, "review": 3}, {"name": "静岡銀行 ATM 有玉支店", "address": "静岡県浜松市中央区上島2-24-12", "lat": 34.7418254, "lon": 137.744971, "category": "ATM", "category_id": "0402785", "time": [], "star": 0.0, "review": 0}, {"name": "静岡銀行 ATM 上島支店", "address": "静岡県浜松市中央区上島2-24-12", "lat": 34.741803, "lon": 137.744895, "category": "ATM", "category_id": "0402785", "time": [], "star": 0.0, "review": 0}, {"name": "ゆうちょ銀行 浜松上島郵便局", "address": "静岡県浜松市中央区上島2-13-14", "lat": 34.7406105, "lon": 137.740795, "category": "銀行", "category_id": "0402596", "time": [], "star": 4.5, "review": 3}, {"name": "ゆうちょ銀行 ATM ファミリーマート浜松上島五丁目店内出張所", "address": "静岡県浜松市中央区上島5-10-16", "lat": 34.743496, "lon": 137.745499, "category": "ATM", "category_id": "0402785", "time": [], "star": 0.0, "review": 0}, {"name": "静岡銀行 有玉支店", "address": "静岡県浜松市中央区上島2-24-12", "lat": 34.7418481, "lon": 137.7449679, "category": "銀行", "category_id": "0402596", "time": [], "star": 0.0, "review": 0}, {"name": "ゆうちょ銀行 ATM ファミリーマート浜松上島東店内出張所", "address": "静岡県浜松市中央区上島3-18-5", "lat": 34.7397979, "lon": 137.74764, "category": "ATM", "category_id": "0402785", "time": [], "star": 0.0, "review": 0}, {"name": "セブン銀行 浜松上島3丁目店", "address": "静岡県浜松市中央区上島3-41-5", "lat": 34.7412034, "lon": 137.745395, "category": "ATM", "category_id": "0402785", "time": ["00:00-24:00"], "star": 0.0, "review": 0}, {"name": "浜松磐田信用金庫 上島支店", "address": "静岡県浜松市中央区上島5-13-20", "lat": 34.743495, "lon": 137.74324, "category": "信用金庫", "category_id": "0401098", "time": ["09:00-15:00"], "star": 3.5, "review": 2}, {"name": "静岡銀行 ATM フィールみのりタウン", "address": "静岡県浜松市中央区早出町1012-3", "lat": 34.7351294, "lon": 137.746145, "category": "ATM", "category_id": "0402785", "time": [], "star": 0.0, "review": 0}, {"name": "JAバンク とぴあ浜松農業協同組合(JAとぴあ浜松)本店", "address": "静岡県浜松市中央区有玉南町1975", "lat": 34.7492863, "lon": 137.747849, "category": "銀行", "category_id": "0402596", "time": [], "star": 4.0, "review": 10}, {"name": "ゆうちょ銀行 ATM 浜松上島郵便局", "address": "静岡県浜松市中央区上島2-13-14", "lat": 34.7405979, "lon": 137.740831, "category": "ATM", "category_id": "0402785", "time": [], "star": 0.0, "review": 0}, {"name": "清水銀行 曳馬支店", "address": "静岡県浜松市中央区曳馬6-7-1", "lat": 34.7351316, "lon": 137.7388934, "category": "銀行", "category_id": "0402596", "time": ["09:00-15:00"], "star": 3.0, "review": 1}, {"name": "清水銀行 ATM 曳馬支店", "address": "静岡県浜松市中央区曳馬6-7-1", "lat": 34.7351205, "lon": 137.738919, "category": "ATM", "category_id": "0402785", "time": [], "star": 0.0, "review": 0}, {"name": "JAバンク ATM とぴあ浜松農業協同組合(JAとぴあ浜松)本店", "address": "静岡県浜松市中央区有玉南町1975", "lat": 34.7493516, "lon": 137.747664, "category": "ATM", "category_id": "0402785", "time": [], "star": 0.0, "review": 0}, {"name": "銀行ATM イーネット ファミリーマート浜松上島北 共同出張所", "address": "静岡県浜松市中央区上島7-5-18 ", "lat": 34.746091, "lon": 137.741711, "category": "ATM", "category_id": "0402785", "time": ["00:00-24:00"], "star": 0.0, "review": 0}, {"name": "JAバンク とぴあ浜松農業協同組合(JAとぴあ浜松)曳馬支店", "address": "静岡県浜松市中央区曳馬6-1-22", "lat": 34.7342104, "lon": 137.741433, "category": "銀行", "category_id": "0402596", "time": ["09:00-15:00"], "star": 4.0, "review": 0}, {"name": "みずほ銀行 ATM ザ・ビッグ浜松萩丘店出張所", "address": "静岡県浜松市中央区萩丘4-5-1", "lat": 34.7465829, "lon": 137.7377, "category": "ATM", "category_id": "0402785", "time": [], "star": 0.0, "review": 0}, {"name": "JAバンク とぴあ浜松農業協同組合(JAとぴあ浜松)早出支店", "address": "静岡県浜松市中央区早出町231-6", "lat": 34.7346704, "lon": 137.751926, "category": "銀行", "category_id": "0402596", "time": ["09:00-15:00"], "star": 0.0, "review": 0}, {"name": "遠州信用金庫ATMコーナー", "address": "静岡県浜松市中央区萩丘4丁目5-1", "lat": 34.74659035, "lon": 137.73795592, "category": "信用金庫", "category_id": "0401098", "time": [], "star": 0.0, "review": 0}], "銭湯 温泉": [{"name": "みよし湯", "address": "静岡県浜松市中央区曳馬6丁目5-30", "lat": 34.73409376, "lon": 137.74037158, "category": "銭湯", "category_id": "0400578", "time": ["15:00-21:00"], "star": 4.17, "review": 11}], "スーパーマーケット": [{"name": "フィール みのりタウン", "address": "静岡県浜松市中央区早出町1012-3", "lat": 34.7351044, "lon": 137.7461881, "category": "スーパー", "category_id": "0200612", "time": ["09:30-21:00"], "star": 3.77, "review": 146}, {"name": "西友 浜松有玉南店", "address": "静岡県浜松市中央区有玉南町2321-1", "lat": 34.7467421, "lon": 137.7498754, "category": "スーパー", "category_id": "0200612", "time": ["00:00-24:00"], "star": 4.02, "review": 128}, {"name": "ザ・ビッグ 浜松萩丘店", "address": "静岡県浜松市中区萩丘4-5-1", "lat": 34.74665562, "lon": 137.73797313, "category": "ディスカウントストア", "category_id": "0200677", "time": ["07:00-22:00"], "star": 4.34, "review": 182}, {"name": "マックスバリュエクスプレス浜松早出店", "address": "静岡県浜松市中区早出町850 ", "lat": 34.73418511, "lon": 137.7486435, "category": "スーパー", "category_id": "0200612", "time": ["07:00-23:30"], "star": 3.51, "review": 103}, {"name": "セリア 西友浜松有玉南店", "address": "静岡県浜松市中央区有玉南町2321-1 西友浜松有玉南店 1F", "lat": 34.7466921, "lon": 137.749681, "category": "100円ショップ", "category_id": "0200001", "time": [], "star": 4.33, "review": 47}, {"name": "スギ薬局 早出店", "address": "静岡県浜松市中央区早出町1012-3", "lat": 34.7351488, "lon": 137.7457908, "category": "ドラッグストア", "category_id": "0200699", "time": ["09:30-21:00"], "star": 4.25, "review": 18}, {"name": "ダイソー 浜松早出店", "address": "静岡県浜松市中央区早出町８７２番４ ", "lat": 34.73473228, "lon": 137.74695196, "category": "100円ショップ", "category_id": "0200001", "time": ["09:30-20:00"], "star": 4.03, "review": 34}]}, "top_restaurant": {"name": "ジェイワイ", "category": "カフェ・喫茶", "star": 4.5, "review": 0}}, {"name": "上市場", "name_en": "Kamiichiba", "lat": 35.0501882, "lon": 137.7524845, "osm_id": 264870112, "operator": "", "railway": "station", "wikidata": "Q775018", "wikipedia_tag": "ja:上市場駅", "lines": ["飯田線"], "pref": "静岡県", "wikipedia_text": "上市場駅（かみいちばえき）は、静岡県浜松市天竜区佐久間町浦川にある、東海旅客鉄道（JR東海）飯田線の駅である。\n隣の出馬駅との駅間距離は0.6 kmで、飯田線では最短である。", "wikipedia_image": "https://upload.wikimedia.org/wikipedia/commons/d/d8/Kamiichiba_Station-Platform_1.jpg", "nearest_convenience": {"name": "あらきや食料品店", "lat": 35.0732112, "lon": 137.727426, "address": "", "distance_m": 3429, "brand": ""}, "nearest_restaurant": {"name": "", "lat": 35.0467901, "lon": 137.7213856, "address": "", "distance_m": 2856, "cuisine": ""}, "nearby_pois": {"ラーメン": [{"name": "あい川", "address": "静岡県浜松市天竜区佐久間町浦川2405-1", "lat": 35.04823619, "lon": 137.75326471, "category": "定食屋", "category_id": "0101441", "time": [], "star": 4.22, "review": 7}], "飲食店": [{"name": "あい川", "address": "静岡県浜松市天竜区佐久間町浦川2405-1", "lat": 35.04823619, "lon": 137.75326471, "category": "定食屋", "category_id": "0101441", "time": [], "star": 4.22, "review": 7}, {"name": "うどん笑", "address": "静岡県浜松市天竜区佐久間町浦川2512-1", "lat": 35.0494692, "lon": 137.7532476, "category": "うどん店", "category_id": "0100033", "time": [], "star": 0.0, "review": 0}]}, "top_restaurant": {"name": "あい川", "category": "定食屋", "star": 4.22, "review": 7}}, {"name": "上野部", "name_en": "Kaminobe", "lat": 34.8474474, "lon": 137.8299713, "osm_id": 384106876, "operator": "", "railway": "station", "wikidata": "Q5370098", "wikipedia_tag": "ja:上野部駅", "lines": ["天竜浜名湖鉄道天竜浜名湖線"], "pref": "静岡県", "nearby_bus_stops": [{"name": "栗下", "lat": 34.8460515, "lon": 137.8330055, "distance_m": 317, "operator": ""}, {"name": "神田", "lat": 34.8499224, "lon": 137.8280286, "distance_m": 327, "operator": ""}], "wikipedia_text": "上野部駅（かみのべえき）は、静岡県磐田市上野部にある、天竜浜名湖鉄道天竜浜名湖線の駅である。「シルクロード上野部」の副駅名がある。", "wikipedia_image": "https://upload.wikimedia.org/wikipedia/commons/7/73/Kaminobe-eki-1.jpg", "nearest_convenience": {"name": "デイリーヤマザキ", "lat": 34.8416579, "lon": 137.8366986, "address": "", "distance_m": 890, "brand": ""}, "nearest_restaurant": {"name": "和食処 なかや", "lat": 34.8400389, "lon": 137.8370634, "address": "磐田市上野部16491", "distance_m": 1048, "cuisine": "japanese"}, "nearby_pois": {"飲食店": [{"name": "御食事処椿山", "address": "静岡県磐田市上野部1201-1", "lat": 34.84275642, "lon": 137.83829515, "category": "和食店", "category_id": "0100126", "time": [], "star": 0.0, "review": 0}]}}, {"name": "下土狩", "name_en": "Shimo-Togari", "lat": 35.1290633, "lon": 138.8951575, "osm_id": 8238066029, "operator": "", "railway": "station", "wikidata": "Q5357624", "wikipedia_tag": "ja:下土狩駅", "lines": [], "pref": "静岡県", "nearby_bus_stops": [{"name": "下土狩駅", "lat": 35.1296156, "lon": 138.8956879, "distance_m": 78, "operator": ""}, {"name": "長泉ショッピングセンター", "lat": 35.1293451, "lon": 138.8980557, "distance_m": 265, "operator": "富士急静岡バス"}, {"name": "沼津信用金庫前", "lat": 35.1304239, "lon": 138.8986478, "distance_m": 352, "operator": "富士急静岡バス"}, {"name": "鮎壺", "lat": 35.1322419, "lon": 138.8936522, "distance_m": 379, "operator": ""}, {"name": "すすき原", "lat": 35.1274672, "lon": 138.8991322, "distance_m": 403, "operator": ""}], "wikipedia_text": "下土狩駅（しもとがりえき）は、静岡県駿東郡長泉町下土狩にある、東海旅客鉄道（JR東海）御殿場線の駅である。駅番号はCB16。", "wikipedia_image": "https://upload.wikimedia.org/wikipedia/commons/1/16/Shimo-Togari-sta170722.jpg", "nearest_convenience": {"name": "ファミリーマート", "lat": 35.1275696, "lon": 138.8927386, "address": "", "distance_m": 276, "brand": "FamilyMart"}, "nearest_restaurant": {"name": "夢庵", "lat": 35.1356944, "lon": 138.8944535, "address": "", "distance_m": 740, "cuisine": ""}, "nearby_pois": {"コンビニ": [{"name": "ファミリーマート 長泉鮎壺店", "address": "静岡県駿東郡長泉町下土狩1207-1", "lat": 35.127804, "lon": 138.8930806, "category": "コンビニ", "category_id": "0200487", "time": ["00:00-24:00"], "star": 4.25, "review": 6}, {"name": "セブンイレブン 長泉中央通り", "address": "静岡県駿東郡長泉町下土狩大割451-5", "lat": 35.1268847, "lon": 138.8986607, "category": "コンビニ", "category_id": "0200487", "time": ["00:00-24:00"], "star": 4.48, "review": 10}, {"name": "セブンイレブン 長泉下土狩西", "address": "静岡県駿東郡長泉町下土狩字窪田320-4", "lat": 35.1278402, "lon": 138.9026714, "category": "コンビニ", "category_id": "0200487", "time": ["00:00-24:00"], "star": 4.35, "review": 20}, {"name": "セブンイレブン 長泉町本宿", "address": "静岡県駿東郡長泉町本宿209-1", "lat": 35.1244126, "lon": 138.8908503, "category": "コンビニ", "category_id": "0200487", "time": ["00:00-24:00"], "star": 4.06, "review": 16}, {"name": "ファミリーマート 長泉鮎壺北店", "address": "静岡県駿東郡長泉町下土狩1026-1", "lat": 35.1354058, "lon": 138.8942998, "category": "コンビニ", "category_id": "0200487", "time": ["00:00-24:00"], "star": 4.02, "review": 17}, {"name": "セブンイレブン 長泉中土狩", "address": "静岡県駿東郡長泉町中土狩258-1", "lat": 35.1320536, "lon": 138.9037491, "category": "コンビニ", "category_id": "0200487", "time": ["00:00-24:00"], "star": 4.5, "review": 4}, {"name": "マックスバリュ長泉下土狩店", "address": "静岡県駿東郡長泉町下土狩380-1 ", "lat": 35.12318507, "lon": 138.8992052, "category": "スーパー", "category_id": "0200612", "time": ["07:00-22:00"], "star": 3.57, "review": 32}], "ラーメン": [{"name": "煮干しらーめん 麺匠 萩原", "address": "静岡県駿東郡長泉町下土狩1194-73 水口マンション 1F", "lat": 35.12715810879, "lon": 138.8924772594, "category": "ラーメン店", "category_id": "0100097", "time": ["11:00-15:00", "18:00-21:00"], "star": 4.02, "review": 30}, {"name": "富士見軒", "address": "静岡県駿東郡長泉町下土狩1241", "lat": 35.1292985, "lon": 138.89371885, "category": "ラーメン店", "category_id": "0100097", "time": ["11:30-20:00"], "star": 3.32, "review": 9}, {"name": "中華まんがん", "address": "静岡県駿東郡長泉町下土狩1321", "lat": 35.129641048789, "lon": 138.89584098942, "category": "中華料理店", "category_id": "0100990", "time": ["11:30-14:00", "17:00-23:00"], "star": 3.93, "review": 8}, {"name": "一番亭 長泉町下土狩店", "address": "静岡県駿東郡長泉町下土狩323-4", "lat": 35.1259836, "lon": 138.902011, "category": "餃子店", "category_id": "0102733", "time": ["11:00-24:00"], "star": 3.74, "review": 24}, {"name": "揚子江", "address": "静岡県駿東郡長泉町下土狩1287", "lat": 35.1302359, "lon": 138.89587506, "category": "中華料理店", "category_id": "0100990", "time": ["11:00-14:00", "17:00-21:00"], "star": 3.23, "review": 6}, {"name": "韓国料理 徐家", "address": "静岡県長泉町下土狩1194-73 水口ビル 1F", "lat": 35.12714365193, "lon": 138.8924649001, "category": "韓国料理店", "category_id": "0100518", "time": ["17:00-22:00"], "star": 4.49, "review": 13}, {"name": "勝楽", "address": "静岡県駿東郡長泉町竹原147-14", "lat": 35.1201244, "lon": 138.8941331, "category": "中華料理店", "category_id": "0100990", "time": [], "star": 4.5, "review": 2}, {"name": "餃子の一番亭長泉町下土狩店", "address": "静岡県駿東郡長泉町下土狩323-4", "lat": 35.12599121, "lon": 138.90199374, "category": "餃子店", "category_id": "0102733", "time": [], "star": 3.0, "review": 1}], "飲食店": [{"name": "ミストジェラート", "address": "静岡県駿東郡長泉町中土狩874-1", "lat": 35.137341608785, "lon": 138.8993652095, "category": "カフェ・喫茶", "category_id": "0100344", "time": ["12:00-17:00"], "star": 3.69, "review": 21}, {"name": "カフェ・ポタジェ", "address": "静岡県駿東郡長泉町下土狩1001-1", "lat": 35.135663648784, "lon": 138.89252348949, "category": "カフェ・喫茶", "category_id": "0100344", "time": [], "star": 0.0, "review": 0}, {"name": "満貫", "address": "静岡県駿東郡長泉町下土狩1286-8", "lat": 35.12998781095132, "lon": 138.8954451609833, "category": "レストラン", "category_id": "0100111", "time": [], "star": 3.91, "review": 8}, {"name": "アリクイショクドウ", "address": "静岡県沼津市大岡3331-9", "lat": 35.13264307, "lon": 138.89152869, "category": "カフェ・喫茶", "category_id": "0100344", "time": ["11:00-16:00"], "star": 4.04, "review": 21}, {"name": "アワテンボウ", "address": "静岡県駿東郡長泉町下土狩422-12", "lat": 35.12563479, "lon": 138.89823856, "category": "カフェ・喫茶", "category_id": "0100344", "time": ["11:00-17:30"], "star": 4.14, "review": 15}, {"name": "松風軒 長泉店", "address": "静岡県駿東郡長泉町下土狩1354-14", "lat": 35.12937667879, "lon": 138.89815519942, "category": "飲食店", "category_id": "0102732", "time": ["08:00-14:30"], "star": 3.53, "review": 7}, {"name": "腸活cafe jicca", "address": "静岡県駿東郡長泉町下土狩1354-5", "lat": 35.12883804, "lon": 138.89800267, "category": "カフェ・喫茶", "category_id": "0100344", "time": [], "star": 0.0, "review": 2}, {"name": "ゆらりごはん ひまり", "address": "静岡県駿東郡長泉町下土狩631 鈴木ビル 1F", "lat": 35.12961574, "lon": 138.89903951, "category": "和食店", "category_id": "0100126", "time": ["17:30-22:00"], "star": 3.95, "review": 5}, {"name": "菓子屋ななほし", "address": "静岡県駿東郡長泉町下土狩1284-13 1F", "lat": 35.130403885804, "lon": 138.89501539504, "category": "飲食店", "category_id": "0102732", "time": [], "star": 0.0, "review": 0}, {"name": "韓国料理 徐家", "address": "静岡県長泉町下土狩1194-73 水口ビル 1F", "lat": 35.12714365193, "lon": 138.8924649001, "category": "韓国料理店", "category_id": "0100518", "time": ["17:00-22:00"], "star": 4.49, "review": 13}, {"name": "中華まんがん", "address": "静岡県駿東郡長泉町下土狩1321", "lat": 35.129641048789, "lon": 138.89584098942, "category": "中華料理店", "category_id": "0100990", "time": ["11:30-14:00", "17:00-23:00"], "star": 3.93, "review": 8}, {"name": "Yosemite cafe", "address": "静岡県駿東郡長泉町下土狩821-1 文化センターベルフォーレ内", "lat": 35.13283531, "lon": 138.89730102, "category": "カフェ・喫茶", "category_id": "0100344", "time": ["10:00-21:00"], "star": 3.79, "review": 11}, {"name": "焼肉すだく家族亭 長泉店", "address": "静岡県駿東郡長泉町本宿110-1", "lat": 35.126175408412, "lon": 138.89167778783, "category": "ホルモン焼肉店", "category_id": "0100859", "time": [], "star": 4.02, "review": 16}, {"name": "ストーリーズ", "address": "静岡県駿東郡長泉町下土狩384-3", "lat": 35.12322977, "lon": 138.89821863, "category": "洋食店", "category_id": "0100129", "time": ["08:00-23:00"], "star": 3.78, "review": 31}, {"name": "居ざっく るりえ", "address": "静岡県駿東郡長泉町下土狩1354-14 カリンビル101", "lat": 35.12943158, "lon": 138.89808571, "category": "飲食店", "category_id": "0102732", "time": [], "star": 0.0, "review": 0}, {"name": "煮干しらーめん 麺匠 萩原", "address": "静岡県駿東郡長泉町下土狩1194-73 水口マンション 1F", "lat": 35.12715810879, "lon": 138.8924772594, "category": "ラーメン店", "category_id": "0100097", "time": ["11:00-15:00", "18:00-21:00"], "star": 4.02, "review": 30}, {"name": "伊豆海鮮や", "address": "静岡県駿東郡長泉町下土狩647-3", "lat": 35.130557, "lon": 138.898849, "category": "居酒屋", "category_id": "0101495", "time": ["17:00-26:00"], "star": 3.29, "review": 4}, {"name": "RAI4 GATE", "address": "静岡県沼津市大岡3854-2", "lat": 35.12855325, "lon": 138.88433043, "category": "カフェ・喫茶", "category_id": "0100344", "time": ["11:00-23:00"], "star": 4.0, "review": 30}, {"name": "三楽 下土狩店", "address": "静岡県駿東郡長泉町下土狩1352-7", "lat": 35.12841448, "lon": 138.89792018, "category": "焼き鳥店", "category_id": "0101960", "time": ["16:00-22:30"], "star": 4.03, "review": 8}, {"name": "富士見軒", "address": "静岡県駿東郡長泉町下土狩1241", "lat": 35.1292985, "lon": 138.89371885, "category": "ラーメン店", "category_id": "0100097", "time": ["11:30-20:00"], "star": 3.32, "review": 9}], "カフェ": [{"name": "ミストジェラート", "address": "静岡県駿東郡長泉町中土狩874-1", "lat": 35.137341608785, "lon": 138.8993652095, "category": "カフェ・喫茶", "category_id": "0100344", "time": ["12:00-17:00"], "star": 3.69, "review": 21}, {"name": "カフェ・ポタジェ", "address": "静岡県駿東郡長泉町下土狩1001-1", "lat": 35.135663648784, "lon": 138.89252348949, "category": "カフェ・喫茶", "category_id": "0100344", "time": [], "star": 0.0, "review": 0}, {"name": "アリクイショクドウ", "address": "静岡県沼津市大岡3331-9", "lat": 35.13264307, "lon": 138.89152869, "category": "カフェ・喫茶", "category_id": "0100344", "time": ["11:00-16:00"], "star": 4.04, "review": 21}, {"name": "アワテンボウ", "address": "静岡県駿東郡長泉町下土狩422-12", "lat": 35.12563479, "lon": 138.89823856, "category": "カフェ・喫茶", "category_id": "0100344", "time": ["11:00-17:30"], "star": 4.14, "review": 15}, {"name": "腸活cafe jicca", "address": "静岡県駿東郡長泉町下土狩1354-5", "lat": 35.12883804, "lon": 138.89800267, "category": "カフェ・喫茶", "category_id": "0100344", "time": [], "star": 0.0, "review": 2}, {"name": "Yosemite cafe", "address": "静岡県駿東郡長泉町下土狩821-1 文化センターベルフォーレ内", "lat": 35.13283531, "lon": 138.89730102, "category": "カフェ・喫茶", "category_id": "0100344", "time": ["10:00-21:00"], "star": 3.79, "review": 11}, {"name": "RAI4 GATE", "address": "静岡県沼津市大岡3854-2", "lat": 35.12855325, "lon": 138.88433043, "category": "カフェ・喫茶", "category_id": "0100344", "time": ["11:00-23:00"], "star": 4.0, "review": 30}, {"name": "とがりベーカリー", "address": "静岡県駿東郡長泉町下土狩1286-2 武藤ビル 1F", "lat": 35.12995121, "lon": 138.89554842, "category": "ベーカリー", "category_id": "0100522", "time": [], "star": 4.22, "review": 33}, {"name": "純喫茶 ライラック", "address": "静岡県駿東郡長泉町下土狩378-24 エイカクビル 2F", "lat": 35.123635958794, "lon": 138.89860845936, "category": "カフェ・喫茶", "category_id": "0100344", "time": ["10:00-19:00"], "star": 3.18, "review": 9}, {"name": "クリスパー・カフェ", "address": "静岡県駿東郡長泉町下土狩 1286-3", "lat": 35.13020324707031, "lon": 138.89549255371094, "category": "", "category_id": "", "time": [], "star": 0.0, "review": 0}, {"name": "夢良", "address": "静岡県駿東郡長泉町下土狩1286-5", "lat": 35.1301512, "lon": 138.895727, "category": "カフェ・喫茶", "category_id": "0100344", "time": [], "star": 0.0, "review": 0}, {"name": "ストーリーズ", "address": "静岡県駿東郡長泉町下土狩384-3", "lat": 35.12322977, "lon": 138.89821863, "category": "洋食店", "category_id": "0100129", "time": ["08:00-23:00"], "star": 3.78, "review": 31}, {"name": "RAKUZA", "address": "静岡県駿東郡長泉町下土狩474-1", "lat": 35.12768548, "lon": 138.9019512, "category": "カフェ・喫茶", "category_id": "0100344", "time": [], "star": 0.0, "review": 0}, {"name": "蘭", "address": "静岡県駿東郡長泉町下土狩515-12", "lat": 35.13236321, "lon": 138.90091153, "category": "カフェ・喫茶", "category_id": "0100344", "time": [], "star": 0.0, "review": 0}, {"name": "パスタ亭", "address": "静岡県駿東郡長泉町本宿202-1", "lat": 35.12394268, "lon": 138.89081867, "category": "パスタ料理店", "category_id": "0100575", "time": ["11:00-15:00", "17:00-23:00"], "star": 2.72, "review": 17}, {"name": "梅鉢", "address": "静岡県駿東郡長泉町竹原203-1", "lat": 35.120255, "lon": 138.8965829, "category": "", "category_id": "", "time": [], "star": 0.0, "review": 0}, {"name": "株式会社 MISTO MISTOgelato", "address": "静岡県駿東郡 長泉町中土狩874-1", "lat": 35.13734817504883, "lon": 138.8993682861328, "category": "映像サービス業", "category_id": "0501691", "time": ["12:00-17:00"], "star": 0.0, "review": 2}, {"name": "ガスト 長泉町店", "address": "静岡県駿東郡長泉町下土狩907-1 ", "lat": 35.13659, "lon": 138.8951, "category": "ファミリーレストラン", "category_id": "0100788", "time": ["09:00-24:00"], "star": 4.12, "review": 66}], "ドラッグストア": [{"name": "ドラッグストア クリエイト エス・ディー 長泉下土狩店", "address": "静岡県駿東郡長泉町下土狩1051-19", "lat": 35.1344504, "lon": 138.894111, "category": "ドラッグストア", "category_id": "0200699", "time": ["09:00-21:00"], "star": 4.2, "review": 56}, {"name": "ウエルシア長泉下土狩店", "address": "静岡県駿東郡長泉町下土狩323-2", "lat": 35.12651, "lon": 138.901512, "category": "ドラッグストア", "category_id": "0200699", "time": ["09:00-22:00"], "star": 4.05, "review": 17}, {"name": "ドラッグストア クリエイト エス・ディー 長泉中土狩店", "address": "静岡県駿東郡長泉町中土狩896-2", "lat": 35.1362307, "lon": 138.8984578, "category": "ドラッグストア", "category_id": "0200699", "time": ["09:00-21:00"], "star": 3.83, "review": 4}, {"name": "CREATE 長泉中土狩店", "address": "静岡県駿東郡長泉町中土狩896-2", "lat": 35.13624686, "lon": 138.89880641, "category": "調剤薬局", "category_id": "0202315", "time": ["09:00-21:00"], "star": 4.18, "review": 17}, {"name": "CREATE 長泉下土狩店", "address": "静岡県駿東郡長泉町下土狩1051-19", "lat": 35.134536, "lon": 138.894165, "category": "調剤薬局", "category_id": "0202315", "time": ["10:00-13:30", "14:30-18:30"], "star": 0.0, "review": 0}, {"name": "アイン サンライズ薬局 あゆつぼ店", "address": "静岡県駿東郡長泉町下土狩1070-6", "lat": 35.13293693, "lon": 138.89251445, "category": "調剤薬局", "category_id": "0202315", "time": ["09:00-18:00"], "star": 0.0, "review": 0}, {"name": "徳永薬局 長泉店", "address": "静岡県駿東郡 長泉町下土狩1373-3", "lat": 35.12977614, "lon": 138.89849417, "category": "調剤薬局", "category_id": "0202315", "time": [], "star": 0.0, "review": 0}, {"name": "こまどり薬局 長泉店", "address": "静岡県駿東郡 長泉町中土狩874-1", "lat": 35.1373352, "lon": 138.8993693, "category": "調剤薬局", "category_id": "0202315", "time": ["09:00-18:30"], "star": 0.0, "review": 0}, {"name": "薬局だいち下土狩店", "address": "静岡県駿東郡長泉町下土狩917-5", "lat": 35.13589048, "lon": 138.89682936, "category": "調剤薬局", "category_id": "0202315", "time": ["08:00-17:30"], "star": 0.0, "review": 0}, {"name": "あい薬局", "address": "静岡県駿東郡長泉町下土狩445-37", "lat": 35.12627808, "lon": 138.89949398, "category": "調剤薬局", "category_id": "0202315", "time": [], "star": 0.0, "review": 0}, {"name": "すずらん薬局", "address": "静岡県駿東郡長泉町下土狩346-10", "lat": 35.12320206, "lon": 138.90133193, "category": "調剤薬局", "category_id": "0202315", "time": [], "star": 0.0, "review": 0}, {"name": "おおさわ鍼灸院", "address": "静岡県駿東郡長泉町中土狩415-32", "lat": 35.13278901, "lon": 138.90202504, "category": "鍼灸院", "category_id": "0400879", "time": [], "star": 0.0, "review": 0}], "ATM": [{"name": "静岡銀行 下土狩支店(しずぎん下土狩プラザ)", "address": "静岡県駿東郡長泉町下土狩1344-17", "lat": 35.1290816, "lon": 138.8968192, "category": "銀行", "category_id": "0402596", "time": ["09:00-12:00"], "star": 4.67, "review": 1}, {"name": "スルガ銀行 長泉支店", "address": "静岡県駿東郡長泉町下土狩1334-6", "lat": 35.1295204, "lon": 138.8973885, "category": "銀行", "category_id": "0402596", "time": ["09:00-15:00"], "star": 4.0, "review": 1}, {"name": "JAバンク ATM 富士伊豆農業協同組合(JAふじ伊豆)下土狩支店", "address": "静岡県駿東郡長泉町下土狩1293-1", "lat": 35.1296538, "lon": 138.8963831, "category": "ATM", "category_id": "0402785", "time": [], "star": 0.0, "review": 0}, {"name": "JAバンク 富士伊豆農業協同組合(JAふじ伊豆)下土狩支店", "address": "静岡県駿東郡長泉町下土狩1293-1", "lat": 35.1296736, "lon": 138.896386, "category": "銀行", "category_id": "0402596", "time": [], "star": 4.0, "review": 0}, {"name": "ゆうちょ銀行 下土狩郵便局", "address": "静岡県駿東郡長泉町下土狩1318-10", "lat": 35.129073, "lon": 138.896305, "category": "銀行", "category_id": "0402596", "time": ["09:00-17:00"], "star": 4.0, "review": 0}, {"name": "スルガ銀行 ATM 長泉支店", "address": "静岡県駿東郡長泉町下土狩1334-6", "lat": 35.1298345, "lon": 138.897732, "category": "ATM", "category_id": "0402785", "time": [], "star": 0.0, "review": 0}, {"name": "静岡銀行 ATM 下土狩支店(しずぎん下土狩プラザ)", "address": "静岡県駿東郡長泉町下土狩1344-17", "lat": 35.1290268, "lon": 138.896863, "category": "ATM", "category_id": "0402785", "time": [], "star": 0.0, "review": 0}, {"name": "みずほ銀行 ATM マックスバリュエクスプレス長泉店出張所", "address": "静岡県駿東郡長泉町下土狩1350-1", "lat": 35.1290088, "lon": 138.897555, "category": "ATM", "category_id": "0402785", "time": [], "star": 0.0, "review": 0}, {"name": "銀行ATM イーネット ファミリーマート長泉鮎壺 共同出張所", "address": "静岡県駿東郡長泉町下土狩1207-1 ", "lat": 35.127764, "lon": 138.893066, "category": "ATM", "category_id": "0402785", "time": ["00:00-24:00"], "star": 0.0, "review": 0}, {"name": "ゆうちょ銀行 ATM 下土狩郵便局", "address": "静岡県駿東郡長泉町下土狩1318-10", "lat": 35.129073, "lon": 138.896305, "category": "ATM", "category_id": "0402785", "time": [], "star": 0.0, "review": 0}, {"name": "イオン銀行 ATM マックスバリュエクスプレス長泉店出張所(サービスカウンター横)", "address": "静岡県駿東郡長泉町下土狩1350-1", "lat": 35.1290167, "lon": 138.897529, "category": "ATM", "category_id": "0402785", "time": ["07:00-22:00"], "star": 0.0, "review": 0}, {"name": "JAバンク ATM 富士伊豆農業協同組合(JAふじ伊豆)長泉支店", "address": "静岡県駿東郡長泉町下土狩1029-1", "lat": 35.1349059, "lon": 138.8939332, "category": "ATM", "category_id": "0402785", "time": [], "star": 0.0, "review": 0}, {"name": "セブン銀行 長泉中央通り店", "address": "静岡県駿東郡長泉町下土狩大割451-5", "lat": 35.1269635, "lon": 138.898684, "category": "ATM", "category_id": "0402785", "time": ["00:00-24:00"], "star": 0.0, "review": 0}, {"name": "三島信用金庫 下土狩支店", "address": "静岡県駿東郡長泉町下土狩字陣場1116-1", "lat": 35.1303592, "lon": 138.8964164, "category": "信用金庫", "category_id": "0401098", "time": [], "star": 0.0, "review": 0}, {"name": "銀行ATM イーネット ファミリーマート長泉鮎壺北 共同出張所", "address": "静岡県駿東郡長泉町下土狩1026-1 ", "lat": 35.13544192, "lon": 138.89428872, "category": "ATM", "category_id": "0402785", "time": ["00:00-24:00"], "star": 0.0, "review": 0}, {"name": "スルガ銀行 ATM 長泉町役場", "address": "静岡県駿東郡長泉町中土狩828", "lat": 35.1376869, "lon": 138.897183, "category": "ATM", "category_id": "0402785", "time": [], "star": 0.0, "review": 0}, {"name": "沼津信用金庫 長泉町支店", "address": "静岡県駿東郡長泉町下土狩640-1", "lat": 35.1303926, "lon": 138.8987579, "category": "信用金庫", "category_id": "0401098", "time": ["09:00-15:00"], "star": 0.0, "review": 0}, {"name": "宝くじ ATM スルガ銀行長泉支店", "address": "静岡県駿東郡長泉町下土狩1334-6", "lat": 35.1298121, "lon": 138.897821, "category": "宝くじ売り場", "category_id": "0401442", "time": ["08:00-20:00"], "star": 0.0, "review": 0}, {"name": "JAバンク 富士伊豆農業協同組合(JAふじ伊豆)長泉支店", "address": "静岡県駿東郡長泉町下土狩1029-1", "lat": 35.1349274, "lon": 138.894205, "category": "銀行", "category_id": "0402596", "time": [], "star": 0.0, "review": 0}, {"name": "セブン銀行 長泉下土狩西店", "address": "静岡県駿東郡長泉町下土狩字窪田320-4", "lat": 35.1278747, "lon": 138.902481, "category": "ATM", "category_id": "0402785", "time": ["00:00-24:00"], "star": 0.0, "review": 0}], "スーパーマーケット": [{"name": "マックスバリュエクスプレス長泉店", "address": "静岡県駿東郡長泉町下土狩1350-1 ", "lat": 35.12890525, "lon": 138.89751077, "category": "スーパー", "category_id": "0200612", "time": ["07:00-22:00"], "star": 3.79, "review": 52}, {"name": "マックスバリュ長泉下土狩店", "address": "静岡県駿東郡長泉町下土狩380-1 ", "lat": 35.12318507, "lon": 138.8992052, "category": "スーパー", "category_id": "0200612", "time": ["07:00-22:00"], "star": 3.57, "review": 32}, {"name": "後藤精肉店", "address": "静岡県駿東郡長泉町下土狩1131", "lat": 35.130659358, "lon": 138.8952354033, "category": "食料品店", "category_id": "0200122", "time": ["10:00-18:30"], "star": 4.23, "review": 22}, {"name": "セリア マックスバリュエクスプレス長泉店", "address": "静岡県駿東郡長泉町下土狩1350-1 マックスバリュエクスプレス長泉店 2F", "lat": 35.1289233, "lon": 138.8975052, "category": "100円ショップ", "category_id": "0200001", "time": [], "star": 3.5, "review": 16}, {"name": "ドラッグストア クリエイト エス・ディー 長泉下土狩店", "address": "静岡県駿東郡長泉町下土狩1051-19", "lat": 35.1344504, "lon": 138.894111, "category": "ドラッグストア", "category_id": "0200699", "time": ["09:00-21:00"], "star": 4.2, "review": 56}]}, "top_restaurant": {"name": "勝楽", "category": "中華料理店", "star": 4.5, "review": 2}}, {"name": "下山村", "name_en": "Shimoyamamura", "lat": 35.5043297, "lon": 137.8393793, "osm_id": 264868598, "operator": "", "railway": "station", "wikidata": "Q985234", "wikipedia_tag": "ja:下山村駅", "lines": ["飯田線"], "pref": "静岡県", "nearby_bus_stops": [{"name": "JAみどりの広場", "lat": 35.5053186, "lon": 137.8420184, "distance_m": 263, "operator": ""}, {"name": "西鼎", "lat": 35.5074237, "lon": 137.8378601, "distance_m": 371, "operator": ""}, {"name": "飯田橋", "lat": 35.5082901, "lon": 137.838573, "distance_m": 446, "operator": ""}, {"name": "飯田橋", "lat": 35.5086348, "lon": 137.8383116, "distance_m": 488, "operator": ""}], "wikipedia_text": "下山村駅（しもやまむらえき）は、長野県飯田市鼎下山にある、東海旅客鉄道（JR東海）飯田線の駅である。", "wikipedia_image": "https://upload.wikimedia.org/wikipedia/commons/6/6e/Shimoyamamura_station.jpg", "nearest_convenience": {"name": "ファミリーマート", "lat": 35.5048811, "lon": 137.842558, "address": "", "distance_m": 294, "brand": "FamilyMart"}, "nearest_restaurant": {"name": "天の雫", "lat": 35.5061756, "lon": 137.8450316, "address": "", "distance_m": 551, "cuisine": "japanese"}, "nearby_pois": {"コンビニ": [{"name": "ファミリーマート 東かなえ店", "address": "長野県飯田市鼎東鼎168", "lat": 35.5048739, "lon": 137.8424779, "category": "コンビニ", "category_id": "0200487", "time": ["00:00-24:00"], "star": 3.5, "review": 2}, {"name": "ローソン 飯田上郷別府", "address": "長野県飯田市上郷別府3333-4", "lat": 35.5103177, "lon": 137.8425943, "category": "コンビニ", "category_id": "0200487", "time": ["00:00-24:00"], "star": 4.23, "review": 9}, {"name": "セブンイレブン 飯田水の手", "address": "長野県飯田市東中央通5-92", "lat": 35.5101343, "lon": 137.8370727, "category": "コンビニ", "category_id": "0200487", "time": ["00:00-24:00"], "star": 4.7, "review": 2}, {"name": "ローソン 飯田西鼎", "address": "長野県飯田市鼎下山913-1", "lat": 35.5080011, "lon": 137.8340314, "category": "コンビニ", "category_id": "0200487", "time": ["00:00-24:00"], "star": 4.17, "review": 15}, {"name": "セブンイレブン 飯田鼎下山", "address": "長野県飯田市鼎下山820-1", "lat": 35.5040432, "lon": 137.8334345, "category": "コンビニ", "category_id": "0200487", "time": ["00:00-24:00"], "star": 4.33, "review": 5}, {"name": "ローソン 飯田八幡町", "address": "長野県飯田市八幡町2152-8", "lat": 35.4967746, "lon": 137.8393537, "category": "コンビニ", "category_id": "0200487", "time": ["00:00-24:00"], "star": 4.28, "review": 16}, {"name": "ファミリーマート 飯田鼎名古熊店", "address": "長野県飯田市鼎名古熊2517-1", "lat": 35.4995713, "lon": 137.8316016, "category": "コンビニ", "category_id": "0200487", "time": ["00:00-24:00"], "star": 4.22, "review": 7}, {"name": "セブンイレブン 飯田市立病院前", "address": "長野県飯田市鼎名古熊2605-5", "lat": 35.4987687, "lon": 137.8339653, "category": "コンビニ", "category_id": "0200487", "time": ["00:00-24:00"], "star": 4.29, "review": 13}, {"name": "ニューデイリーストア 飯田市立病院店", "address": "長野県飯田市八幡町438", "lat": 35.4992142, "lon": 137.8361053, "category": "コンビニ", "category_id": "0200487", "time": [], "star": 0.0, "review": 0}], "ラーメン": [{"name": "大石家", "address": "長野県飯田市鼎名古熊2520-3", "lat": 35.50038738, "lon": 137.83155933, "category": "ラーメン店", "category_id": "0100097", "time": ["10:30-20:00"], "star": 3.73, "review": 21}, {"name": "ちゃあしゅう屋 飯田店", "address": "長野県飯田市鼎名古熊2507-1", "lat": 35.49853561, "lon": 137.83120447, "category": "ラーメン店", "category_id": "0100097", "time": ["11:30-22:30"], "star": 4.09, "review": 14}, {"name": "来集軒", "address": "長野県飯田市上郷別府3345-9", "lat": 35.51113429, "lon": 137.84127665, "category": "中華料理店", "category_id": "0100990", "time": ["11:00-13:30", "17:00-19:30"], "star": 4.43, "review": 14}, {"name": "大進食堂", "address": "長野県飯田市鼎下山732-7", "lat": 35.50458149, "lon": 137.83478625, "category": "定食屋", "category_id": "0101441", "time": ["11:00-14:00", "17:00-20:00"], "star": 4.36, "review": 12}, {"name": "名古乃", "address": "長野県飯田市鼎東鼎36-2", "lat": 35.50604462, "lon": 137.84402077, "category": "うどん店", "category_id": "0100033", "time": ["11:00-13:30", "17:00-19:30"], "star": 3.7, "review": 6}, {"name": "大雅", "address": "長野県飯田市鼎下山1278-4", "lat": 35.50545626, "lon": 137.82994284, "category": "中華料理店", "category_id": "0100990", "time": ["11:00-14:00", "17:00-21:00"], "star": 3.32, "review": 12}, {"name": "クロス カフェ 飯田店", "address": "長野県飯田市八幡町438", "lat": 35.499816398217, "lon": 137.83623032391, "category": "カフェ・喫茶", "category_id": "0100344", "time": ["08:30-20:00"], "star": 3.79, "review": 1}], "飲食店": [{"name": "PUB ちょい呑み屋", "address": "長野県飯田市八幡町2035 ヤマイロゲストハウス", "lat": 35.497069158219, "lon": 137.83884255388, "category": "バー", "category_id": "0100536", "time": ["18:00-22:00"], "star": 0.0, "review": 1}, {"name": "ヌク テテリア", "address": "長野県飯田市東中央通り3271-1", "lat": 35.5113887, "lon": 137.8352053, "category": "紅茶店", "category_id": "0102154", "time": [], "star": 4.54, "review": 9}, {"name": "PIZZERIA SiNA", "address": "長野県飯田市鼎名古熊2444-2 1F", "lat": 35.500387668214, "lon": 137.83087416391, "category": "ピザ店", "category_id": "0100780", "time": ["11:00-14:30", "17:00-21:00"], "star": 3.4, "review": 1}, {"name": "大進食堂", "address": "長野県飯田市鼎下山732-7", "lat": 35.50458149, "lon": 137.83478625, "category": "定食屋", "category_id": "0101441", "time": ["11:00-14:00", "17:00-20:00"], "star": 4.36, "review": 12}, {"name": "五味鶏料理", "address": "長野県飯田市八幡町2130", "lat": 35.4964721, "lon": 137.8392932, "category": "鶏料理店", "category_id": "0101961", "time": [], "star": 0.0, "review": 0}, {"name": "イル・グスト チッチ", "address": "長野県飯田市鼎名古熊2541-1", "lat": 35.502415898213, "lon": 137.83175927393, "category": "カフェ・喫茶", "category_id": "0100344", "time": ["11:00-19:00"], "star": 4.27, "review": 11}, {"name": "カフェ JAM", "address": "長野県飯田市上郷別府3353-9", "lat": 35.509514492121, "lon": 137.83948797976, "category": "飲食店", "category_id": "0102732", "time": [], "star": 4.33, "review": 2}, {"name": "シン・鶏研", "address": "長野県飯田市鼎東鼎104-7 ", "lat": 35.50630844, "lon": 137.84151448, "category": "焼肉店", "category_id": "0101963", "time": ["11:00-14:00", "17:00-24:00"], "star": 4.75, "review": 2}, {"name": "鶏肉研究所", "address": "長野県飯田市鼎東鼎104-7", "lat": 35.5059099, "lon": 137.8411648, "category": "居酒屋", "category_id": "0101495", "time": [], "star": 4.0, "review": 1}, {"name": "クロス カフェ 飯田店", "address": "長野県飯田市八幡町438", "lat": 35.499816398217, "lon": 137.83623032391, "category": "カフェ・喫茶", "category_id": "0100344", "time": ["08:30-20:00"], "star": 3.79, "review": 1}, {"name": "食事処　天月", "address": "長野県飯田市鼎下山1236-2", "lat": 35.50521245, "lon": 137.83159851, "category": "和食店", "category_id": "0100126", "time": ["11:00-14:00", "17:00-21:00"], "star": 3.93, "review": 13}, {"name": "名古乃", "address": "長野県飯田市鼎東鼎36-2", "lat": 35.50604462, "lon": 137.84402077, "category": "うどん店", "category_id": "0100033", "time": ["11:00-13:30", "17:00-19:30"], "star": 3.7, "review": 6}, {"name": "お食事処 トキ", "address": "長野県飯田市東中央通り3271-1", "lat": 35.511384448209, "lon": 137.83515504402, "category": "レストラン", "category_id": "0100111", "time": ["11:00-15:00", "17:00-22:00"], "star": 3.0, "review": 2}, {"name": "食楽居酒屋ちまた", "address": "長野県飯田市鼎下山471-4", "lat": 35.50418103, "lon": 137.83704437, "category": "居酒屋", "category_id": "0101495", "time": [], "star": 0.0, "review": 0}, {"name": "ロカンディーナ ミヤザワ", "address": "長野県飯田市上郷別府1403-1 1F", "lat": 35.50792644, "lon": 137.84740394, "category": "イタリア料理店", "category_id": "0100263", "time": ["11:30-15:00", "18:00-23:00"], "star": 4.26, "review": 11}, {"name": "焼肉お食事処木下", "address": "長野県飯田市松尾久井2400-1", "lat": 35.49975355, "lon": 137.84120888, "category": "焼肉店", "category_id": "0101963", "time": [], "star": 4.6, "review": 3}, {"name": "ベッラソニア", "address": "長野県飯田市鼎下山1419-1", "lat": 35.502816458213, "lon": 137.83210842394, "category": "イタリア料理店", "category_id": "0100263", "time": ["11:30-14:30", "18:00-21:30"], "star": 3.94, "review": 10}, {"name": "ソットオーリオ", "address": "長野県飯田市鼎名古熊2581-2", "lat": 35.49892003, "lon": 137.83179799, "category": "イタリア料理店", "category_id": "0100263", "time": ["11:00-15:30", "17:00-21:30"], "star": 3.92, "review": 53}, {"name": "ピノキオ 鼎本店", "address": "長野県飯田市鼎西鼎574-3", "lat": 35.50910662, "lon": 137.83675166, "category": "洋食店", "category_id": "0100129", "time": ["09:00-22:00"], "star": 3.67, "review": 7}, {"name": "天の雫", "address": "長野県飯田市松尾上溝2971-1", "lat": 35.50616963, "lon": 137.84499233, "category": "割烹・小料理屋", "category_id": "0101190", "time": ["11:00-13:30", "17:30-23:00"], "star": 3.58, "review": 12}], "カフェ": [{"name": "ヌク テテリア", "address": "長野県飯田市東中央通り3271-1", "lat": 35.5113887, "lon": 137.8352053, "category": "紅茶店", "category_id": "0102154", "time": [], "star": 4.54, "review": 9}, {"name": "イル・グスト チッチ", "address": "長野県飯田市鼎名古熊2541-1", "lat": 35.502415898213, "lon": 137.83175927393, "category": "カフェ・喫茶", "category_id": "0100344", "time": ["11:00-19:00"], "star": 4.27, "review": 11}, {"name": "カフェ JAM", "address": "長野県飯田市上郷別府3353-9", "lat": 35.509514492121, "lon": 137.83948797976, "category": "飲食店", "category_id": "0102732", "time": [], "star": 4.33, "review": 2},