[{"name": "あわくら温泉", "name_en": "Awakura Onsen", "lat": 35.1886564, "lon": 134.3368749, "osm_id": 355837825, "operator": "智頭急行", "railway": "station", "wikidata": "Q4829757", "wikipedia_tag": "ja:あわくら温泉駅", "lines": [], "pref": "鳥取県", "wikipedia_text": "あわくら温泉駅（あわくらおんせんえき）は、岡山県英田郡西粟倉村影石にある、智頭急行智頭線の駅である。当駅は岡山県では最東端に位置する駅である。", "wikipedia_image": "https://upload.wikimedia.org/wikipedia/commons/6/69/Chizu_express_Awakura-onsen_station.jpg", "nearest_restaurant": {"name": "フレル食堂（西粟倉・森の学校）", "lat": 35.1935712, "lon": 134.33653, "address": "", "distance_m": 547, "cuisine": ""}, "nearby_pois": {"飲食店": [{"name": "くつろぎ処くんちでん", "address": "岡山県英田郡西粟倉村影石1315", "lat": 35.185691207301, "lon": 134.33464898319, "category": "カフェ・喫茶", "category_id": "0100344", "time": ["09:00-21:00"], "star": 4.25, "review": 4}, {"name": "酒うらら", "address": "岡山県英田郡西粟倉村影石895 旧影石小学校 1F", "lat": 35.193516537297, "lon": 134.33664378326, "category": "バー", "category_id": "0100536", "time": [], "star": 3.7, "review": 1}, {"name": "ログ M", "address": "岡山県英田郡西粟倉村影石713-3", "lat": 35.19026932, "lon": 134.33794998, "category": "カフェ・喫茶", "category_id": "0100344", "time": ["09:00-16:00"], "star": 3.77, "review": 3}, {"name": "にしあわくら小林菓子店", "address": "岡山県英田郡西粟倉村大字影石591-1", "lat": 35.18766965399343, "lon": 134.33751167439266, "category": "ケーキ店", "category_id": "0100460", "time": ["10:00-18:00"], "star": 4.19, "review": 14}, {"name": "あわくら旬の里", "address": "岡山県英田郡西粟倉村影石521", "lat": 35.18206797, "lon": 134.33490812, "category": "飲食店", "category_id": "0102732", "time": ["10:00-15:00"], "star": 4.08, "review": 8}, {"name": "道の駅レストセンター あわくらんど レストラン", "address": "岡山県英田郡西粟倉村影石418", "lat": 35.180244907305, "lon": 134.33535438313, "category": "丼もの店", "category_id": "0100098", "time": ["11:00-15:00"], "star": 3.72, "review": 18}, {"name": "あわくら 旬の里 バイキングレストラン", "address": "岡山県英田郡西粟倉村影石 大字影石521", "lat": 35.18206787109375, "lon": 134.3349151611328, "category": "飲食店", "category_id": "0102732", "time": ["10:00-15:00"], "star": 4.83, "review": 1}, {"name": "amoca", "address": "岡山県英田郡西粟倉村影石 580-1 amoca黒棟", "lat": 35.186475186036, "lon": 134.33133908691, "category": "飲食店", "category_id": "0102732", "time": [], "star": 0.0, "review": 0}, {"name": "大愚", "address": "岡山県英田郡西粟倉村影石1133-1", "lat": 35.183460117302, "lon": 134.33519574316, "category": "蕎麦店", "category_id": "0100034", "time": [], "star": 3.5, "review": 1}, {"name": "ほるやんBBQ倶楽部", "address": "岡山県英田郡西粟倉村大字影石521", "lat": 35.18179328, "lon": 134.33479147, "category": "飲食店", "category_id": "0102732", "time": ["11:00-14:00"], "star": 0.0, "review": 0}, {"name": "株式会社あわくらグリーンリゾート", "address": "岡山県英田郡 西粟倉村大字影石418", "lat": 35.17979045, "lon": 134.33553874, "category": "温泉旅館", "category_id": "0301918", "time": [], "star": 4.17, "review": 2}, {"name": "そば処", "address": "岡山県英田郡西粟倉村影石2072-6", "lat": 35.1900508, "lon": 134.3283408, "category": "定食屋", "category_id": "0101441", "time": [], "star": 3.0, "review": 1}, {"name": "道の駅 あわくらんど", "address": "岡山県英田郡西粟倉村影石418", "lat": 35.1801626, "lon": 134.3352721, "category": "道の駅", "category_id": "0302504", "time": ["09:00-17:00"], "star": 3.87, "review": 102}, {"name": "湯～とぴあ 黄金泉", "address": "岡山県英田郡西粟倉村影石2072-6", "lat": 35.19006555, "lon": 134.32838828, "category": "日帰り入浴", "category_id": "0401679", "time": ["12:00-21:00"], "star": 3.97, "review": 20}], "カフェ": [{"name": "くつろぎ処くんちでん", "address": "岡山県英田郡西粟倉村影石1315", "lat": 35.185691207301, "lon": 134.33464898319, "category": "カフェ・喫茶", "category_id": "0100344", "time": ["09:00-21:00"], "star": 4.25, "review": 4}, {"name": "ログ M", "address": "岡山県英田郡西粟倉村影石713-3", "lat": 35.19026932, "lon": 134.33794998, "category": "カフェ・喫茶", "category_id": "0100344", "time": ["09:00-16:00"], "star": 3.77, "review": 3}, {"name": "にしあわくら小林菓子店", "address": "岡山県英田郡西粟倉村大字影石591-1", "lat": 35.18766965399343, "lon": 134.33751167439266, "category": "ケーキ店", "category_id": "0100460", "time": ["10:00-18:00"], "star": 4.19, "review": 14}, {"name": "道の駅レストセンター あわくらんど レストラン", "address": "岡山県英田郡西粟倉村影石418", "lat": 35.180244907305, "lon": 134.33535438313, "category": "丼もの店", "category_id": "0100098", "time": ["11:00-15:00"], "star": 3.72, "review": 18}, {"name": "ミルクスタンドモリノカフェ", "address": "岡山県英田郡西粟倉村大字影石418", "lat": 35.17976128, "lon": 134.33554429, "category": "", "category_id": "", "time": [], "star": 0.0, "review": 0}], "銭湯 温泉": [{"name": "湯～とぴあ 黄金泉", "address": "岡山県英田郡西粟倉村影石2072-6", "lat": 35.19006555, "lon": 134.32838828, "category": "日帰り入浴", "category_id": "0401679", "time": ["12:00-21:00"], "star": 3.97, "review": 20}]}, "top_restaurant": {"name": "あわくら 旬の里 バイキングレストラン", "category": "飲食店", "star": 4.83, "review": 1}}, {"name": "三本松口", "name_en": "Sambommatsuguchi", "lat": 35.44626, "lon": 133.3228353, "osm_id": 266921493, "operator": "", "railway": "station", "wikidata": "Q4208015", "wikipedia_tag": "ja:三本松口駅", "lines": [], "pref": "鳥取県", "wikipedia_text": "三本松口駅（さんぼんまつぐちえき）は、鳥取県米子市三本松四丁目にある、西日本旅客鉄道（JR西日本）境線の駅である。境線各駅には妖怪の名前から取られた愛称が付与されており、当駅は「そでひき小僧駅」と名付けられている。", "wikipedia_image": "https://upload.wikimedia.org/wikipedia/commons/b/b3/Sambommatsuguchi_station.jpg", "nearest_convenience": {"name": "ローソン", "lat": 35.447877, "lon": 133.3234356, "address": "", "distance_m": 188, "brand": "LAWSON"}, "nearest_restaurant": {"name": "はま寿司　米子店", "lat": 35.4492464, "lon": 133.3231485, "address": "", "distance_m": 333, "cuisine": "sushi"}, "nearby_pois": {"コンビニ": [{"name": "ローソン 米子三本松口", "address": "鳥取県米子市両三柳字大沢16-268-2", "lat": 35.4480083, "lon": 133.3237192, "category": "コンビニ", "category_id": "0200487", "time": ["00:00-24:00"], "star": 4.33, "review": 17}, {"name": "ファミリーマート 養和病院前店", "address": "鳥取県米子市上後藤3-2-15", "lat": 35.4469251, "lon": 133.3175029, "category": "コンビニ", "category_id": "0200487", "time": ["00:00-24:00"], "star": 4.24, "review": 9}, {"name": "セブンイレブン 米子米原5丁目", "address": "鳥取県米子市米原5-491", "lat": 35.4442616, "lon": 133.3309662, "category": "コンビニ", "category_id": "0200487", "time": ["00:00-24:00"], "star": 4.09, "review": 27}, {"name": "ローソン 米子義方小前", "address": "鳥取県米子市角盤町4-162-1", "lat": 35.4386814, "lon": 133.3257751, "category": "コンビニ", "category_id": "0200487", "time": ["00:00-24:00"], "star": 3.88, "review": 15}, {"name": "ローソン 米子自衛隊道路西", "address": "鳥取県米子市両三柳字大沢十九668-3", "lat": 35.4540522, "lon": 133.3214552, "category": "コンビニ", "category_id": "0200487", "time": ["00:00-24:00"], "star": 4.0, "review": 0}, {"name": "ローソン 米子両三柳中央", "address": "鳥取県米子市両三柳50-2", "lat": 35.4510192, "lon": 133.3321465, "category": "コンビニ", "category_id": "0200487", "time": ["00:00-24:00"], "star": 3.78, "review": 11}, {"name": "セブンイレブン 米子両三柳中央", "address": "鳥取県米子市両三柳495-1", "lat": 35.4534914, "lon": 133.325257, "category": "コンビニ", "category_id": "0200487", "time": ["00:00-24:00"], "star": 0.0, "review": 0}, {"name": "マルイ 両三柳店", "address": "鳥取県米子市両三柳58-2", "lat": 35.4510498, "lon": 133.3307187, "category": "スーパー", "category_id": "0200612", "time": ["09:00-22:00"], "star": 4.1, "review": 101}, {"name": "ビジネス旅館さつまコンパートメント", "address": "鳥取県米子市米原9-803-2", "lat": 35.44966933, "lon": 133.32895777, "category": "ホテル", "category_id": "0300124", "time": [], "star": 4.41, "review": 11}, {"name": "まるごう 上後藤店", "address": "鳥取県米子市三旗町7-16", "lat": 35.4409451, "lon": 133.3213336, "category": "スーパー", "category_id": "0200612", "time": ["09:00-22:00"], "star": 3.74, "review": 111}, {"name": "ヤマトホームコンビニエンス米子支店", "address": "鳥取県米子市両三柳866-3", "lat": 35.45010255, "lon": 133.32014706, "category": "引越業者", "category_id": "0402804", "time": [], "star": 0.0, "review": 0}], "ラーメン": [{"name": "麺場 田所商店 唐崎商店", "address": "鳥取県米子市両三柳310-1", "lat": 35.44985841, "lon": 133.32173561, "category": "ラーメン店", "category_id": "0100097", "time": ["11:00-22:30"], "star": 4.06, "review": 102}, {"name": "拉麺屋神楽 元祖 東京まぜそば 麺屋 まつり 米子店", "address": "鳥取県米子市米原7-16-20", "lat": 35.4471497, "lon": 133.329603, "category": "ラーメン店", "category_id": "0100097", "time": ["11:00-22:00"], "star": 3.99, "review": 22}, {"name": "米子丿貫", "address": "鳥取県米子市米原5-1-37", "lat": 35.44301167, "lon": 133.33205511, "category": "ラーメン店", "category_id": "0100097", "time": [], "star": 3.9, "review": 15}, {"name": "ラーメン 心", "address": "鳥取県米子市立町4-20-4", "lat": 35.4382995, "lon": 133.32477017, "category": "ラーメン店", "category_id": "0100097", "time": ["11:00-21:30"], "star": 3.44, "review": 5}, {"name": "笑福 米子両三柳店", "address": "鳥取県米子市両三柳58-3", "lat": 35.451719776812, "lon": 133.33040081658, "category": "ラーメン店", "category_id": "0100097", "time": ["11:15-14:00", "18:00-21:00"], "star": 3.78, "review": 26}, {"name": "横浜家系ラーメン 吉岡家 米子錦町店", "address": "鳥取県米子市錦町3-148-2", "lat": 35.4405438, "lon": 133.32685, "category": "ラーメン店", "category_id": "0100097", "time": ["11:00-22:00"], "star": 3.21, "review": 22}, {"name": "中華飯店萬龍軒", "address": "鳥取県米子市角盤町4-145", "lat": 35.43860506, "lon": 133.32690336, "category": "中華料理店", "category_id": "0100990", "time": ["11:30-14:00", "17:30-21:00"], "star": 4.03, "review": 27}, {"name": "元祖牛肉そばつけ麺 為セバ成ル。+餃子 MEGAドン・キホーテ米子店", "address": "鳥取県米子市米原2-1-1 MEGAドン・キホーテ米子店 1Fフードコート", "lat": 35.44269779, "lon": 133.33064964, "category": "飲食店", "category_id": "0102732", "time": ["11:00-22:00"], "star": 4.65, "review": 2}, {"name": "中国菜苑チャイナカクテル", "address": "鳥取県米子市米原1-4-20 米原第2ビル 1F", "lat": 35.441565506818, "lon": 133.32914800648, "category": "中華料理店", "category_id": "0100990", "time": ["11:30-14:00", "18:00-22:00"], "star": 3.65, "review": 13}, {"name": "やきとん ときや", "address": "鳥取県米子市上後藤2-9-36", "lat": 35.445623806813, "lon": 133.32174180652, "category": "居酒屋", "category_id": "0101495", "time": ["17:30-23:30"], "star": 3.0, "review": 0}, {"name": "情熱食堂 米原店", "address": "鳥取県米子市米原5-2-25", "lat": 35.4438962, "lon": 133.331329, "category": "定食屋", "category_id": "0101441", "time": ["11:30-19:00"], "star": 3.2, "review": 7}, {"name": "吉岡屋", "address": "鳥取県米子市錦町3丁目147-1", "lat": 35.44053544, "lon": 133.32686355, "category": "家系ラーメン店", "category_id": "0102859", "time": [], "star": 0.0, "review": 1}, {"name": "小だに そば処", "address": "鳥取県米子市両三柳1487", "lat": 35.45064304, "lon": 133.31580971, "category": "蕎麦店", "category_id": "0100034", "time": ["11:00-14:30"], "star": 3.56, "review": 15}], "飲食店": [{"name": "ゲッティータナカ@Kitchen Lab.ハミング店", "address": "鳥取県米子市両三柳168", "lat": 35.449749928656, "lon": 133.32455875798, "category": "洋食店", "category_id": "0100129", "time": [], "star": 3.0, "review": 0}, {"name": "Elulu", "address": "鳥取県米子市両三柳206-2", "lat": 35.450030136811, "lon": 133.32482748656, "category": "カフェ・喫茶", "category_id": "0100344", "time": ["10:00-17:00"], "star": 0.0, "review": 1}, {"name": "はなまる食堂", "address": "鳥取県米子市米原9-2-40", "lat": 35.447162240377, "lon": 133.32880833807, "category": "定食屋", "category_id": "0101441", "time": ["11:00-16:00"], "star": 3.0, "review": 4}, {"name": "アイムコーヒー 錦町店", "address": "鳥取県米子市錦町3-90", "lat": 35.438842841926, "lon": 133.32820599336, "category": "カフェ・喫茶", "category_id": "0100344", "time": ["09:00-22:00"], "star": 3.65, "review": 10}, {"name": "しゃぶしゃぶ すき焼き 食べ放題 金星", "address": "鳥取県米子市米原8-13-22", "lat": 35.4500046, "lon": 133.3312578, "category": "しゃぶしゃぶ店", "category_id": "0100095", "time": [], "star": 3.44, "review": 1}, {"name": "ラッキータナカ", "address": "鳥取県米子市両三柳168", "lat": 35.44971717037, "lon": 133.32454274136, "category": "焼きそば店", "category_id": "0100135", "time": [], "star": 0.0, "review": 0}, {"name": "海鮮れすとらん 四季庵 米子店", "address": "鳥取県米子市両三柳780-1", "lat": 35.450836, "lon": 133.319995, "category": "レストラン", "category_id": "0100111", "time": ["11:00-14:30", "17:00-21:00"], "star": 3.86, "review": 40}, {"name": "焼肉じゅうじゅう", "address": "鳥取県米子市上後藤7-1-35", "lat": 35.448910743975, "lon": 133.3142166549, "category": "焼肉店", "category_id": "0101963", "time": [], "star": 0.0, "review": 0}, {"name": "麦笑製麺所", "address": "鳥取県米子市両三柳220-1", "lat": 35.446911556814, "lon": 133.32624958653, "category": "飲食店", "category_id": "0102732", "time": ["11:00-17:00"], "star": 3.01, "review": 13}, {"name": "ローリエ", "address": "鳥取県米子市両三柳271", "lat": 35.4482383, "lon": 133.32333228, "category": "洋食店", "category_id": "0100129", "time": ["07:30-17:00"], "star": 4.04, "review": 51}, {"name": "レストラン アザレアコート.", "address": "鳥取県米子市両三柳1400", "lat": 35.449765876809, "lon": 133.31630768657, "category": "レストラン", "category_id": "0100111", "time": ["08:00-09:30", "11:30-16:00", "17:30-22:00"], "star": 4.07, "review": 14}, {"name": "プランツ 両三柳店", "address": "鳥取県米子市両三柳52-1", "lat": 35.450589565919, "lon": 133.33089658203, "category": "飲食店", "category_id": "0102732", "time": ["09:00-16:30"], "star": 4.5, "review": 4}, {"name": "無頓着", "address": "鳥取県米子市上後藤2-9-36 第1野村マンション 1F", "lat": 35.445664806813, "lon": 133.32173218652, "category": "居酒屋", "category_id": "0101495", "time": ["16:00-22:00"], "star": 3.95, "review": 2}, {"name": "OrangeCoffeeStan", "address": "鳥取県 米子市 7−2−1", "lat": 35.44472349999999, "lon": 133.3315218, "category": "飲食店", "category_id": "0102732", "time": ["10:30-16:30"], "star": 4.5, "review": 1}, {"name": "出雲そば鹿幸", "address": "鳥取県米子市米原9丁目3-20", "lat": 35.44764118, "lon": 133.32725239, "category": "飲食店", "category_id": "0102732", "time": ["12:00-14:00"], "star": 2.76, "review": 9}, {"name": "やきとん ときや", "address": "鳥取県米子市上後藤2-9-36", "lat": 35.445623806813, "lon": 133.32174180652, "category": "居酒屋", "category_id": "0101495", "time": ["17:30-23:30"], "star": 3.0, "review": 0}, {"name": "ひの木屋 米原店", "address": "鳥取県米子市米原5-7-2", "lat": 35.445383596815, "lon": 133.32834628652, "category": "蕎麦店", "category_id": "0100034", "time": ["11:00-15:30", "17:00-20:00"], "star": 4.1, "review": 35}, {"name": "魚ノ哲学", "address": "鳥取県米子市両三柳58-3", "lat": 35.451621736812, "lon": 133.33034316658, "category": "カフェ・喫茶", "category_id": "0100344", "time": ["11:00-23:00"], "star": 4.03, "review": 14}, {"name": "カラオケ喫茶双子座", "address": "鳥取県米子市両三柳255-3", "lat": 35.44677789, "lon": 133.32340317, "category": "カフェ・喫茶", "category_id": "0100344", "time": [], "star": 0.0, "review": 0}, {"name": "カフェ アンド ベーカリー アプリコ", "address": "鳥取県米子市上後藤8-9-23", "lat": 35.449586976809, "lon": 133.31523290657, "category": "カフェ・喫茶", "category_id": "0100344", "time": ["10:00-18:30"], "star": 4.15, "review": 41}], "カフェ": [{"name": "Elulu", "address": "鳥取県米子市両三柳206-2", "lat": 35.450030136811, "lon": 133.32482748656, "category": "カフェ・喫茶", "category_id": "0100344", "time": ["10:00-17:00"], "star": 0.0, "review": 1}, {"name": "カフェ アンド ベーカリー アプリコ", "address": "鳥取県米子市上後藤8-9-23", "lat": 35.449586976809, "lon": 133.31523290657, "category": "カフェ・喫茶", "category_id": "0100344", "time": ["10:00-18:30"], "star": 4.15, "review": 41}, {"name": "アイムコーヒー 錦町店", "address": "鳥取県米子市錦町3-90", "lat": 35.438842841926, "lon": 133.32820599336, "category": "カフェ・喫茶", "category_id": "0100344", "time": ["09:00-22:00"], "star": 3.65, "review": 10}, {"name": "CafeTom’s", "address": "鳥取県米子市両三柳168", "lat": 35.449726104736, "lon": 133.32450866699, "category": "カフェ・喫茶", "category_id": "0100344", "time": [], "star": 0.0, "review": 0}, {"name": "ナチュラルキッチン&カフェ frais", "address": "鳥取県米子市米原1-4-20 米原第二ビル 1F", "lat": 35.441510786818, "lon": 133.32905845648, "category": "カフェ・喫茶", "category_id": "0100344", "time": ["11:00-23:00"], "star": 4.23, "review": 19}, {"name": "ヨウショクヤカフェレストピュア", "address": "鳥取県米子市上後藤1-8-57", "lat": 35.44141252, "lon": 133.32098606, "category": "洋食店", "category_id": "0100129", "time": ["12:00-15:00", "17:30-21:30"], "star": 3.73, "review": 16}, {"name": "魚ノ哲学", "address": "鳥取県米子市両三柳58-3", "lat": 35.451621736812, "lon": 133.33034316658, "category": "カフェ・喫茶", "category_id": "0100344", "time": ["11:00-23:00"], "star": 4.03, "review": 14}, {"name": "カラオケ喫茶双子座", "address": "鳥取県米子市両三柳255-3", "lat": 35.44677789, "lon": 133.32340317, "category": "カフェ・喫茶", "category_id": "0100344", "time": [], "star": 0.0, "review": 0}, {"name": "ラバール(LABAR)錦町店", "address": "鳥取県米子市錦町3丁目68-5", "lat": 35.438573063274, "lon": 133.32820472819, "category": "カフェ・喫茶", "category_id": "0100344", "time": ["10:00-19:00"], "star": 4.13, "review": 25}, {"name": "グランカフェF 錦町店", "address": "鳥取県米子市米原1-1-1", "lat": 35.4395212, "lon": 133.329685, "category": "パンケーキ店", "category_id": "0100744", "time": ["10:30-16:30"], "star": 3.97, "review": 16}, {"name": "空蝉cafe", "address": "鳥取県米子市両三柳1700-1", "lat": 35.45141381, "lon": 133.31886927, "category": "カフェ・喫茶", "category_id": "0100344", "time": ["09:00-17:00"], "star": 3.5, "review": 1}, {"name": "風", "address": "鳥取県米子市両三柳493-1", "lat": 35.45392749, "lon": 133.32528639, "category": "カフェ・喫茶", "category_id": "0100344", "time": ["08:30-19:00"], "star": 3.92, "review": 16}, {"name": "ル・パティシエ・ミエル", "address": "鳥取県米子市米原5-10-10", "lat": 35.44568526, "lon": 133.3274258, "category": "ケーキ店", "category_id": "0100460", "time": ["12:00-19:00"], "star": 4.15, "review": 31}, {"name": "澤井珈琲 米子米原店", "address": "鳥取県米子市米原4-6-30", "lat": 35.44245422, "lon": 133.33202513, "category": "コーヒー店", "category_id": "0100496", "time": ["09:00-18:30"], "star": 4.48, "review": 22}, {"name": "ローリエ", "address": "鳥取県米子市両三柳271", "lat": 35.4482383, "lon": 133.32333228, "category": "洋食店", "category_id": "0100129", "time": ["07:30-17:00"], "star": 4.04, "review": 51}, {"name": "たこ焼き いち", "address": "鳥取県米子市三旗町6-6", "lat": 35.44104923, "lon": 133.32192936, "category": "カフェ・喫茶", "category_id": "0100344", "time": ["10:00-19:00"], "star": 3.07, "review": 3}, {"name": "ルセット", "address": "鳥取県米子市三本松2-11-26", "lat": 35.44174361, "lon": 133.32232986, "category": "ケーキ店", "category_id": "0100460", "time": [], "star": 3.63, "review": 13}, {"name": "カフェf 上後藤店", "address": "鳥取県米子市上後藤4丁目16-1", "lat": 35.44527521, "lon": 133.31778391, "category": "カフェ・喫茶", "category_id": "0100344", "time": [], "star": 0.0, "review": 0}, {"name": "キルシェ", "address": "鳥取県米子市米原9丁目11-12", "lat": 35.45009705, "lon": 133.32846528, "category": "カフェ・喫茶", "category_id": "0100344", "time": [], "star": 0.0, "review": 0}, {"name": "ロコ", "address": "鳥取県米子市上後藤6-14-40", "lat": 35.44739111, "lon": 133.31399746, "category": "カフェ・喫茶", "category_id": "0100344", "time": ["09:00-17:00"], "star": 3.57, "review": 3}], "ドラッグストア": [{"name": "ウェルネス 米原店", "address": "鳥取県米子市米原5丁目11-29", "lat": 35.44606967, "lon": 133.32702469, "category": "ドラッグストア", "category_id": "0200699", "time": ["09:00-22:00"], "star": 3.97, "review": 27}, {"name": "ザグザグ 両三柳店", "address": "鳥取県米子市両三柳287-1", "lat": 35.4484974, "lon": 133.323054, "category": "ドラッグストア", "category_id": "0200699", "time": ["09:00-24:00"], "star": 4.0, "review": 0}, {"name": "ドラッグストアコスモス 両三柳店", "address": "鳥取県米子市両三柳４５－１ ", "lat": 35.4504526, "lon": 133.33194648, "category": "ドラッグストア", "category_id": "0200699", "time": ["10:00-21:00"], "star": 3.87, "review": 72}, {"name": "ココカラファイン 神薬堂両三柳店", "address": "鳥取県米子市両三柳58-1", "lat": 35.45130806, "lon": 133.33038819, "category": "ドラッグストア", "category_id": "0200699", "time": ["10:00-21:00"], "star": 3.67, "review": 8}, {"name": "後藤ヶ丘薬局", "address": "鳥取県米子市上後藤1丁目8", "lat": 35.44265075, "lon": 133.32105988, "category": "調剤薬局", "category_id": "0202315", "time": ["08:30-18:00"], "star": 3.0, "review": 0}, {"name": "むらかみ薬局三柳店", "address": "鳥取県米子市両三柳308", "lat": 35.44912709, "lon": 133.32153399, "category": "調剤薬局", "category_id": "0202315", "time": [], "star": 3.0, "review": 0}, {"name": "あい調剤薬局", "address": "鳥取県米子市上後藤2丁目3-6", "lat": 35.44394924, "lon": 133.32044345, "category": "調剤薬局", "category_id": "0202315", "time": [], "star": 0.0, "review": 0}, {"name": "エスマイル薬局 すみよしファミリー薬局", "address": "鳥取県米子市上後藤7-1-57", "lat": 35.44780774, "lon": 133.31428715, "category": "調剤薬局", "category_id": "0202315", "time": [], "star": 0.0, "review": 0}, {"name": "ローリエ薬局 角盤店", "address": "鳥取県米子市角盤町4丁目99", "lat": 35.4381246897, "lon": 133.3272091837, "category": "調剤薬局", "category_id": "0202315", "time": ["08:30-18:00"], "star": 3.0, "review": 0}, {"name": "マルイ 両三柳店", "address": "鳥取県米子市両三柳58-2", "lat": 35.4510498, "lon": 133.3307187, "category": "スーパー", "category_id": "0200612", "time": ["09:00-22:00"], "star": 4.1, "review": 101}, {"name": "くすりのサンライフ", "address": "鳥取県米子市三旗町6-1", "lat": 35.44076453, "lon": 133.32208826, "category": "食料品店", "category_id": "0200122", "time": [], "star": 3.5, "review": 0}, {"name": "今井薬局", "address": "鳥取県米子市上後藤5丁目13-34", "lat": 35.44762026, "lon": 133.31595181, "category": "調剤薬局", "category_id": "0202315", "time": [], "star": 0.0, "review": 0}, {"name": "岸岡薬局", "address": "鳥取県米子市両三柳2514", "lat": 35.45474464, "lon": 133.32595411, "category": "調剤薬局", "category_id": "0202315", "time": [], "star": 0.0, "review": 0}], "ATM": [{"name": "山陰合同銀行 米子西支店", "address": "鳥取県米子市錦町3-90-5", "lat": 35.4391286, "lon": 133.3274916, "category": "銀行", "category_id": "0402596", "time": ["09:00-15:00"], "star": 4.0, "review": 2}, {"name": "ゆうちょ銀行 米子上後藤郵便局", "address": "鳥取県米子市上後藤2-1-6", "lat": 35.4426251, "lon": 133.321651, "category": "銀行", "category_id": "0402596", "time": [], "star": 4.0, "review": 1}, {"name": "銀行ATM イーネット ファミリーマート養和病院前 共同出張所", "address": "鳥取県米子市上後藤3-2-15 ", "lat": 35.44689, "lon": 133.317457, "category": "ATM", "category_id": "0402785", "time": ["00:00-24:00"], "star": 0.0, "review": 0}, {"name": "鳥取銀行 ATM 住吉ATM", "address": "鳥取県米子市上後藤5丁目13-32", "lat": 35.44773831, "lon": 133.31580431, "category": "ATM", "category_id": "0402785", "time": [], "star": 0.0, "review": 0}, {"name": "銀行ATM イーネット ドン・キホーテ米子 共同出張所", "address": "鳥取県米子市米原2-1 ", "lat": 35.442742, "lon": 133.330455, "category": "ATM", "category_id": "0402785", "time": ["09:00-24:00"], "star": 0.0, "review": 0}, {"name": "山陰合同銀行 上後藤支店", "address": "鳥取県米子市上後藤8-1-1", "lat": 35.4479, "lon": 133.3160807, "category": "銀行", "category_id": "0402596", "time": ["09:00-15:00"], "star": 3.0, "review": 1}, {"name": "島根銀行 ATM 米子支店", "address": "鳥取県米子市錦町3-68-8", "lat": 35.4389855, "lon": 133.327994, "category": "ATM", "category_id": "0402785", "time": [], "star": 0.0, "review": 0}, {"name": "ゆうちょ銀行 ATM 米子上後藤郵便局", "address": "鳥取県米子市上後藤2-1-6", "lat": 35.4426251, "lon": 133.321651, "category": "ATM", "category_id": "0402785", "time": [], "star": 0.0, "review": 0}, {"name": "ローソン銀行 米子三本松口共同出張所", "address": "鳥取県米子市両三柳字大沢16-268-2", "lat": 35.4480093, "lon": 133.32373, "category": "ATM", "category_id": "0402785", "time": ["00:00-24:00"], "star": 0.0, "review": 0}, {"name": "鳥取銀行 ATM マルイ両三柳店", "address": "鳥取県米子市両三柳58-2", "lat": 35.4510839, "lon": 133.330733, "category": "ATM", "category_id": "0402785", "time": [], "star": 0.0, "review": 0}, {"name": "山陰合同銀行 ATM 丸合上後藤店", "address": "鳥取県米子市三旗町7-16 丸合上後藤店", "lat": 35.440969, "lon": 133.321291, "category": "ATM", "category_id": "0402785", "time": [], "star": 0.0, "review": 0}, {"name": "山陰合同銀行 ATM 上後藤支店", "address": "鳥取県米子市上後藤8-1-1", "lat": 35.4478764, "lon": 133.316119, "category": "ATM", "category_id": "0402785", "time": [], "star": 0.0, "review": 0}, {"name": "島根銀行 米子駅前出張所", "address": "鳥取県米子市錦町3-68-8", "lat": 35.4390092, "lon": 133.3279944, "category": "銀行", "category_id": "0402596", "time": [], "star": 0.0, "review": 1}, {"name": "JAバンク ATM 鳥取西部農業協同組合(JA鳥取西部)西ATM", "address": "鳥取県米子市両三柳1508-1", "lat": 35.4502199, "lon": 133.31516, "category": "ATM", "category_id": "0402785", "time": [], "star": 0.0, "review": 0}, {"name": "ゆうちょ銀行 米子米原簡易郵便局", "address": "鳥取県米子市米原7-1-8", "lat": 35.4442013, "lon": 133.332286, "category": "銀行", "category_id": "0402596", "time": [], "star": 4.0, "review": 0}, {"name": "島根銀行 米子支店", "address": "鳥取県米子市錦町3-68-8", "lat": 35.4390092, "lon": 133.3279944, "category": "銀行", "category_id": "0402596", "time": ["09:00-15:00"], "star": 0.0, "review": 0}, {"name": "山陰合同銀行 ATM 米子西支店", "address": "鳥取県米子市錦町3-90-5", "lat": 35.4391049, "lon": 133.327431, "category": "ATM", "category_id": "0402785", "time": [], "star": 0.0, "review": 0}, {"name": "セブン銀行 米子両三柳中央店", "address": "鳥取県米子市両三柳495-1", "lat": 35.4534543, "lon": 133.325205, "category": "ATM", "category_id": "0402785", "time": ["00:00-24:00"], "star": 0.0, "review": 0}, {"name": "島根銀行 米子東出張所", "address": "鳥取県米子市錦町3-68-8", "lat": 35.4390092, "lon": 133.3279944, "category": "銀行", "category_id": "0402596", "time": ["09:00-15:00"], "star": 0.0, "review": 0}, {"name": "セブン銀行 米子米原5丁目店", "address": "鳥取県米子市米原5-491", "lat": 35.4442417, "lon": 133.330915, "category": "ATM", "category_id": "0402785", "time": ["00:00-24:00"], "star": 0.0, "review": 0}], "スーパーマーケット": [{"name": "マルイ 両三柳店", "address": "鳥取県米子市両三柳58-2", "lat": 35.4510498, "lon": 133.3307187, "category": "スーパー", "category_id": "0200612", "time": ["09:00-22:00"], "star": 4.1, "review": 101}, {"name": "まるごう 上後藤店", "address": "鳥取県米子市三旗町7-16", "lat": 35.4409451, "lon": 133.3213336, "category": "スーパー", "category_id": "0200612", "time": ["09:00-22:00"], "star": 3.74, "review": 111}, {"name": "お肉のなべさん 米子米原店", "address": "鳥取県米子市米原9-3-20", "lat": 35.447587379461936, "lon": 133.3273727821007, "category": "精肉店", "category_id": "0202152", "time": ["10:00-19:00"], "star": 4.44, "review": 36}, {"name": "ダイソー 米子米原店", "address": "鳥取県米子市米原５-９-２３ ", "lat": 35.44505033, "lon": 133.32753581, "category": "100円ショップ", "category_id": "0200001", "time": ["09:00-20:00"], "star": 4.25, "review": 32}, {"name": "ココカラファイン 神薬堂両三柳店", "address": "鳥取県米子市両三柳58-1", "lat": 35.45130806, "lon": 133.33038819, "category": "ドラッグストア", "category_id": "0200699", "time": ["10:00-21:00"], "star": 3.67, "review": 8}]}, "top_restaurant": {"name": "元祖牛肉そばつけ麺 為セバ成ル。+餃子 MEGAドン・キホーテ米子店", "category": "飲食店", "star": 4.65, "review": 2}}, {"name": "上菅", "name_en": "Kamisuge", "lat": 35.1937828, "lon": 133.3415741, "osm_id": 266088913, "operator": "", "railway": "station", "wikidata": "Q11360080", "wikipedia_tag": "ja:上菅駅", "lines": [], "pref": "鳥取県", "wikipedia_text": "上菅駅（かみすげえき）は、鳥取県日野郡日野町上菅字内原にある西日本旅客鉄道（JR西日本）伯備線の駅である。", "wikipedia_image": "https://upload.wikimedia.org/wikipedia/commons/2/2b/JRW_Kamisuge_sta_20240605.jpg", "nearest_convenience": {"name": "ローソン", "lat": 35.1700933, "lon": 133.3108064, "address": "", "distance_m": 3842, "brand": "LAWSON"}, "nearest_restaurant": {"name": "にしむら屋", "lat": 35.1708413, "lon": 133.3221925, "address": "", "distance_m": 3100, "cuisine": ""}, "nearby_pois": {}}, {"name": "上道", "name_en": "Agarimichi", "lat": 35.5314686, "lon": 133.2305889, "osm_id": 266921557, "operator": "JR 西日本旅客鉄道", "railway": "station", "wikidata": "Q11360195", "wikipedia_tag": "ja:上道駅 (鳥取県)", "lines": [], "pref": "鳥取県", "wikipedia_text": "上道駅\n\n上道駅 (岡山県) （じょうとうえき） - 岡山県岡山市東区にある西日本旅客鉄道（JR西日本）山陽本線の駅。\n上道駅 (鳥取県) （あがりみちえき） - 鳥取県境港市にあるJR西日本境線の駅。\n上道駅 (ソウル特別市) （サンドえき） - 大韓民国ソウル特別市銅雀区にあるソウル交通公社7号線の駅。", "nearest_convenience": {"name": "ローソン　境港店", "lat": 35.5398194, "lon": 133.232984, "address": "", "distance_m": 954, "brand": ""}, "nearest_restaurant": {"name": "ヒーロー", "lat": 35.5372595, "lon": 133.2329977, "address": "", "distance_m": 680, "cuisine": ""}, "nearby_pois": {"コンビニ": [{"name": "ファミリーマート 境港上道店", "address": "鳥取県境港市上道町3606", "lat": 35.5362414, "lon": 133.2253777, "category": "コンビニ", "category_id": "0200487", "time": ["00:00-24:00"], "star": 3.76, "review": 11}, {"name": "ローソン 境港市役所前", "address": "鳥取県境港市上道町3286", "lat": 35.539808, "lon": 133.2329717, "category": "コンビニ", "category_id": "0200487", "time": ["00:00-24:00"], "star": 4.04, "review": 26}, {"name": "セブンイレブン 境港市役所前", "address": "鳥取県境港市上道町3431-1", "lat": 35.5393996, "lon": 133.2298858, "category": "コンビニ", "category_id": "0200487", "time": ["00:00-24:00"], "star": 3.97, "review": 42}], "ラーメン": [{"name": "らーめん 紫龍", "address": "鳥取県境港市元町130-2 まるかビル1F", "lat": 35.540277458096, "lon": 133.23271595093, "category": "ラーメン店", "category_id": "0100097", "time": [], "star": 4.04, "review": 18}, {"name": "亀福食堂", "address": "鳥取県境港市福定町163-2", "lat": 35.52851945, "lon": 133.23978618, "category": "ラーメン店", "category_id": "0100097", "time": ["11:00-15:00", "17:00-20:00"], "star": 3.96, "review": 20}, {"name": "がんこさぬき家", "address": "鳥取県境港市蓮池町70-1", "lat": 35.539143544269, "lon": 133.22498410699, "category": "うどん店", "category_id": "0100033", "time": [], "star": 3.75, "review": 4}, {"name": "食楽亭", "address": "鳥取県境港市上道町640-2", "lat": 35.53637079, "lon": 133.23734012, "category": "飲食店", "category_id": "0102732", "time": ["11:00-14:30", "17:00-22:00"], "star": 3.89, "review": 9}, {"name": "中華レストラン長楽", "address": "鳥取県境港市上道町3340", "lat": 35.53687509, "lon": 133.23115295, "category": "飲食店", "category_id": "0102732", "time": ["11:00-14:30", "17:00-23:00"], "star": 3.46, "review": 10}, {"name": "めしくうところ ふく", "address": "鳥取県境港市上道町3591", "lat": 35.53678943, "lon": 133.2245908, "category": "カフェ・喫茶", "category_id": "0100344", "time": ["11:00-14:00"], "star": 4.41, "review": 59}], "飲食店": [{"name": "本場インド ナン・カレー ガネーシャ", "address": "鳥取県境港市中野町5367", "lat": 35.533041286729, "lon": 133.23135846747, "category": "アジア料理店", "category_id": "0100123", "time": ["11:00-15:00", "16:30-21:30"], "star": 3.7, "review": 9}, {"name": "百彩 中野店", "address": "鳥取県境港市中野町5311", "lat": 35.534129036729, "lon": 133.23231208748, "category": "和食店", "category_id": "0100126", "time": ["11:00-14:30"], "star": 0.0, "review": 0}, {"name": "喫茶ニュー馬場崎", "address": "鳥取県境港市馬場崎町311", "lat": 35.539036745028, "lon": 133.22874486554, "category": "カフェ・喫茶", "category_id": "0100344", "time": ["09:00-16:30"], "star": 3.67, "review": 9}, {"name": "terrace cafe", "address": "鳥取県境港市上道町3000 境港市民交流センター みなとテラス 2F", "lat": 35.538879634302, "lon": 133.23222097786, "category": "カフェ・喫茶", "category_id": "0100344", "time": ["11:00-16:00"], "star": 4.59, "review": 4}, {"name": "がんこさぬき家", "address": "鳥取県境港市蓮池町70-1", "lat": 35.539143544269, "lon": 133.22498410699, "category": "うどん店", "category_id": "0100033", "time": [], "star": 3.75, "review": 4}, {"name": "らーめん 紫龍", "address": "鳥取県境港市元町130-2 まるかビル1F", "lat": 35.540277458096, "lon": 133.23271595093, "category": "ラーメン店", "category_id": "0100097", "time": [], "star": 4.04, "review": 18}, {"name": "めしくうところ ふく", "address": "鳥取県境港市上道町3591", "lat": 35.53678943, "lon": 133.2245908, "category": "カフェ・喫茶", "category_id": "0100344", "time": ["11:00-14:00"], "star": 4.41, "review": 59}, {"name": "中華レストラン長楽", "address": "鳥取県境港市上道町3340", "lat": 35.53687509, "lon": 133.23115295, "category": "飲食店", "category_id": "0102732", "time": ["11:00-14:30", "17:00-23:00"], "star": 3.46, "review": 10}, {"name": "ガネーシャ", "address": "鳥取県境港市中野町5367", "lat": 35.53301206, "lon": 133.23127801, "category": "カフェ・喫茶", "category_id": "0100344", "time": [], "star": 0.0, "review": 0}, {"name": "こうしえん", "address": "鳥取県境港市中野町5323", "lat": 35.53193575, "lon": 133.2309286, "category": "お好み焼き店", "category_id": "0100046", "time": ["12:00-14:30", "16:30-20:00"], "star": 3.68, "review": 8}, {"name": "食楽亭", "address": "鳥取県境港市上道町640-2", "lat": 35.53637079, "lon": 133.23734012, "category": "飲食店", "category_id": "0102732", "time": ["11:00-14:30", "17:00-22:00"], "star": 3.89, "review": 9}, {"name": "ケーキ&コーヒー カプリシューズ", "address": "鳥取県境港市上道町3315", "lat": 35.53717371, "lon": 133.23273814, "category": "カフェ・喫茶", "category_id": "0100344", "time": ["10:00-19:00"], "star": 3.46, "review": 13}, {"name": "グランカフェF 中野店", "address": "鳥取県境港市中野町5285-1", "lat": 35.5328523, "lon": 133.232511, "category": "パンケーキ店", "category_id": "0100744", "time": ["10:00-16:30"], "star": 4.0, "review": 17}, {"name": "おうちごはん。 スミた", "address": "鳥取県境港市上道町3315", "lat": 35.53716676, "lon": 133.23280925, "category": "定食屋", "category_id": "0101441", "time": ["11:00-15:00"], "star": 3.28, "review": 4}, {"name": "カラオケハウスヒーロー", "address": "鳥取県境港市上道町3313", "lat": 35.53727787, "lon": 133.23297674, "category": "カフェ・喫茶", "category_id": "0100344", "time": [], "star": 0.0, "review": 0}, {"name": "亀福食堂", "address": "鳥取県境港市福定町163-2", "lat": 35.52851945, "lon": 133.23978618, "category": "ラーメン店", "category_id": "0100097", "time": ["11:00-15:00", "17:00-20:00"], "star": 3.96, "review": 20}, {"name": "canarya coffee", "address": "鳥取県境港市上道町3256", "lat": 35.53901358, "lon": 133.23343838, "category": "コーヒー店", "category_id": "0100496", "time": [], "star": 0.0, "review": 0}, {"name": "笹舟寿し", "address": "鳥取県境港市中野町5115", "lat": 35.5330453, "lon": 133.2348675, "category": "寿司店", "category_id": "0100101", "time": [], "star": 4.0, "review": 1}, {"name": "たこQ", "address": "鳥取県境港市上道町3082", "lat": 35.53810203, "lon": 133.23618684, "category": "たこ焼き店", "category_id": "0100134", "time": ["10:00-19:00"], "star": 3.91, "review": 9}, {"name": "すし勝", "address": "鳥取県境港市米川町281", "lat": 35.53740269, "lon": 133.22284087, "category": "寿司店", "category_id": "0100101", "time": [], "star": 0.0, "review": 0}], "カフェ": [{"name": "喫茶ニュー馬場崎", "address": "鳥取県境港市馬場崎町311", "lat": 35.539036745028, "lon": 133.22874486554, "category": "カフェ・喫茶", "category_id": "0100344", "time": ["09:00-16:30"], "star": 3.67, "review": 9}, {"name": "terrace cafe", "address": "鳥取県境港市上道町3000 境港市民交流センター みなとテラス 2F", "lat": 35.538879634302, "lon": 133.23222097786, "category": "カフェ・喫茶", "category_id": "0100344", "time": ["11:00-16:00"], "star": 4.59, "review": 4}, {"name": "グランカフェF 中野店", "address": "鳥取県境港市中野町5285-1", "lat": 35.5328523, "lon": 133.232511, "category": "パンケーキ店", "category_id": "0100744", "time": ["10:00-16:30"], "star": 4.0, "review": 17}, {"name": "めしくうところ ふく", "address": "鳥取県境港市上道町3591", "lat": 35.53678943, "lon": 133.2245908, "category": "カフェ・喫茶", "category_id": "0100344", "time": ["11:00-14:00"], "star": 4.41, "review": 59}, {"name": "ケーキ&コーヒー カプリシューズ", "address": "鳥取県境港市上道町3315", "lat": 35.53717371, "lon": 133.23273814, "category": "カフェ・喫茶", "category_id": "0100344", "time": ["10:00-19:00"], "star": 3.46, "review": 13}, {"name": "ガネーシャ", "address": "鳥取県境港市中野町5367", "lat": 35.53301206, "lon": 133.23127801, "category": "カフェ・喫茶", "category_id": "0100344", "time": [], "star": 0.0, "review": 0}, {"name": "canarya coffee", "address": "鳥取県境港市上道町3256", "lat": 35.53901358, "lon": 133.23343838, "category": "コーヒー店", "category_id": "0100496", "time": [], "star": 0.0, "review": 0}, {"name": "カラオケハウスヒーロー", "address": "鳥取県境港市上道町3313", "lat": 35.53727787, "lon": 133.23297674, "category": "カフェ・喫茶", "category_id": "0100344", "time": [], "star": 0.0, "review": 0}], "ドラッグストア": [{"name": "アライブ薬局上道店", "address": "鳥取県境港市上道町3052-1", "lat": 35.53681733, "lon": 133.232204, "category": "調剤薬局", "category_id": "0202315", "time": [], "star": 0.0, "review": 0}, {"name": "境中央薬局", "address": "鳥取県境港市上道町3317", "lat": 35.53747924, "lon": 133.23276369, "category": "調剤薬局", "category_id": "0202315", "time": ["09:00-18:30"], "star": 0.0, "review": 0}, {"name": "エスマイル薬局 薬局境港店", "address": "鳥取県境港市馬場崎町177-3", "lat": 35.5399228, "lon": 133.228633, "category": "調剤薬局", "category_id": "0202315", "time": [], "star": 0.0, "review": 0}, {"name": "ナガイ薬局 境港店", "address": "鳥取県境港市米川町286", "lat": 35.53749136, "lon": 133.22332231, "category": "調剤薬局", "category_id": "0202315", "time": [], "star": 0.0, "review": 0}], "ATM": [{"name": "ゆうちょ銀行 ATM 境港郵便局", "address": "鳥取県境港市上道町3308", "lat": 35.5382589, "lon": 133.232797, "category": "ATM", "category_id": "0402785", "time": [], "star": 0.0, "review": 0}, {"name": "山陰合同銀行 境西出張所", "address": "鳥取県境港市湊町216", "lat": 35.5401273, "lon": 133.2306052, "category": "銀行", "category_id": "0402596", "time": [], "star": 3.0, "review": 1}, {"name": "セブン銀行 境港市役所前店", "address": "鳥取県境港市上道町3431-1", "lat": 35.5393794, "lon": 133.22991, "category": "ATM", "category_id": "0402785", "time": ["00:00-24:00"], "star": 4.0, "review": 0}, {"name": "山陰合同銀行 境港支店", "address": "鳥取県境港市湊町216", "lat": 35.5401329, "lon": 133.2306496, "category": "銀行", "category_id": "0402596", "time": ["09:00-15:00"], "star": 0.0, "review": 0}, {"name": "山陰合同銀行 ATM 境港支店", "address": "鳥取県境港市湊町216", "lat": 35.5400737, "lon": 133.230584, "category": "ATM", "category_id": "0402785", "time": [], "star": 0.0, "review": 0}, {"name": "ゆうちょ銀行 中野簡易郵便局", "address": "鳥取県境港市中野町5008-1", "lat": 35.5323001, "lon": 133.236957, "category": "銀行", "category_id": "0402596", "time": [], "star": 0.0, "review": 0}, {"name": "銀行ATM イーネット ファミリーマート境港上道 共同出張所", "address": "鳥取県境港市上道町3606 ", "lat": 35.536055, "lon": 133.225432, "category": "ATM", "category_id": "0402785", "time": ["00:00-24:00"], "star": 0.0, "review": 0}, {"name": "ろうきん ATM 中国労働金庫 境港市役所", "address": "鳥取県境港市上道町3000", "lat": 35.5396179, "lon": 133.231581, "category": "ATM", "category_id": "0402785", "time": [], "star": 0.0, "review": 0}, {"name": "ゆうちょ銀行 境港郵便局", "address": "鳥取県境港市上道町3308", "lat": 35.5382589, "lon": 133.232797, "category": "銀行", "category_id": "0402596", "time": [], "star": 0.0, "review": 0}, {"name": "ローソン銀行 境港市役所前共同出張所", "address": "鳥取県境港市上道町3286", "lat": 35.539816, "lon": 133.232982, "category": "ATM", "category_id": "0402785", "time": ["00:00-24:00"], "star": 0.0, "review": 0}, {"name": "宝くじ ATM 山陰合同銀行境港支店", "address": "鳥取県境港市湊町216", "lat": 35.5401288, "lon": 133.230566, "category": "宝くじ売り場", "category_id": "0401442", "time": ["08:00-21:00"], "star": 0.0, "review": 0}]}, "top_restaurant": {"name": "terrace cafe", "category": "カフェ・喫茶", "star": 4.59, "review": 4}}, {"name": "下北条", "name_en": "Shimohōjō", "lat": 35.4820266, "lon": 133.8087031, "osm_id": 265969837, "operator": "", "railway": "station", "wikidata": "Q900470", "wikipedia_tag": "ja:下北条駅", "lines": [], "pref": "鳥取県", "wikipedia_text": "下北条駅（しもほうじょうえき）は、鳥取県東伯郡北栄町北尾にある西日本旅客鉄道（JR西日本）山陰本線の駅である。", "wikipedia_image": "https://upload.wikimedia.org/wikipedia/commons/8/84/Shimohoujyou_Station.JPG", "nearest_convenience": {"name": "ローソン", "lat": 35.4807272, "lon": 133.8149077, "address": "", "distance_m": 580, "brand": "LAWSON"}, "nearest_restaurant": {"name": "北条製麺所", "lat": 35.4994852, "lon": 133.8179297, "address": "鳥取県北条町", "distance_m": 2113, "cuisine": "noodle;udon"}, "nearby_pois": {"コンビニ": [{"name": "ローソン 北栄町北尾", "address": "鳥取県東伯郡北栄町北尾字弐ノ坪90-1", "lat": 35.4806394, "lon": 133.8151197, "category": "コンビニ", "category_id": "0200487", "time": ["00:00-24:00"], "star": 4.47, "review": 16}, {"name": "セブンイレブン 北栄下神", "address": "鳥取県東伯郡北栄町下神字円崎384-1", "lat": 35.4842916, "lon": 133.8017235, "category": "コンビニ", "category_id": "0200487", "time": ["00:00-24:00"], "star": 0.0, "review": 0}], "飲食店": [{"name": "おしゃべりタコ", "address": "鳥取県東伯郡北栄町弓原340-1", "lat": 35.4825894, "lon": 133.8095649, "category": "たこ焼き店", "category_id": "0100134", "time": [], "star": 0.0, "review": 0}], "ATM": [{"name": "ゆうちょ銀行 ATM 北条郵便局", "address": "鳥取県東伯郡北栄町北尾518-6", "lat": 35.4820114, "lon": 133.812728, "category": "ATM", "category_id": "0402785", "time": [], "star": 0.0, "review": 0}, {"name": "ゆうちょ銀行 北条郵便局", "address": "鳥取県東伯郡北栄町北尾518-6", "lat": 35.4820114, "lon": 133.812728, "category": "銀行", "category_id": "0402596", "time": [], "star": 0.0, "review": 0}, {"name": "JAバンク ATM 鳥取中央農業協同組合(JA鳥取中央)下北条", "address": "鳥取県東伯郡北栄町北尾517-8", "lat": 35.4813239, "lon": 133.81274, "category": "ATM", "category_id": "0402785", "time": [], "star": 0.0, "review": 0}, {"name": "セブン銀行 北栄下神店", "address": "鳥取県東伯郡北栄町下神字円崎384-1", "lat": 35.4842286, "lon": 133.801721, "category": "ATM", "category_id": "0402785", "time": ["00:00-24:00"], "star": 0.0, "review": 0}, {"name": "ローソン銀行 北栄町北尾共同出張所", "address": "鳥取県東伯郡北栄町北尾字弐ノ坪90-1", "lat": 35.4806758, "lon": 133.815075, "category": "ATM", "category_id": "0402785", "time": ["00:00-24:00"], "star": 0.0, "review": 0}]}}, {"name": "下市", "name_en": "Shimoichi", "lat": 35.5187494, "lon": 133.5662895, "osm_id": 265970070, "operator": "", "railway": "station", "wikidata": "Q900573", "wikipedia_tag": "ja:下市駅", "lines": [], "pref": "鳥取県", "wikipedia_text": "下市駅（しもいちえき）は、鳥取県西伯郡大山町上市にある、西日本旅客鉄道（JR西日本）山陰本線の駅である。", "wikipedia_image": "https://upload.wikimedia.org/wikipedia/commons/4/41/Shimoichi_Station.jpg", "nearest_restaurant": {"name": "", "lat": 35.520399, "lon": 133.5660067, "address": "", "distance_m": 185, "cuisine": ""}, "nearby_pois": {"飲食店": [{"name": "喫茶ニコ", "address": "鳥取県西伯郡大山町上市300 下市駅構内", "lat": 35.518808636039, "lon": 133.56626918593, "category": "カフェ・喫茶", "category_id": "0100344", "time": ["08:00-15:00"], "star": 3.7, "review": 6}, {"name": "はた酒店", "address": "鳥取県西伯郡大山町上市268", "lat": 35.52032493, "lon": 133.56609641, "category": "カフェ・喫茶", "category_id": "0100344", "time": ["09:00-20:00"], "star": 3.62, "review": 4}, {"name": "味一焼肉", "address": "鳥取県西伯郡大山町上市302-1", "lat": 35.51835741, "lon": 133.56636611, "category": "焼肉店", "category_id": "0101963", "time": ["17:00-21:00"], "star": 3.88, "review": 9}, {"name": "久兵衛", "address": "鳥取県西伯郡大山町上市281-17", "lat": 35.5187462, "lon": 133.56524982, "category": "寿司店", "category_id": "0100101", "time": [], "star": 0.0, "review": 0}, {"name": "まぶや", "address": "鳥取県西伯郡大山町上市29 コミュニティ･スペース", "lat": 35.51834572, "lon": 133.55880702, "category": "カフェ・喫茶", "category_id": "0100344", "time": [], "star": 3.7, "review": 4}, {"name": "おむすび屋 ひとむすび", "address": "鳥取県西伯郡大山町下市82-8", "lat": 35.5174197, "lon": 133.55732431, "category": "おにぎり店", "category_id": "0100041", "time": [], "star": 3.99, "review": 6}, {"name": "牧野飲食店", "address": "鳥取県西伯郡大山町岡577-1", "lat": 35.52082, "lon": 133.559008, "category": "", "category_id": "", "time": [], "star": 0.0, "review": 0}], "カフェ": [{"name": "喫茶ニコ", "address": "鳥取県西伯郡大山町上市300 下市駅構内", "lat": 35.518808636039, "lon": 133.56626918593, "category": "カフェ・喫茶", "category_id": "0100344", "time": ["08:00-15:00"], "star": 3.7, "review": 6}, {"name": "はた酒店", "address": "鳥取県西伯郡大山町上市268", "lat": 35.52032493, "lon": 133.56609641, "category": "カフェ・喫茶", "category_id": "0100344", "time": ["09:00-20:00"], "star": 3.62, "review": 4}, {"name": "まぶや", "address": "鳥取県西伯郡大山町上市29 コミュニティ･スペース", "lat": 35.51834572, "lon": 133.55880702, "category": "カフェ・喫茶", "category_id": "0100344", "time": [], "star": 3.7, "review": 4}], "ドラッグストア": [{"name": "ウェルネス 大山店", "address": "鳥取県西伯郡大山町塩津902番3", "lat": 35.52184291, "lon": 133.56846561, "category": "ドラッグストア", "category_id": "0200699", "time": ["09:00-21:00"], "star": 4.72, "review": 5}], "ATM": [{"name": "ゆうちょ銀行 ATM 下市郵便局", "address": "鳥取県西伯郡大山町上市231-4", "lat": 35.5193354, "lon": 133.563813, "category": "ATM", "category_id": "0402785", "time": [], "star": 0.0, "review": 0}, {"name": "ゆうちょ銀行 下市郵便局", "address": "鳥取県西伯郡大山町上市231-4", "lat": 35.5193354, "lon": 133.563813, "category": "銀行", "category_id": "0402596", "time": [], "star": 0.0, "review": 0}]}, "top_restaurant": {"name": "おむすび屋 ひとむすび", "category": "おにぎり店", "star": 3.99, "review": 6}}, {"name": "中山口", "name_en": "Nakayamaguchi", "lat": 35.5207061, "lon": 133.5902338, "osm_id": 265970075, "operator": "", "railway": "station", "wikidata": "Q900346", "wikipedia_tag": "ja:中山口駅", "lines": [], "pref": "鳥取県", "wikipedia_text": "中山口駅（なかやまぐちえき）は、鳥取県西伯郡大山町田中にある西日本旅客鉄道（JR西日本）山陰本線の駅である。", "wikipedia_image": "https://upload.wikimedia.org/wikipedia/commons/b/b2/Nakayamaguchi_Station.jpg", "nearest_restaurant": {"name": "", "lat": 35.520399, "lon": 133.5660067, "address": "", "distance_m": 2193, "cuisine": ""}, "nearby_pois": {"コンビニ": [{"name": "ローソン 大山町田中", "address": "鳥取県西伯郡大山町田中字一本松163-3", "lat": 35.5215639, "lon": 133.5983204, "category": "コンビニ", "category_id": "0200487", "time": ["00:00-24:00"], "star": 4.0, "review": 5}], "ラーメン": [{"name": "841ラーメン", "address": "鳥取県西伯郡大山町田中185-3", "lat": 35.52256449, "lon": 133.59546216, "category": "ラーメン店", "category_id": "0100097", "time": ["11:30-14:00"], "star": 3.59, "review": 26}], "飲食店": [{"name": "841ラーメン", "address": "鳥取県西伯郡大山町田中185-3", "lat": 35.52256449, "lon": 133.59546216, "category": "ラーメン店", "category_id": "0100097", "time": ["11:30-14:00"], "star": 3.59, "review": 26}], "ドラッグストア": [{"name": "野の花薬局", "address": "鳥取県西伯郡大山町田中651-1", "lat": 35.520826, "lon": 133.58863642, "category": "調剤薬局", "category_id": "0202315", "time": [], "star": 0.0, "review": 0}, {"name": "平福調剤薬局", "address": "鳥取県西伯郡大山町田中758-10", "lat": 35.52410567, "lon": 133.5894998, "category": "調剤薬局", "category_id": "0202315", "time": [], "star": 0.0, "review": 0}], "ATM": [{"name": "ゆうちょ銀行 田中簡易郵便局", "address": "鳥取県西伯郡大山町田中628-1", "lat": 35.520618, "lon": 133.589536, "category": "銀行", "category_id": "0402596", "time": [], "star": 0.0, "review": 0}, {"name": "山陰合同銀行 ATM 中山", "address": "鳥取県西伯郡大山町田中826-2", "lat": 35.52399225, "lon": 133.58736369, "category": "ATM", "category_id": "0402785", "time": [], "star": 0.0, "review": 0}, {"name": "JAバンク ATM 鳥取西部農業協同組合(JA鳥取西部)中山支所", "address": "鳥取県西伯郡大山町下甲290", "lat": 35.5246667, "lon": 133.582568, "category": "ATM", "category_id": "0402785", "time": [], "star": 0.0, "review": 0}, {"name": "ローソン銀行 大山町田中共同出張所", "address": "鳥取県西伯郡大山町田中字一本松163-3", "lat": 35.5215595, "lon": 133.598303, "category": "ATM", "category_id": "0402785", "time": ["00:00-24:00"], "star": 0.0, "review": 0}, {"name": "宝くじ ATM 山陰合同銀行名和支店中山出張所", "address": "鳥取県西伯郡大山町田中826-2", "lat": 35.5239692, "lon": 133.587386, "category": "宝くじ売り場", "category_id": "0401442", "time": ["08:45-19:00"], "star": 0.0, "review": 0}, {"name": "JAバンク 鳥取西部農業協同組合(JA鳥取西部)中山支所", "address": "鳥取県西伯郡大山町下甲290", "lat": 35.5246667, "lon": 133.582568, "category": "銀行", "category_id": "0402596", "time": [], "star": 0.0, "review": 0}, {"name": "鳥取銀行名和支店中山ATM出張所", "address": "鳥取県西伯郡大山町下甲267-2", "lat": 35.5246656, "lon": 133.58395492, "category": "", "category_id": "", "time": [], "star": 0.0, "review": 0}]}, "top_restaurant": {"name": "841ラーメン", "category": "ラーメン店", "star": 3.59, "review": 26}}, {"name": "中浜", "name_en": "Nakahama", "lat": 35.5068911, "lon": 133.2447123, "osm_id": 266921295, "operator": "", "railway": "station", "wikidata": "Q4251606", "wikipedia_tag": "ja:中浜駅", "lines": [], "pref": "鳥取県", "nearby_bus_stops": [{"name": "市民の森", "lat": 35.5074416, "lon": 133.2395254, "distance_m": 473, "operator": ""}], "wikipedia_text": "中浜駅（なかはまえき）は、鳥取県境港市小篠津町字本角にある、西日本旅客鉄道（JR西日本）境線の駅である。境線各駅には妖怪の名前から取られた愛称が付与されており、当駅は「牛鬼駅」と名付けられている。", "wikipedia_image": "https://upload.wikimedia.org/wikipedia/commons/8/89/Nakahama-station.JPG", "nearest_convenience": {"name": "ローソン", "lat": 35.5080389, "lon": 133.253955, "address": "", "distance_m": 846, "brand": "LAWSON"}, "nearest_restaurant": {"name": "炭火焼肉 アイアイ", "lat": 35.5100579, "lon": 133.2384153, "address": "", "distance_m": 670, "cuisine": "barbecue"}, "nearby_pois": {"コンビニ": [{"name": "セブンイレブン 米子鬼太郎空港", "address": "鳥取県境港市佐斐神町1634", "lat": 35.500553, "lon": 133.2450777, "category": "コンビニ", "category_id": "0200487", "time": ["06:00-22:00"], "star": 4.15, "review": 8}, {"name": "ローソン 境港小篠津町", "address": "鳥取県境港市小篠津町字御崎灘287-2", "lat": 35.5090107, "lon": 133.2534379, "category": "コンビニ", "category_id": "0200487", "time": ["00:00-24:00"], "star": 0.0, "review": 1}, {"name": "岡田商店", "address": "鳥取県境港市幸神町353", "lat": 35.5114047, "lon": 133.2392666, "category": "スーパー", "category_id": "0200612", "time": ["08:00-19:00"], "star": 4.04, "review": 14}, {"name": "ホテルエリアワン境港マリーナ", "address": "鳥取県境港市新屋町3268", "lat": 35.5126408, "lon": 133.2505908, "category": "ビジネスホテル", "category_id": "0300758", "time": ["00:00-24:00"], "star": 3.87, "review": 66}], "ラーメン": [{"name": "黄金", "address": "鳥取県境港市麦垣町3323-11", "lat": 35.5120603, "lon": 133.25122351, "category": "ラーメン店", "category_id": "0100097", "time": ["10:00-16:00"], "star": 3.78, "review": 44}, {"name": "まるはち屋", "address": "鳥取県境港市佐斐神町1634 ターミナルビル 2F", "lat": 35.5006002, "lon": 133.24506385, "category": "飲食店", "category_id": "0102732", "time": ["12:00-20:00"], "star": 4.28, "review": 13}, {"name": "よりみち", "address": "鳥取県境港市小篠津町5849-5", "lat": 35.50553767, "lon": 133.23451749, "category": "定食屋", "category_id": "0101441", "time": ["11:00-14:00", "17:00-22:00"], "star": 3.74, "review": 14}, {"name": "ウイング本店", "address": "鳥取県境港市幸神町110", "lat": 35.50548672, "lon": 133.23819917, "category": "カフェ・喫茶", "category_id": "0100344", "time": ["09:00-22:30"], "star": 4.06, "review": 24}], "飲食店": [{"name": "満月", "address": "鳥取県境港市麦垣町3323-17", "lat": 35.51193808, "lon": 133.25108519, "category": "居酒屋", "category_id": "0101495", "time": [], "star": 0.0, "review": 0}, {"name": "まるはち屋", "address": "鳥取県境港市佐斐神町1634 ターミナルビル 2F", "lat": 35.5006002, "lon": 133.24506385, "category": "飲食店", "category_id": "0102732", "time": ["12:00-20:00"], "star": 4.28, "review": 13}, {"name": "ウイング本店", "address": "鳥取県境港市幸神町110", "lat": 35.50548672, "lon": 133.23819917, "category": "カフェ・喫茶", "category_id": "0100344", "time": ["09:00-22:30"], "star": 4.06, "review": 24}, {"name": "ラウンジ大山", "address": "鳥取県境港市佐斐神町1634 米子空港 2F", "lat": 35.500825606754, "lon": 133.24539731713, "category": "カフェ・喫茶", "category_id": "0100344", "time": [], "star": 3.28, "review": 9}, {"name": "すなば珈琲 米子空港店", "address": "鳥取県境港市佐斐神町1634 米子空港 2F", "lat": 35.5005435, "lon": 133.244773, "category": "コーヒー店", "category_id": "0100496", "time": ["08:00-17:00"], "star": 3.64, "review": 29}, {"name": "ナオミ", "address": "鳥取県境港市幸神町80", "lat": 35.50451446, "lon": 133.24137787, "category": "カフェ・喫茶", "category_id": "0100344", "time": ["09:00-18:00"], "star": 3.05, "review": 4}, {"name": "お食事処 池田屋", "address": "鳥取県境港市麦垣町3323-11", "lat": 35.51191671, "lon": 133.25130018, "category": "シーフード・海鮮料理店", "category_id": "0100542", "time": ["11:00-14:00", "17:00-20:00"], "star": 3.88, "review": 24}, {"name": "海鮮問屋 村上水産 鮮魚部 米子鬼太郎空港店", "address": "鳥取県境港市佐斐神町1634 米子鬼太郎空港ターミナルビル 2F", "lat": 35.500392235949, "lon": 133.24479008597, "category": "飲食店", "category_id": "0102732", "time": ["10:15-20:15"], "star": 3.04, "review": 10}, {"name": "よりみち", "address": "鳥取県境港市小篠津町5849-5", "lat": 35.50553767, "lon": 133.23451749, "category": "定食屋", "category_id": "0101441", "time": ["11:00-14:00", "17:00-22:00"], "star": 3.74, "review": 14}, {"name": "スパイス探検隊", "address": "鳥取県境港市幸神町351", "lat": 35.51106477, "lon": 133.2381334, "category": "カレー店", "category_id": "0100359", "time": ["11:00-15:00"], "star": 3.83, "review": 10}, {"name": "炭火焼肉アイアイ", "address": "鳥取県境港市幸神町355", "lat": 35.51006042, "lon": 133.23839203, "category": "焼肉店", "category_id": "0101963", "time": [], "star": 4.4, "review": 5}, {"name": "黄金", "address": "鳥取県境港市麦垣町3323-11", "lat": 35.5120603, "lon": 133.25122351, "category": "ラーメン店", "category_id": "0100097", "time": ["10:00-16:00"], "star": 3.78, "review": 44}, {"name": "アクア", "address": "鳥取県境港市幸神町188", "lat": 35.507895, "lon": 133.239013, "category": "居酒屋", "category_id": "0101495", "time": [], "star": 0.0, "review": 0}, {"name": "すき家 431号境港店", "address": "鳥取県境港市財ノ木町236-1", "lat": 35.5071193, "lon": 133.2550156, "category": "牛丼店", "category_id": "0101974", "time": ["04:00-27:00"], "star": 3.74, "review": 44}, {"name": "ホテルエリアワン境港マリーナ", "address": "鳥取県境港市新屋町3268", "lat": 35.5126408, "lon": 133.2505908, "category": "ビジネスホテル", "category_id": "0300758", "time": ["00:00-24:00"], "star": 3.87, "review": 66}, {"name": "よしむら", "address": "鳥取県境港市幸神町111", "lat": 35.50547506, "lon": 133.2380003, "category": "肉料理店", "category_id": "0100212", "time": ["17:00-23:00"], "star": 2.64, "review": 5}, {"name": "成田屋ランブル", "address": "鳥取県境港市財の木町11-4", "lat": 35.50653543, "lon": 133.25511254, "category": "カレー店", "category_id": "0100359", "time": ["11:30-14:00"], "star": 3.33, "review": 3}, {"name": "たなか屋", "address": "鳥取県境港市幸神町354", "lat": 35.51037289, "lon": 133.23827564, "category": "和菓子店", "category_id": "0101310", "time": ["10:00-15:00"], "star": 3.43, "review": 4}], "カフェ": [{"name": "ウイング本店", "address": "鳥取県境港市幸神町110", "lat": 35.50548672, "lon": 133.23819917, "category": "カフェ・喫茶", "category_id": "0100344", "time": ["09:00-22:30"], "star": 4.06, "review": 24}, {"name": "すなば珈琲 米子空港店", "address": "鳥取県境港市佐斐神町1634 米子空港 2F", "lat": 35.5005435, "lon": 133.244773, "category": "コーヒー店", "category_id": "0100496", "time": ["08:00-17:00"], "star": 3.64, "review": 29}, {"name": "ラウンジ大山", "address": "鳥取県境港市佐斐神町1634 米子空港 2F", "lat": 35.500825606754, "lon": 133.24539731713, "category": "カフェ・喫茶", "category_id": "0100344", "time": [], "star": 3.28, "review": 9}, {"name": "ナオミ", "address": "鳥取県境港市幸神町80", "lat": 35.50451446, "lon": 133.24137787, "category": "カフェ・喫茶", "category_id": "0100344", "time": ["09:00-18:00"], "star": 3.05, "review": 4}, {"name": "成田屋ランブル", "address": "鳥取県境港市財の木町11-4", "lat": 35.50653543, "lon": 133.25511254, "category": "カレー店", "category_id": "0100359", "time": ["11:30-14:00"], "star": 3.33, "review": 3}, {"name": "たなか屋", "address": "鳥取県境港市幸神町354", "lat": 35.51037289, "lon": 133.23827564, "category": "和菓子店", "category_id": "0101310", "time": ["10:00-15:00"], "star": 3.43, "review": 4}], "ドラッグストア": [{"name": "株式会社新日本薬品 境港営業所", "address": "鳥取県境港市新屋町405", "lat": 35.511134, "lon": 133.2460399, "category": "ドラッグストア", "category_id": "0200699", "time": [], "star": 0.0, "review": 0}], "ATM": [{"name": "JAバンク ATM 鳥取西部農業協同組合(JA鳥取西部)中浜ATM", "address": "鳥取県境港市財ノ木町562-5", "lat": 35.5059007, "lon": 133.249512, "category": "ATM", "category_id": "0402785", "time": [], "star": 0.0, "review": 0}, {"name": "ゆうちょ銀行 ATM 境港中浜郵便局", "address": "鳥取県境港市財ノ木町664-3", "lat": 35.5054552, "lon": 133.24913, "category": "ATM", "category_id": "0402785", "time": [], "star": 0.0, "review": 0}, {"name": "ゆうちょ銀行 境港中浜郵便局", "address": "鳥取県境港市財ノ木町664-3", "lat": 35.5054552, "lon": 133.24913, "category": "銀行", "category_id": "0402596", "time": [], "star": 0.0, "review": 0}, {"name": "セブン銀行 米子鬼太郎空港店", "address": "鳥取県境港市佐斐神町1634", "lat": 35.5005121, "lon": 133.244725, "category": "ATM", "category_id": "0402785", "time": ["00:00-24:00"], "star": 0.0, "review": 0}, {"name": "ローソン銀行 境港小篠津町共同出張所", "address": "鳥取県境港市小篠津町字御崎灘287-2", "lat": 35.5089572, "lon": 133.253542, "category": "ATM", "category_id": "0402785", "time": ["00:00-24:00"], "star": 0.0, "review": 0}], "スーパーマーケット": [{"name": "岡田商店", "address": "鳥取県境港市幸神町353", "lat": 35.5114047, "lon": 133.2392666, "category": "スーパー", "category_id": "0200612", "time": ["08:00-19:00"], "star": 4.04, "review": 14}]}, "top_restaurant": {"name": "炭火焼肉アイアイ", "category": "焼肉店", "star": 4.4, "review": 5}}, {"name": "丹比", "name_en": "Tampi", "lat": 35.3608285, "lon": 134.3562145, "osm_id": 8244384953, "operator": "", "railway": "station", "wikidata": "Q7681780", "wikipedia_tag": "ja:丹比駅", "lines": [], "pref": "鳥取県", "nearby_bus_stops": [{"name": "丹比駅前", "lat": 35.3612875, "lon": 134.3567992, "distance_m": 74, "operator": ""}, {"name": "富枝", "lat": 35.3613644, "lon": 134.3612988, "distance_m": 465, "operator": ""}], "wikipedia_text": "丹比駅（たんぴえき）は、鳥取県八頭郡八頭町南字小判にある、若桜鉄道若桜線の駅。\n日本の駅で唯一、読みが「ぴ」で終わる。", "wikipedia_image": "https://upload.wikimedia.org/wikipedia/commons/0/0c/Wakasa_Railway_tampi_sta.jpg", "nearest_restaurant": {"name": "", "lat": 35.3445978, "lon": 134.397162, "address": "", "distance_m": 4129, "cuisine": ""}, "nearby_pois": {"コンビニ": [{"name": "ローソン 八頭町丹比", "address": "鳥取県八頭郡八頭町北山字下柳縄手57-1", "lat": 35.3619117, "lon": 134.3560196, "category": "コンビニ", "category_id": "0200487", "time": ["00:00-24:00"], "star": 0.0, "review": 0}], "飲食店": [{"name": "La Mano", "address": "鳥取県八頭郡八頭町富枝303", "lat": 35.361553118942695, "lon": 134.3627930345138, "category": "イタリア料理店", "category_id": "0100263", "time": ["11:30-14:30"], "star": 3.93, "review": 5}, {"name": "奇門", "address": "鳥取県八頭郡八頭町富枝303", "lat": 35.3661772, "lon": 134.3590373, "category": "肉料理店", "category_id": "0100212", "time": [], "star": 0.0, "review": 0}], "ATM": [{"name": "鳥取銀行 ATM 八東ATM", "address": "鳥取県八頭郡八頭町北山93-6", "lat": 35.36177364, "lon": 134.35520967, "category": "ATM", "category_id": "0402785", "time": [], "star": 0.0, "review": 0}, {"name": "山陰合同銀行 ATM 八東ATM", "address": "鳥取県八頭郡八頭町北山93-6", "lat": 35.3617511, "lon": 134.355238, "category": "ATM", "category_id": "0402785", "time": [], "star": 0.0, "review": 0}, {"name": "ゆうちょ銀行 ATM 丹比郵便局", "address": "鳥取県八頭郡八頭町北山57-2", "lat": 35.3616004, "lon": 134.3563, "category": "ATM", "category_id": "0402785", "time": [], "star": 0.0, "review": 0}, {"name": "ゆうちょ銀行 丹比郵便局", "address": "鳥取県八頭郡八頭町北山57-2", "lat": 35.3616004, "lon": 134.3563, "category": "銀行", "category_id": "0402596", "time": [], "star": 0.0, "review": 0}, {"name": "JAバンク ATM 鳥取いなば農業協同組合(JA鳥取いなば)丹比ATM", "address": "鳥取県八頭郡八頭町北山59-16", "lat": 35.3615766, "lon": 134.356033, "category": "ATM", "category_id": "0402785", "time": [], "star": 0.0, "review": 0}, {"name": "ローソン銀行 八頭町丹比共同出張所", "address": "鳥取県八頭郡八頭町北山字下柳縄手57-1", "lat": 35.3618624, "lon": 134.355989, "category": "ATM", "category_id": "0402785", "time": ["00:00-24:00"], "star": 0.0, "review": 0}]}, "top_restaurant": {"name": "La Mano", "category": "イタリア料理店", "star": 3.93, "review": 5}}, {"name": "伯耆大山", "name_en": "Hōki-Daisen", "lat": 35.4297178, "lon": 133.3835506, "osm_id": 6375884470, "operator": "", "railway": "station", "wikidata": "Q1059170", "wikipedia_tag": "ja:伯耆大山駅", "lines": [], "pref": "鳥取県", "wikipedia_text": "伯耆大山駅（ほうきだいせんえき）は、鳥取県米子市にある西日本旅客鉄道（JR西日本）・日本貨物鉄道（JR貨物）の駅である。\n所在地はJR西日本が蚊屋、JR貨物が二本木である。", "wikipedia_image": "https://upload.wikimedia.org/wikipedia/commons/7/79/JRW_H%C5%8Duki-daisen_sta_20240605.jpg", "nearest_convenience": {"name": "たかつか", "lat": 35.4310828, "lon": 133.38201, "address": "", "distance_m": 206, "brand": ""}, "nearest_restaurant": {"name": "たこ焼き", "lat": 35.4302248, "lon": 133.3708191, "address": "", "distance_m": 1155, "cuisine": ""}, "nearby_pois": {"コンビニ": [{"name": "ローソン 米子熊党", "address": "鳥取県米子市熊党字高砂338-2", "lat": 35.4292134, "lon": 133.3733498, "category": "コンビニ", "category_id": "0200487", "time": ["00:00-24:00"], "star": 4.55, "review": 5}, {"name": "ローソン 日野川東インター", "address": "鳥取県米子市浦津字カフベ155-1", "lat": 35.4236001, "lon": 133.3791467, "category": "コンビニ", "category_id": "0200487", "time": ["00:00-24:00"], "star": 3.9, "review": 10}, {"name": "ファミリーマート 米子二本木店", "address": "鳥取県米子市二本木712", "lat": 35.4354574, "lon": 133.3881597, "category": "コンビニ", "category_id": "0200487", "time": ["00:00-24:00"], "star": 3.42, "review": 2}, {"name": "まるごう みのかや店", "address": "鳥取県米子市蚊屋200-1", "lat": 35.4308661, "lon": 133.3835546, "category": "スーパー", "category_id": "0200612", "time": ["09:00-22:00"], "star": 4.03, "review": 47}], "ラーメン": [{"name": "めし・定食 西葉食堂", "address": "鳥取県米子市二本木502-3 キンダイビル 1F", "lat": 35.432165097148, "lon": 133.38462050449, "category": "ラーメン店", "category_id": "0100097", "time": ["11:00-15:00"], "star": 4.14, "review": 24}, {"name": "自由時間JJ", "address": "鳥取県米子市熊党331-12 グランワールドカップ米子店", "lat": 35.428451147148, "lon": 133.3742823674, "category": "ラーメン店", "category_id": "0100097", "time": ["10:30-20:30"], "star": 3.25, "review": 2}, {"name": "焼肉 喜多八", "address": "鳥取県米子市蚊屋200-35", "lat": 35.43140247, "lon": 133.3845587, "category": "焼肉店", "category_id": "0101963", "time": ["17:00-22:00"], "star": 4.05, "review": 27}, {"name": "中華料理新北京", "address": "鳥取県西伯郡日吉津村大字日吉津12-5", "lat": 35.43280285, "lon": 133.38270381, "category": "飲食店", "category_id": "0102732", "time": ["11:00-14:00", "16:00-20:00"], "star": 4.13, "review": 4}], "飲食店": [{"name": "モノクロ", "address": "鳥取県西伯郡日吉津村日吉津84-1", "lat": 35.430395216842, "lon": 133.38066092633, "category": "カフェ・喫茶", "category_id": "0100344", "time": ["08:30-18:00"], "star": 3.05, "review": 2}, {"name": "ふらっと食堂", "address": "鳥取県米子市蚊屋250-1", "lat": 35.430669300682, "lon": 133.38104065028, "category": "定食屋", "category_id": "0101441", "time": [], "star": 0.0, "review": 0}, {"name": "自由時間JJ", "address": "鳥取県米子市熊党331-12 グランワールドカップ米子店", "lat": 35.428451147148, "lon": 133.3742823674, "category": "ラーメン店", "category_id": "0100097", "time": ["10:30-20:30"], "star": 3.25, "review": 2}, {"name": "中華料理新北京", "address": "鳥取県西伯郡日吉津村大字日吉津12-5", "lat": 35.43280285, "lon": 133.38270381, "category": "飲食店", "category_id": "0102732", "time": ["11:00-14:00", "16:00-20:00"], "star": 4.13, "review": 4}, {"name": "カフェ しろくろや", "address": "鳥取県米子市蚊屋200-34", "lat": 35.43151357, "lon": 133.38455036, "category": "カフェ・喫茶", "category_id": "0100344", "time": ["12:00-17:00"], "star": 3.83, "review": 10}, {"name": "無垢な珈琲", "address": "鳥取県西伯郡日吉津村日吉津30-5", "lat": 35.43276943684, "lon": 133.38139198635, "category": "カフェ・喫茶", "category_id": "0100344", "time": ["13:00-18:00"], "star": 3.53, "review": 3}, {"name": "めし・定食 西葉食堂", "address": "鳥取県米子市二本木502-3 キンダイビル 1F", "lat": 35.432165097148, "lon": 133.38462050449, "category": "ラーメン店", "category_id": "0100097", "time": ["11:00-15:00"], "star": 4.14, "review": 24}, {"name": "しゃにしゃに食堂", "address": "鳥取県米子市熊党87-2", "lat": 35.428718886842, "lon": 133.37831230631, "category": "定食屋", "category_id": "0101441", "time": ["11:30-14:30"], "star": 3.52, "review": 11}, {"name": "焼肉 喜多八", "address": "鳥取県米子市蚊屋200-35", "lat": 35.43140247, "lon": 133.3845587, "category": "焼肉店", "category_id": "0101963", "time": ["17:00-22:00"], "star": 4.05, "review": 27}, {"name": "焼肉飯店ふるさと", "address": "鳥取県西伯郡日吉津村日吉津32-4", "lat": 35.43328417, "lon": 133.38138557, "category": "焼肉店", "category_id": "0101963", "time": ["11:30-14:00", "17:00-23:30"], "star": 4.05, "review": 15}, {"name": "キッチンぷらす ダンデライオン", "address": "鳥取県米子市熊党131-1", "lat": 35.429063136842, "lon": 133.37956317631, "category": "オムライス店", "category_id": "0102842", "time": ["11:00-14:00"], "star": 3.27, "review": 3}, {"name": "食堂しんさん", "address": "鳥取県西伯郡日吉津村日吉津78-1", "lat": 35.431022686841, "lon": 133.38077804633, "category": "鍋料理店", "category_id": "0101817", "time": ["11:30-14:00", "18:00-22:00"], "star": 3.6, "review": 4}, {"name": "大阪王将 ミスターバーク日吉津店", "address": "鳥取県西伯郡日吉津村大字日吉津1425-4", "lat": 35.43394632, "lon": 133.38084643, "category": "飲食店", "category_id": "0102732", "time": ["11:00-14:30", "17:00-21:30"], "star": 0.0, "review": 0}, {"name": "西部食堂", "address": "鳥取県米子市二本木259-5", "lat": 35.4315601, "lon": 133.39266604, "category": "定食屋", "category_id": "0101441", "time": [], "star": 0.0, "review": 0}, {"name": "らむたん", "address": "鳥取県西伯郡日吉津村日吉津12-5", "lat": 35.432779336841, "lon": 133.38270748635, "category": "ジンギスカン店", "category_id": "0100548", "time": ["18:00-22:00"], "star": 0.0, "review": 0}, {"name": "キズナ企画", "address": "鳥取県米子市下新印 259", "lat": 35.42100143432617, "lon": 133.38400268554688, "category": "飲食店", "category_id": "0102732", "time": [], "star": 0.0, "review": 0}, {"name": "旭ホルモン店", "address": "鳥取県米子市蚊屋272-19", "lat": 35.428808, "lon": 133.380949, "category": "ホルモン焼肉店", "category_id": "0100859", "time": [], "star": 0.0, "review": 0}], "カフェ": [{"name": "モノクロ", "address": "鳥取県西伯郡日吉津村日吉津84-1", "lat": 35.430395216842, "lon": 133.38066092633, "category": "カフェ・喫茶", "category_id": "0100344", "time": ["08:30-18:00"], "star": 3.05, "review": 2}, {"name": "カフェ しろくろや", "address": "鳥取県米子市蚊屋200-34", "lat": 35.43151357, "lon": 133.38455036, "category": "カフェ・喫茶", "category_id": "0100344", "time": ["12:00-17:00"], "star": 3.83, "review": 10}, {"name": "無垢な珈琲", "address": "鳥取県西伯郡日吉津村日吉津30-5", "lat": 35.43276943684, "lon": 133.38139198635, "category": "カフェ・喫茶", "category_id": "0100344", "time": ["13:00-18:00"], "star": 3.53, "review": 3}], "ドラッグストア": [{"name": "ウェルネス みのかや店", "address": "鳥取県米子市蚊屋200-12", "lat": 35.43134386, "lon": 133.38421567, "category": "ドラッグストア", "category_id": "0200699", "time": ["09:00-22:00"], "star": 0.0, "review": 0}], "ATM": [{"name": "山陰合同銀行 日野橋支店", "address": "鳥取県米子市熊党525", "lat": 35.4285219, "lon": 133.3789161, "category": "銀行", "category_id": "0402596", "time": ["09:00-15:00"], "star": 4.5, "review": 1}, {"name": "ゆうちょ銀行 巌郵便局", "address": "鳥取県米子市蚊屋285-10", "lat": 35.4284275, "lon": 133.384205, "category": "銀行", "category_id": "0402596", "time": [], "star": 4.0, "review": 1}, {"name": "ゆうちょ銀行 ATM 巌郵便局", "address": "鳥取県米子市蚊屋285-10", "lat": 35.4284275, "lon": 133.384205, "category": "ATM", "category_id": "0402785", "time": [], "star": 0.0, "review": 0}, {"name": "山陰合同銀行 ATM 丸合みのかや店", "address": "鳥取県米子市蚊屋200-1 丸合みのかや店", "lat": 35.4308216, "lon": 133.383606, "category": "ATM", "category_id": "0402785", "time": [], "star": 0.0, "review": 0}, {"name": "山陰合同銀行 ATM 日野橋支店", "address": "鳥取県米子市熊党525", "lat": 35.4284882, "lon": 133.378897, "category": "ATM", "category_id": "0402785", "time": [], "star": 0.0, "review": 0}, {"name": "銀行ATM イーネット ファミリーマート米子二本木 共同出張所", "address": "鳥取県米子市二本木712 ", "lat": 35.43544, "lon": 133.388137, "category": "ATM", "category_id": "0402785", "time": ["00:00-24:00"], "star": 0.0, "review": 0}, {"name": "宝くじ ATM 山陰合同銀行日野橋支店丸合みのかや店出張所", "address": "鳥取県米子市蚊屋200-1 丸合みのかや店", "lat": 35.4309116, "lon": 133.383641, "category": "宝くじ売り場", "category_id": "0401442", "time": ["09:00-21:00"], "star": 0.0, "review": 0}, {"name": "ローソン銀行 日野川東インター共同出張所", "address": "鳥取県米子市浦津字カフベ155-1", "lat": 35.4236924, "lon": 133.379111, "category": "ATM", "category_id": "0402785", "time": ["00:00-24:00"], "star": 0.0, "review": 0}, {"name": "宝くじ ATM 山陰合同銀行日野橋支店", "address": "鳥取県米子市熊党525", "lat": 35.4285232, "lon": 133.378918, "category": "宝くじ売り場", "category_id": "0401442", "time": ["08:45-19:00"], "star": 0.0, "review": 0}, {"name": "ローソン銀行 米子熊党共同出張所", "address": "鳥取県米子市熊党字高砂338-2", "lat": 35.4292601, "lon": 133.373415, "category": "ATM", "category_id": "0402785", "time": ["00:00-24:00"], "star": 0.0, "review": 0}], "スーパーマーケット": [{"name": "まるごう みのかや店", "address": "鳥取県米子市蚊屋200-1", "lat": 35.4308661, "lon": 133.3835546, "category": "スーパー", "category_id": "0200612", "time": ["09:00-22:00"], "star": 4.03, "review": 47}]}, "top_restaurant": {"name": "めし・定食 西葉食堂", "category": "ラーメン店", "star": 4.14, "review": 24}}, {"name": "伯耆溝口", "name_en": "Hoki-Mizoguchi", "lat": 35.3482021, "lon": 133.4354226, "osm_id": 266108977, "operator": "", "railway": "station", "wikidata": "Q5965218", "wikipedia_tag": "ja:伯耆溝口駅", "lines": [], "pref": "鳥取県", "wikipedia_text": "伯耆溝口駅（ほうきみぞぐちえき）は、鳥取県西伯郡伯耆町溝口（みぞくち）にある西日本旅客鉄道（JR西日本）伯備線の駅である。以前は急行「伯耆」が停車していた。\n駅名は「みぞぐち」だが、町名は「みぞくち」である。これは、1984年（昭和59年）5月1日に町名の読みが「みぞぐち」から「みぞくち」に変更されたためである。", "wikipedia_image": "https://upload.wikimedia.org/wikipedia/commons/d/d4/JRW_H%C5%8Duki-mizoguchi_sta_20240605.jpg", "nearest_convenience": {"name": "ファミリーマート", "lat": 35.3474822, "lon": 133.4336342, "address": "", "distance_m": 181, "brand": "FamilyMart"}, "nearest_restaurant": {"name": "鬼っ子ラーメン", "lat": 35.3412944, "lon": 133.4360386, "address": "", "distance_m": 770, "cuisine": ""}, "nearby_pois": {"コンビニ": [{"name": "ファミリーマート 伯耆溝口店", "address": "鳥取県西伯郡伯耆町溝口153-1", "lat": 35.3474535, "lon": 133.4336376, "category": "コンビニ", "category_id": "0200487", "time": ["00:00-24:00"], "star": 4.39, "review": 8}, {"name": "ローソン 伯耆溝口", "address": "鳥取県西伯郡伯耆町溝口63-1", "lat": 35.3513669, "lon": 133.4318819, "category": "コンビニ", "category_id": "0200487", "time": ["00:00-24:00"], "star": 3.93, "review": 11}, {"name": "まるごう 溝口店", "address": "鳥取県西伯郡伯耆町溝口385-1", "lat": 35.3402293, "lon": 133.4366154, "category": "スーパー", "category_id": "0200612", "time": ["09:00-22:00"], "star": 3.55, "review": 12}], "ラーメン": [{"name": "定食屋そうかん", "address": "鳥取県西伯郡伯耆町溝口365-1", "lat": 35.34003099, "lon": 133.43624324, "category": "飲食店", "category_id": "0102732", "time": ["11:00-15:00"], "star": 3.34, "review": 5}], "飲食店": [{"name": "ビアカフェ大山", "address": "鳥取県西伯郡南部町鶴田110 とっとり花回廊 北館 4F", "lat": 35.349081896908, "lon": 133.42546577547, "category": "ビアホール", "category_id": "0100755", "time": ["10:00-15:30"], "star": 3.5, "review": 2}, {"name": "ポッポみらい", "address": "鳥取県西伯郡伯耆町溝口223", "lat": 35.34742849, "lon": 133.43447332, "category": "カフェ・喫茶", "category_id": "0100344", "time": ["10:00-17:00"], "star": 2.8, "review": 2}, {"name": "前田商店", "address": "鳥取県西伯郡伯耆町溝口223", "lat": 35.34750488, "lon": 133.43462385, "category": "ピザ店", "category_id": "0100780", "time": ["12:00-14:30", "18:00-21:00"], "star": 4.41, "review": 10}, {"name": "定食屋そうかん", "address": "鳥取県西伯郡伯耆町溝口365-1", "lat": 35.34003099, "lon": 133.43624324, "category": "飲食店", "category_id": "0102732", "time": ["11:00-15:00"], "star": 3.34, "review": 5}, {"name": "ジェームズキャットカフェ", "address": "鳥取県西伯郡南部町鶴田110", "lat": 35.349043087487, "lon": 133.42545006122, "category": "カフェ・喫茶", "category_id": "0100344", "time": [], "star": 0.0, "review": 0}, {"name": "みぞくちテラソ", "address": "鳥取県西伯郡 伯耆町溝口647", "lat": 35.34597046, "lon": 133.43635703, "category": "カルチャーセンター", "category_id": "0400357", "time": [], "star": 0.0, "review": 0}], "カフェ": [{"name": "ポッポみらい", "address": "鳥取県西伯郡伯耆町溝口223", "lat": 35.34742849, "lon": 133.43447332, "category": "カフェ・喫茶", "category_id": "0100344", "time": ["10:00-17:00"], "star": 2.8, "review": 2}, {"name": "ビアカフェ大山", "address": "鳥取県西伯郡南部町鶴田110 とっとり花回廊 北館 4F", "lat": 35.349081896908, "lon": 133.42546577547, "category": "ビアホール", "category_id": "0100755", "time": ["10:00-15:30"], "star": 3.5, "review": 2}, {"name": "ジェームズキャットカフェ", "address": "鳥取県西伯郡南部町鶴田110", "lat": 35.349043087487, "lon": 133.42545006122, "category": "カフェ・喫茶", "category_id": "0100344", "time": [], "star": 0.0, "review": 0}, {"name": "みぞくちテラソ", "address": "鳥取県西伯郡 伯耆町溝口647", "lat": 35.34597046, "lon": 133.43635703, "category": "カルチャーセンター", "category_id": "0400357", "time": [], "star": 0.0, "review": 0}], "ドラッグストア": [{"name": "ウェルネス 溝口店", "address": "鳥取県西伯郡伯耆町溝口160-1", "lat": 35.34633694, "lon": 133.43408758, "category": "ドラッグストア", "category_id": "0200699", "time": ["09:00-21:00"], "star": 4.5, "review": 6}, {"name": "鬼守調剤薬局", "address": "鳥取県西伯郡伯耆町溝口173-5", "lat": 35.34644943, "lon": 133.4344306, "category": "調剤薬局", "category_id": "0202315", "time": [], "star": 0.0, "review": 0}, {"name": "フラワー薬局", "address": "鳥取県西伯郡伯耆町溝口2-1", "lat": 35.35066423, "lon": 133.43346184, "category": "調剤薬局", "category_id": "0202315", "time": [], "star": 0.0, "review": 0}], "ATM": [{"name": "鳥取銀行 ATM 溝口ATM", "address": "鳥取県西伯郡伯耆町溝口196-1", "lat": 35.34893969, "lon": 133.43295337, "category": "ATM", "category_id": "0402785", "time": [], "star": 0.0, "review": 0}, {"name": "銀行ATM イーネット ファミリーマート伯耆溝口 共同出張所", "address": "鳥取県西伯郡伯耆町溝口153-1 ", "lat": 35.347457, "lon": 133.4336, "category": "ATM", "category_id": "0402785", "time": ["00:00-24:00"], "star": 0.0, "review": 0}, {"name": "山陰合同銀行 ATM 溝口ATM", "address": "鳥取県西伯郡伯耆町溝口641", "lat": 35.3455285, "lon": 133.43597, "category": "ATM", "category_id": "0402785", "time": [], "star": 0.0, "review": 0}, {"name": "ゆうちょ銀行 ATM 溝口郵便局", "address": "鳥取県西伯郡伯耆町溝口424-3", "lat": 35.3438073, "lon": 133.437224, "category": "ATM", "category_id": "0402785", "time": [], "star": 0.0, "review": 0}, {"name": "宝くじ ATM 山陰合同銀行岸本支店溝口ATM出張所", "address": "鳥取県西伯郡伯耆町溝口641", "lat": 35.3455353, "lon": 133.436001, "category": "宝くじ売り場", "category_id": "0401442", "time": ["08:45-19:00"], "star": 0.0, "review": 0}, {"name": "ゆうちょ銀行 溝口郵便局", "address": "鳥取県西伯郡伯耆町溝口424-3", "lat": 35.3438927, "lon": 133.437195, "category": "銀行", "category_id": "0402596", "time": [], "star": 0.0, "review": 0}, {"name": "JAバンク 鳥取西部農業協同組合(JA鳥取西部)溝口支所", "address": "鳥取県西伯郡伯耆町溝口392", "lat": 35.3405538, "lon": 133.437052, "category": "銀行", "category_id": "0402596", "time": [], "star": 0.0, "review": 0}, {"name": "ローソン銀行 伯耆溝口共同出張所", "address": "鳥取県西伯郡伯耆町溝口63-1", "lat": 35.351445, "lon": 133.431851, "category": "ATM", "category_id": "0402785", "time": ["00:00-24:00"], "star": 0.0, "review": 0}, {"name": "JAバンク ATM 鳥取西部農業協同組合(JA鳥取西部)溝口支所ATM", "address": "鳥取県西伯郡伯耆町溝口385-1", "lat": 35.3403187, "lon": 133.436447, "category": "ATM", "category_id": "0402785", "time": [], "star": 0.0, "review": 0}, {"name": "山陰合同銀行岸本支店溝口ATM出張所", "address": "鳥取県西伯郡伯耆町溝口641", "lat": 35.34552594, "lon": 133.43603858, "category": "", "category_id": "", "time": [], "star": 0.0, "review": 0}], "スーパーマーケット": [{"name": "まるごう 溝口店", "address": "鳥取県西伯郡伯耆町溝口385-1", "lat": 35.3402293, "lon": 133.4366154, "category": "スーパー", "category_id": "0200612", "time": ["09:00-22:00"], "star": 3.55, "review": 12}, {"name": "まるごう溝口店", "address": "鳥取県西伯郡伯耆町溝口385-1", "lat": 35.34023014, "lon": 133.43661543, "category": "スーパー", "category_id": "0200612", "time": ["09:00-22:00"], "star": 4.38, "review": 1}]}, "top_restaurant": {"name": "前田商店", "category": "ピザ店", "star": 4.41, "review": 10}}, {"name": "余子", "name_en": "Amariko", "lat": 35.5210938, "lon": 133.2366182, "osm_id": 266921489, "operator": "", "railway": "station", "wikidata": "Q4207986", "wikipedia_tag": "ja:余子駅", "lines": [], "pref": "鳥取県", "wikipedia_text": "余子駅（あまりこえき）は、鳥取県境港市竹内町字旭田にある、西日本旅客鉄道（JR西日本）境線の駅である。境線各駅には妖怪の名前から取られた愛称が付与されており、当駅は「こなきじじい駅」と名付けられている。", "wikipedia_image": "https://upload.wikimedia.org/wikipedia/commons/b/be/Amariko20080119.JPG", "nearest_convenience": {"name": "ローソン", "lat": 35.524012, "lon": 133.2451329, "address": "", "distance_m": 836, "brand": "LAWSON"}, "nearest_restaurant": {"name": "マクドナルド　境港店", "lat": 35.5195699, "lon": 133.2473743, "address": "", "distance_m": 988, "cuisine": "burger"}, "nearby_pois": {"コンビニ": [{"name": "ローソン 境港誠道町", "address": "鳥取県境港市誠道町5-1", "lat": 35.5175487, "lon": 133.2344861, "category": "コンビニ", "category_id": "0200487", "time": ["00:00-24:00"], "star": 4.66, "review": 24}, {"name": "セブンイレブン 境港竹内町", "address": "鳥取県境港市竹内町3653-59", "lat": 35.5198568, "lon": 133.2469547, "category": "コンビニ", "category_id": "0200487", "time": ["00:00-24:00"], "star": 4.33, "review": 17}, {"name": "ファミリーマート 境港竹内町店", "address": "鳥取県境港市竹内町831-2", "lat": 35.5233454, "lon": 133.2414938, "category": "コンビニ", "category_id": "0200487", "time": ["00:00-24:00"], "star": 3.69, "review": 7}, {"name": "ファミリーマート 境港福定町店", "address": "鳥取県境港市福定町1814-6", "lat": 35.527509, "lon": 133.2437852, "category": "コンビニ", "category_id": "0200487", "time": ["00:00-24:00"], "star": 3.06, "review": 5}], "ラーメン": [{"name": "亀福食堂", "address": "鳥取県境港市福定町163-2", "lat": 35.52851945, "lon": 133.23978618, "category": "ラーメン店", "category_id": "0100097", "time": ["11:00-15:00", "17:00-20:00"], "star": 3.96, "review": 20}, {"name": "竹ちゃんラーメン", "address": "鳥取県境港市竹内町3653", "lat": 35.52145282, "lon": 133.24613245, "category": "ラーメン店", "category_id": "0100097", "time": ["11:00-15:00", "17:30-21:00"], "star": 4.01, "review": 36}, {"name": "富んや", "address": "鳥取県境港市竹内町3583-22", "lat": 35.52256508674, "lon": 133.24588439735, "category": "ラーメン店", "category_id": "0100097", "time": ["11:00-15:00", "17:00-24:00"], "star": 3.93, "review": 20}, {"name": "楓林", "address": "鳥取県境港市竹内町1616-1", "lat": 35.52261933, "lon": 133.23680631, "category": "中華料理店", "category_id": "0100990", "time": ["11:30-14:00", "17:00-21:00"], "star": 3.59, "review": 18}, {"name": "敦煌", "address": "鳥取県境港市美保町572-5", "lat": 35.51881189, "lon": 133.24417544, "category": "中華料理店", "category_id": "0100990", "time": ["11:00-14:30", "17:00-20:30"], "star": 3.75, "review": 18}, {"name": "竹内苑", "address": "鳥取県境港市竹内町3659-30", "lat": 35.5260497, "lon": 133.24435408, "category": "飲食店", "category_id": "0102732", "time": ["11:00-14:30", "17:00-22:00"], "star": 3.7, "review": 1}, {"name": "中華食堂", "address": "鳥取県境港市竹内町3659-30", "lat": 35.5261165, "lon": 133.24446, "category": "中華料理店", "category_id": "0100990", "time": [], "star": 0.0, "review": 0}], "飲食店": [{"name": "chiento", "address": "鳥取県境港市竹内町1529-1", "lat": 35.520736672604, "lon": 133.23712186746, "category": "カフェ・喫茶", "category_id": "0100344", "time": [], "star": 0.0, "review": 0}, {"name": "うどんマルコ hanare", "address": "鳥取県境港市竹内町3583-27", "lat": 35.52222993674, "lon": 133.24605188735, "category": "うどん店", "category_id": "0100033", "time": ["11:00-21:00"], "star": 3.17, "review": 3}, {"name": "ガレージ バー コンクイスタ", "address": "鳥取県境港市竹内町860-1", "lat": 35.523609346738, "lon": 133.24151180737, "category": "立ち飲み店", "category_id": "0102815", "time": [], "star": 0.0, "review": 0}, {"name": "美食倶楽部 ぶっこん亭", "address": "鳥取県境港市竹内町3659-5", "lat": 35.52620246, "lon": 133.2439877, "category": "シーフード・海鮮料理店", "category_id": "0100542", "time": [], "star": 4.28, "review": 27}, {"name": "コリンズ", "address": "鳥取県境港市竹内町295", "lat": 35.52342265, "lon": 133.24240261, "category": "カフェ・喫茶", "category_id": "0100344", "time": ["09:00-22:30"], "star": 3.8, "review": 6}, {"name": "花日向", "address": "鳥取県境港市竹内町1477-8", "lat": 35.52207327, "lon": 133.23799098, "category": "カフェ・喫茶", "category_id": "0100344", "time": [], "star": 0.0, "review": 0}, {"name": "楓林", "address": "鳥取県境港市竹内町1616-1", "lat": 35.52261933, "lon": 133.23680631, "category": "中華料理店", "category_id": "0100990", "time": ["11:30-14:00", "17:00-21:00"], "star": 3.59, "review": 18}, {"name": "石松寿司", "address": "鳥取県境港市誠道町54", "lat": 35.51629821, "lon": 133.23518753, "category": "寿司店", "category_id": "0100101", "time": ["11:00-14:00", "16:30-20:30"], "star": 3.84, "review": 23}, {"name": "竹内苑", "address": "鳥取県境港市竹内町3659-30", "lat": 35.5260497, "lon": 133.24435408, "category": "飲食店", "category_id": "0102732", "time": ["11:00-14:30", "17:00-22:00"], "star": 3.7, "review": 1}, {"name": "富んや", "address": "鳥取県境港市竹内町3583-22", "lat": 35.52256508674, "lon": 133.24588439735, "category": "ラーメン店", "category_id": "0100097", "time": ["11:00-15:00", "17:00-24:00"], "star": 3.93, "review": 20}, {"name": "さんかい", "address": "鳥取県境港市竹内町3565-11", "lat": 35.52454981, "lon": 133.24504437, "category": "カフェ・喫茶", "category_id": "0100344", "time": ["08:30-22:00"], "star": 3.16, "review": 5}, {"name": "敦煌", "address": "鳥取県境港市美保町572-5", "lat": 35.51881189, "lon": 133.24417544, "category": "中華料理店", "category_id": "0100990", "time": ["11:00-14:30", "17:00-20:30"], "star": 3.75, "review": 18}, {"name": "亀福食堂", "address": "鳥取県境港市福定町163-2", "lat": 35.52851945, "lon": 133.23978618, "category": "ラーメン店", "category_id": "0100097", "time": ["11:00-15:00", "17:00-20:00"], "star": 3.96, "review": 20}, {"name": "竹ちゃんラーメン", "address": "鳥取県境港市竹内町3653", "lat": 35.52145282, "lon": 133.24613245, "category": "ラーメン店", "category_id": "0100097", "time": ["11:00-15:00", "17:30-21:00"], "star": 4.01, "review": 36}, {"name": "マクドナルド 境港店", "address": "鳥取県境港市美保町3653-49", "lat": 35.5196124, "lon": 133.2473796, "category": "ハンバーガー店", "category_id": "0100722", "time": ["07:00-23:00"], "star": 3.81, "review": 66}, {"name": "中華食堂", "address": "鳥取県境港市竹内町3659-30", "lat": 35.5261165, "lon": 133.24446, "category": "中華料理店", "category_id": "0100990", "time": [], "star": 0.0, "review": 0}], "カフェ": [{"name": "chiento", "address": "鳥取県境港市竹内町1529-1", "lat": 35.520736672604, "lon": 133.23712186746, "category": "カフェ・喫茶", "category_id": "0100344", "time": [], "star": 0.0, "review": 0}, {"name": "コリンズ", "address": "鳥取県境港市竹内町295", "lat": 35.52342265, "lon": 133.24240261, "category": "カフェ・喫茶", "category_id": "0100344", "time": ["09:00-22:30"], "star": 3.8, "review": 6}, {"name": "花日向", "address": "鳥取県境港市竹内町1477-8", "lat": 35.52207327, "lon": 133.23799098, "category": "カフェ・喫茶", "category_id": "0100344", "time": [], "star": 0.0, "review": 0}, {"name": "さんかい", "address": "鳥取県境港市竹内町3565-11", "lat": 35.52454981, "lon": 133.24504437, "category": "カフェ・喫茶", "category_id": "0100344", "time": ["08:30-22:00"], "star": 3.16, "review": 5}], "ドラッグストア": [{"name": "たけのうち薬局", "address": "鳥取県境港市竹内町578-7", "lat": 35.51880272, "lon": 133.24395101, "category": "調剤薬局", "category_id": "0202315", "time": [], "star": 0.0, "review": 0}], "ATM": [{"name": "鳥取銀行 ATM 誠道ATM", "address": "鳥取県境港市誠道町56", "lat": 35.51663623, "lon": 133.23504836, "category": "ATM", "category_id": "0402785", "time": [], "star": 0.0, "review": 0}, {"name": "ゆうちょ銀行 ATM 境港竹内郵便局", "address": "鳥取県境港市竹内町747", "lat": 35.5220951, "lon": 133.241772, "category": "ATM", "category_id": "0402785", "time": [], "star": 0.0, "review": 0}, {"name": "銀行ATM イーネット ファミリーマート境港竹内町 共同出張所", "address": "鳥取県境港市竹内町831-2 ", "lat": 35.523354, "lon": 133.241469, "category": "ATM", "category_id": "0402785", "time": ["00:00-24:00"], "star": 0.0, "review": 0}, {"name": "ゆうちょ銀行 境港竹内郵便局", "address": "鳥取県境港市竹内町747", "lat": 35.5220951, "lon": 133.241772, "category": "銀行", "category_id": "0402596", "time": [], "star": 0.0, "review": 0}, {"name": "ローソン銀行 境港誠道町共同出張所", "address": "鳥取県境港市誠道町5-1", "lat": 35.5175365, "lon": 133.234507, "category": "ATM", "category_id": "0402785", "time": ["00:00-24:00"], "star": 0.0, "review": 0}, {"name": "ゆうちょ銀行 境港誠道簡易郵便局", "address": "鳥取県境港市誠道町98", "lat": 35.5156544, "lon": 133.235158, "category": "銀行", "category_id": "0402596", "time": [], "star": 0.0, "review": 0}, {"name": "JAバンク ATM 鳥取西部農業協同組合(JA鳥取西部)余子支所", "address": "鳥取県境港市竹内町822-3", "lat": 35.5257692, "lon": 133.240286, "category": "ATM", "category_id": "0402785", "time": [], "star": 0.0, "review": 0}, {"name": "セブン銀行 境港竹内町店", "address": "鳥取県境港市竹内町3653-59", "lat": 35.5199978, "lon": 133.246996, "category": "ATM", "category_id": "0402785", "time": ["00:00-24:00"], "star": 0.0, "review": 0}, {"name": "銀行ATM イーネット ファミリーマート境港福定町 共同出張所", "address": "鳥取県境港市福定町1814-6 ", "lat": 35.527487, "lon": 133.243738, "category": "ATM", "category_id": "0402785", "time": ["00:00-24:00"], "star": 0.0, "review": 0}, {"name": "JAバンク 鳥取西部農業協同組合(JA鳥取西部)余子支所", "address": "鳥取県境港市竹内町822-3", "lat": 35.5257692, "lon": 133.240286, "category": "銀行", "category_id": "0402596", "time": [], "star": 0.0, "review": 0}, {"name": "JA鳥取西部余子支所", "address": "鳥取県境港市竹内町822", "lat": 35.5257786, "lon": 133.2402854, "category": "農業協同組合", "category_id": "0502468", "time": [], "star": 0.0, "review": 0}]}, "top_restaurant": {"name": "美食倶楽部 ぶっこん亭", "category": "シーフード・海鮮料理店", "star": 4.28, "review": 27}}, {"name": "倉吉", "name_en": "Kurayoshi", "lat": 35.4547913, "lon": 133.849401, "osm_id": 2565897659, "operator": "", "railway": "station", "wikidata": "Q899254", "wikipedia_tag": "ja:倉吉駅", "lines": [], "pref": "鳥取県", "nearby_bus_stops": [{"name": "上井町一丁目西", "lat": 35.4513942, "lon": 133.8494534, "distance_m": 378, "operator": ""}], "wikipedia_text": "倉吉駅（くらよしえき）は、鳥取県倉吉市上井にある西日本旅客鉄道（JR西日本）山陰本線の駅である。", "wikipedia_image": "https://upload.wikimedia.org/wikipedia/commons/3/3b/Kurayoshi_Station%2C_ekisha.jpg", "nearest_convenience": {"name": "ファミリーマート", "lat": 35.4514108, "lon": 133.8489962, "address": "", "distance_m": 378, "brand": ""}, "nearest_restaurant": {"name": "お好み焼き 歌舞点心", "lat": 35.4544394, "lon": 133.8487986, "address": "鳥取県倉吉市上井町二丁目1-1", "distance_m": 67, "cuisine": ""}, "nearby_pois": {"コンビニ": [{"name": "セブンイレブン ハートインJR倉吉駅", "address": "鳥取県倉吉市上井195-3", "lat": 35.4545569, "lon": 133.8494999, "category": "コンビニ", "category_id": "0200487", "time": ["06:00-22:00"], "star": 4.25, "review": 18}, {"name": "ファミリーマート 倉吉駅前通り店", "address": "鳥取県倉吉市山根620-1", "lat": 35.4514601, "lon": 133.8490334, "category": "コンビニ", "category_id": "0200487", "time": ["00:00-24:00"], "star": 3.63, "review": 17}, {"name": "ファミリーマート シグナスファミリー/S店", "address": "鳥取県倉吉市福庭854", "lat": 35.4556542, "lon": 133.8589491, "category": "コンビニ", "category_id": "0200487", "time": ["09:00-17:00"], "star": 4.0, "review": 1}, {"name": "ホテルアーク21", "address": "鳥取県倉吉市上井町2丁目4-6", "lat": 35.45199335, "lon": 133.84850118, "category": "ホテル", "category_id": "0300124", "time": [], "star": 3.9, "review": 20}, {"name": "東宝ストア 新あじそう パープル店", "address": "鳥取県倉吉市山根557-1", "lat": 35.4487715, "lon": 133.8478696, "category": "スーパー", "category_id": "0200612", "time": ["09:00-21:00"], "star": 3.96, "review": 52}, {"name": "倉吉シティホテル", "address": "鳥取県倉吉市山根543-7", "lat": 35.4482744, "lon": 133.8489362, "category": "ホテル", "category_id": "0300124", "time": ["00:00-24:00"], "star": 4.15, "review": 104}, {"name": "ダンクショップ 倉吉病院店", "address": "鳥取県倉吉市山根43", "lat": 35.452213287353516, "lon": 133.85585021972656, "category": "", "category_id": "", "time": [], "star": 0.0, "review": 0}, {"name": "マルイ 上井店", "address": "鳥取県倉吉市伊木254-1", "lat": 35.4459052, "lon": 133.8485696, "category": "スーパー", "category_id": "0200612", "time": ["09:00-22:00"], "star": 3.97, "review": 71}, {"name": "ダンクショップ 藤井政雄記念病院店", "address": "鳥取県倉吉市山根43-1", "lat": 35.45077896118164, "lon": 133.85629272460938, "category": "", "category_id": "", "time": [], "star": 0.0, "review": 0}], "ラーメン": [{"name": "ラーメン豚龍", "address": "鳥取県倉吉市上井町2-1-7", "lat": 35.45427779, "lon": 133.84865447, "category": "ラーメン店", "category_id": "0100097", "time": ["11:30-14:30", "18:00-24:00"], "star": 3.68, "review": 22}, {"name": "さっぽろ一番", "address": "鳥取県倉吉市上井町2-2-16", "lat": 35.4536251, "lon": 133.84903222, "category": "ラーメン店", "category_id": "0100097", "time": ["11:00-14:00", "18:00-25:00"], "star": 3.3, "review": 14}, {"name": "拉麺屋神楽 ごっつおらーめん 倉吉本店", "address": "鳥取県倉吉市上井町1-370", "lat": 35.4514169, "lon": 133.849539, "category": "ラーメン店", "category_id": "0100097", "time": ["11:30-14:00", "18:00-26:00"], "star": 3.89, "review": 39}, {"name": "縁", "address": "鳥取県倉吉市山根583-2", "lat": 35.44998401314469, "lon": 133.84880611722406, "category": "飲食店", "category_id": "0102732", "time": ["11:00-14:00"], "star": 4.35, "review": 17}, {"name": "いのよし", "address": "鳥取県倉吉市海田西町2-27", "lat": 35.4611055, "lon": 133.84510359, "category": "ラーメン店", "category_id": "0100097", "time": ["11:00-14:30", "18:00-20:30"], "star": 4.21, "review": 102}, {"name": "鳥取 鶏・とんこつラーメンつばさ", "address": "鳥取県倉吉市山根539-14-1階", "lat": 35.44842993, "lon": 133.85017777, "category": "ラーメン店", "category_id": "0100097", "time": ["11:00-14:00"], "star": 4.21, "review": 15}, {"name": "一蔵", "address": "鳥取県倉吉市山根539-1 スポーツプラザ 1F", "lat": 35.448415536174, "lon": 133.84997888502, "category": "ラーメン店", "category_id": "0100097", "time": ["11:30-14:30", "18:00-21:00"], "star": 3.89, "review": 25}, {"name": "やちよ", "address": "鳥取県倉吉市上井町1-8", "lat": 35.453391596977, "lon": 133.85083554623, "category": "ラーメン店", "category_id": "0100097", "time": ["18:00-27:00"], "star": 3.28, "review": 16}, {"name": "大八 パープル店", "address": "鳥取県倉吉市山根557-1 パープルタウン 1F あじそうフロア内", "lat": 35.448778136174, "lon": 133.84838448502, "category": "ラーメン店", "category_id": "0100097", "time": ["10:00-19:00"], "star": 3.83, "review": 17}, {"name": "拉麺屋神楽 横浜家系ラーメン 吉岡家 倉吉駅前店", "address": "鳥取県倉吉市山根618-3", "lat": 35.45095405, "lon": 133.84926252, "category": "ラーメン店", "category_id": "0100097", "time": ["11:00-15:00", "17:00-23:00"], "star": 3.5, "review": 14}, {"name": "まさご屋", "address": "鳥取県倉吉市上井町2-244-2", "lat": 35.45299069, "lon": 133.84676827, "category": "ラーメン店", "category_id": "0100097", "time": ["11:00-14:00"], "star": 3.75, "review": 13}, {"name": "八兵衛", "address": "鳥取県倉吉市福庭町1-101", "lat": 35.463431636164, "lon": 133.84837888517, "category": "ラーメン店", "category_id": "0100097", "time": ["11:30-14:30", "18:00-22:00"], "star": 4.12, "review": 47}, {"name": "らーめん 樹", "address": "鳥取県倉吉市山根603-1", "lat": 35.450563459392, "lon": 133.84879721868, "category": "ラーメン店", "category_id": "0100097", "time": ["11:30-14:30", "18:00-21:00"], "star": 3.13, "review": 10}, {"name": "らぁめん鈴屋", "address": "鳥取県倉吉市上井町1-8-17", "lat": 35.45334045, "lon": 133.8507054, "category": "ラーメン店", "category_id": "0100097", "time": [], "star": 3.67, "review": 1}, {"name": "縁", "address": "鳥取県倉吉市山根583-2", "lat": 35.450027646978, "lon": 133.8488357762, "category": "ラーメン店", "category_id": "0100097", "time": [], "star": 3.96, "review": 11}, {"name": "香味徳", "address": "鳥取県倉吉市山根538-2 松田店舗1F西", "lat": 35.447651577443, "lon": 133.85044693796, "category": "ラーメン店", "category_id": "0100097", "time": ["11:30-14:00", "17:30-20:00"], "star": 3.66, "review": 35}, {"name": "咲倉", "address": "鳥取県倉吉市上井町ホテルアーク21 1F2-4-6", "lat": 35.451994574347, "lon": 133.8485278158, "category": "定食屋", "category_id": "0101441", "time": ["18:00-23:00"], "star": 3.92, "review": 6}, {"name": "居酒屋さな", "address": "鳥取県倉吉市上井町1-10-18 津村ビル 1F", "lat": 35.453492885987, "lon": 133.8498108885, "category": "居酒屋", "category_id": "0101495", "time": ["17:00-23:00"], "star": 3.2, "review": 5}, {"name": "旬流Dining りんく", "address": "鳥取県倉吉市上井町1-10-18 津村ビル 1F", "lat": 35.453530246976, "lon": 133.84983823623, "category": "居酒屋", "category_id": "0101495", "time": [], "star": 3.58, "review": 7}, {"name": "味仙", "address": "鳥取県倉吉市上井町1-206-4", "lat": 35.45025469, "lon": 133.84955279, "category": "飲食店", "category_id": "0102732", "time": ["11:00-24:00"], "star": 4.6, "review": 2}], "飲食店": [{"name": "駅ナカCafe 和茶", "address": "鳥取県倉吉市上井195-3 JR倉吉駅 2F", "lat": 35.454609878884, "lon": 133.84943684057, "category": "カフェ・喫茶", "category_id": "0100344", "time": ["09:30-16:00"], "star": 3.3, "review": 1}, {"name": "カフェブリュ", "address": "鳥取県倉吉市上井町1-10-1 2F", "lat": 35.453348477343, "lon": 133.85047235276, "category": "飲食店", "category_id": "0102732", "time": [], "star": 4.0, "review": 1}, {"name": "小舟", "address": "鳥取県倉吉市上井町1-10-1", "lat": 35.453363516977, "lon": 133.85042356623, "category": "寿司店", "category_id": "0100101", "time": [], "star": 4.0, "review": 13}, {"name": "雑貨笛", "address": "鳥取県倉吉市上井331-1", "lat": 35.456027426974, "lon": 133.84734798626, "category": "カフェ・喫茶", "category_id": "0100344", "time": ["09:00-17:00"], "star": 3.85, "review": 2}, {"name": "焼き肉 どばし", "address": "鳥取県倉吉市上井町1-7-11", "lat": 35.452650036977, "lon": 133.85137777622, "category": "焼肉店", "category_id": "0101963", "time": ["17:00-22:00"], "star": 4.27, "review": 5}, {"name": "酒楽", "address": "鳥取県倉吉市上井町1-10-18", "lat": 35.453501885014, "lon": 133.84981027703, "category": "居酒屋", "category_id": "0101495", "time": ["18:00-24:00"], "star": 0.0, "review": 0}, {"name": "行", "address": "鳥取県倉吉市上井町1-10-18", "lat": 35.453505939933, "lon": 133.84979866669, "category": "居酒屋", "category_id": "0101495", "time": ["18:00-24:00"], "star": 0.0, "review": 0}, {"name": "ふれすこ", "address": "鳥取県倉吉市山根539-1", "lat": 35.448269636174, "lon": 133.84999288502, "category": "カフェ・喫茶", "category_id": "0100344", "time": ["08:30-16:00"], "star": 3.53, "review": 6}, {"name": "かおり家!", "address": "鳥取県倉吉市上井町2-5-1 ピュアビル 2F", "lat": 35.451775296977, "lon": 133.84916271621, "category": "居酒屋", "category_id": "0101495", "time": ["18:00-23:00"], "star": 0.0, "review": 1}, {"name": "BAR 雪月", "address": "鳥取県倉吉市山根567-6 ノアビル 2F", "lat": 35.448744856979, "lon": 133.84958445618, "category": "バー", "category_id": "0100536", "time": ["19:00-24:00"], "star": 3.4, "review": 1}, {"name": "まあるい月", "address": "鳥取県倉吉市上井町2-8-9 ジュネシオン 1F", "lat": 35.452974086976, "lon": 133.84763084623, "category": "レストラン", "category_id": "0100111", "time": ["11:30-14:30"], "star": 4.09, "review": 9}, {"name": "T-ROOM", "address": "鳥取県倉吉市海田西町1-108", "lat": 35.46132958697, "lon": 133.84380004631, "category": "カフェ・喫茶", "category_id": "0100344", "time": ["11:00-17:00"], "star": 0.0, "review": 1}, {"name": "grimon", "address": "鳥取県倉吉市上井町2丁目10-7", "lat": 35.45432388, "lon": 133.84806924, "category": "レストラン", "category_id": "0100111", "time": [], "star": 4.45, "review": 7}, {"name": "Soyo’s bakery", "address": "鳥取県倉吉市上井町1-9-8", "lat": 35.453917546994, "lon": 133.85008956472, "category": "ドーナツ店", "category_id": "0100701", "time": ["11:00-19:00"], "star": 4.25, "review": 1}, {"name": "創作和食 うみ", "address": "鳥取県倉吉市上井町2-3-11", "lat": 35.45293073, "lon": 133.84843589, "category": "居酒屋", "category_id": "0101495", "time": [], "star": 4.18, "review": 5}, {"name": "cafe SOURCE MID 倉吉店", "address": "鳥取県倉吉市上井町2-1-2THE CIRCLE 2F", "lat": 35.4541, "lon": 133.849001, "category": "カフェ・喫茶", "category_id": "0100344", "time": ["11:30-22:00"], "star": 3.93, "review": 58}, {"name": "ageHa", "address": "鳥取県倉吉市上井町1-8-7", "lat": 35.45300938, "lon": 133.85076513, "category": "レストラン", "category_id": "0100111", "time": [], "star": 3.71, "review": 7}, {"name": "サン・ジェルマン", "address": "鳥取県倉吉市上井町1-9-2 ホテルセントパレス倉吉宴会棟 1F", "lat": 35.453787636171, "lon": 133.84961488507, "category": "カフェ・喫茶", "category_id": "0100344", "time": ["11:00-14:30"], "star": 3.96, "review": 12}, {"name": "味処 進", "address": "鳥取県倉吉市上井町2-7-1", "lat": 35.45228775, "lon": 133.84821676, "category": "居酒屋", "category_id": "0101495", "time": ["17:00-23:00"], "star": 4.21, "review": 35}, {"name": "つなみ", "address": "鳥取県倉吉市上井町2-9-4", "lat": 35.45327318, "lon": 133.84825118, "category": "居酒屋", "category_id": "0101495", "time": [], "star": 4.09, "review": 7}], "カフェ": [{"name": "駅ナカCafe 和茶", "address": "鳥取県倉吉市上井195-3 JR倉吉駅 2F", "lat": 35.454609878884, "lon": 133.84943684057, "category": "カフェ・喫茶", "category_id": "0100344", "time": ["09:30-16:00"], "star": 3.3, "review": 1}, {"name": "雑貨笛", "address": "鳥取県倉吉市上井331-1", "lat": 35.456027426974, "lon": 133.84734798626, "category": "カフェ・喫茶", "category_id": "0100344", "time": ["09:00-17:00"], "star": 3.85, "review": 2}, {"name": "カフェブリュ", "address": "鳥取県倉吉市上井町1-10-1 2F", "lat": 35.453348477343, "lon": 133.85047235276, "category": "飲食店", "category_id": "0102732", "time": [], "star": 4.0, "review": 1}, {"name": "cafe SOURCE MID 倉吉店", "address": "鳥取県倉吉市上井町2-1-2THE CIRCLE 2F", "lat": 35.4541, "lon": 133.849001, "category": "カフェ・喫茶", "category_id": "0100344", "time": ["11:30-22:00"], "star": 3.93, "review": 58}, {"name": "ふれすこ", "address": "鳥取県倉吉市山根539-1", "lat": 35.448269636174, "lon": 133.84999288502, "category": "カフェ・喫茶", "category_id": "0100344", "time": ["08:30-16:00"], "star": 3.53, "review": 6}, {"name": "サン・ジェルマン", "address": "鳥取県倉吉市上井町1-9-2 ホテルセントパレス倉吉宴会棟 1F", "lat": 35.453787636171, "lon": 133.84961488507, "category": "カフェ・喫茶", "category_id": "0100344", "time": ["11:00-14:30"], "star": 3.96, "review": 12}, {"name": "T-ROOM", "address": "鳥取県倉吉市海田西町1-108", "lat": 35.46132958697, "lon": 133.84380004631, "category": "カフェ・喫茶", "category_id": "0100344", "time": ["11:00-17:00"], "star": 0.0, "review": 1}, {"name": "グリモン", "address": "鳥取県倉吉市上井町2-10-7", "lat": 35.454325186975, "lon": 133.84814732624, "category": "カフェ・喫茶", "category_id": "0100344", "time": ["18:00-22:00"], "star": 3.6, "review": 4}, {"name": "BRYANT Cafe&Rest", "address": "鳥取県倉吉市上井町2-2-6 1F", "lat": 35.453180886976, "lon": 133.84861408623, "category": "カフェ・喫茶", "category_id": "0100344", "time": ["11:30-16:00", "18:00-24:00"], "star": 3.6, "review": 2}, {"name": "セブンデイズ カフェ", "address": "鳥取県倉吉市伊木214-3", "lat": 35.44717135698, "lon": 133.84911249617, "category": "カフェ・喫茶", "category_id": "0100344", "time": ["11:00-15:00"], "star": 3.94, "review": 21}, {"name": "ageHa", "address": "鳥取県倉吉市上井町1-8-7", "lat": 35.45300938, "lon": 133.85076513, "category": "レストラン", "category_id": "0100111", "time": [], "star": 3.71, "review": 7}, {"name": "楽", "address": "鳥取県倉吉市上井195 エキパル倉吉 2F", "lat": 35.4545619, "lon": 133.8494831, "category": "カフェ・喫茶", "category_id": "0100344", "time": [], "star": 0.0, "review": 0}, {"name": "グランカフェF 上井店", "address": "鳥取県倉吉市伊木217", "lat": 35.4474074, "lon": 133.848335, "category": "パンケーキ店", "category_id": "0100744", "time": ["10:30-16:30"], "star": 3.97, "review": 12}, {"name": "喫茶仮庵夢", "address": "鳥取県倉吉市上井町2丁目1-7", "lat": 35.45410864, "lon": 133.84858336, "category": "カフェ・喫茶", "category_id": "0100344", "time": [], "star": 0.0, "review": 0}, {"name": "コメダ珈琲 倉吉店", "address": "鳥取県倉吉市上井371-1", "lat": 35.4504157, "lon": 133.8460225, "category": "コーヒー店", "category_id": "0100496", "time": ["07:00-22:00"], "star": 3.82, "review": 50}, {"name": "NATURAL PARK CAFE", "address": "鳥取県倉吉市山根557-1 パープルタウン", "lat": 35.447952976979, "lon": 133.84801056618, "category": "カフェ・喫茶", "category_id": "0100344", "time": ["09:00-18:00"], "star": 3.97, "review": 6}, {"name": "Cafe RunWay", "address": "鳥取県倉吉市上井町2-14-9", "lat": 35.45246005102601, "lon": 133.84700492589158, "category": "カフェ・喫茶", "category_id": "0100344", "time": ["11:30-17:00"], "star": 0.0, "review": 0}, {"name": "UNO", "address": "鳥取県倉吉市上井町1丁目8-15", "lat": 35.45337047, "lon": 133.85167976, "category": "カフェ・喫茶", "category_id": "0100344", "time": [], "star": 0.0, "review": 0}, {"name": "クリーズマリー", "address": "鳥取県倉吉市山根543-7倉吉シティホテル 1F", "lat": 35.448224, "lon": 133.848925, "category": "カフェ・喫茶", "category_id": "0100344", "time": ["10:00-17:00"], "star": 4.26, "review": 10}, {"name": "イエペス", "address": "鳥取県倉吉市上井町1-5-7", "lat": 35.45166928, "lon": 133.85118567, "category": "カフェ・喫茶", "category_id": "0100344", "time": [], "star": 3.0, "review": 2}], "ドラッグストア": [{"name": "ウエルシア倉吉上井店", "address": "鳥取県倉吉市上井町1-11-7", "lat": 35.452561, "lon": 133.850109, "category": "ドラッグストア", "category_id": "0200699", "time": ["09:00-24:00"], "star": 4.23, "review": 19}, {"name": "ウェルネス 上井店", "address": "鳥取県倉吉市山根591", "lat": 35.44981581, "lon": 133.84751964, "category": "ドラッグストア", "category_id": "0200699", "time": ["09:00-22:00"], "star": 3.9, "review": 29}, {"name": "ドラッグストアコスモス 上井店", "address": "鳥取県倉吉市伊木２７３－１ ", "lat": 35.4461205, "lon": 133.846671, "category": "ドラッグストア", "category_id": "0200699", "time": ["10:00-21:00"], "star": 4.24, "review": 38}, {"name": "ミナミ薬局有限会社", "address": "鳥取県倉吉市上井町1丁目12", "lat": 35.45234499, "lon": 133.84955775, "category": "調剤薬局", "category_id": "0202315", "time": ["09:00-19:00"], "star": 4.5, "review": 0}, {"name": "スマイル薬局", "address": "鳥取県倉吉市上井町1丁目8-30", "lat": 35.4529955, "lon": 133.85094705, "category": "調剤薬局", "category_id": "0202315", "time": ["08:30-18:00"], "star": 0.0, "review": 0}, {"name": "マキタ薬局", "address": "鳥取県倉吉市上井302-5", "lat": 35.45328925, "lon": 133.8464019, "category": "調剤薬局", "category_id": "0202315", "time": [], "star": 0.0, "review": 0}, {"name": "エスマイル薬局 杏薬局", "address": "鳥取県倉吉市上井町1-137", "lat": 35.44977147, "lon": 133.85181899, "category": "調剤薬局", "category_id": "0202315", "time": [], "star": 0.0, "review": 0}, {"name": "あすなろ薬局", "address": "鳥取県倉吉市上井町1丁目12-7", "lat": 35.45189618, "lon": 133.85022547, "category": "調剤薬局", "category_id": "0202315", "time": ["09:00-18:00"], "star": 0.0, "review": 0}, {"name": "株式会社大陽堂薬局", "address": "鳥取県倉吉市上井27-1", "lat": 35.45303, "lon": 133.856539, "category": "調剤薬局", "category_id": "0202315", "time": ["09:00-18:00"], "star": 0.0, "review": 0}, {"name": "やまざくら薬局", "address": "鳥取県倉吉市山根539-4", "lat": 35.4476437, "lon": 133.849614, "category": "調剤薬局", "category_id": "0202315", "time": ["08:30-18:00"], "star": 0.0, "review": 0}, {"name": "パープルタウン", "address": "鳥取県倉吉市山根557-1", "lat": 35.4488048, "lon": 133.8478974, "category": "ショッピングセンター・モール", "category_id": "0200537", "time": ["10:00-20:00"], "star": 3.84, "review": 37}, {"name": "大陽堂薬局山根店", "address": "鳥取県倉吉市山根415-4", "lat": 35.45076893, "lon": 133.85528171, "category": "調剤薬局", "category_id": "0202315", "time": ["09:00-18:00"], "star": 0.0, "review": 0}, {"name": "加藤調剤薬局 一本木店", "address": "鳥取県倉吉市山根637-5", "lat": 35.446931271241, "lon": 133.84710141602, "category": "調剤薬局", "category_id": "0202315", "time": [], "star": 0.0, "review": 0}], "ATM": [{"name": "山陰合同銀行 倉吉駅前支店", "address": "鳥取県倉吉市上井町2-2-3", "lat": 35.4531793, "lon": 133.8491611, "category": "銀行", "category_id": "0402596", "time": ["09:00-15:00"], "star": 3.25, "review": 4}, {"name": "鳥取銀行 倉吉中央支店", "address": "鳥取県倉吉市上井町1-200", "lat": 35.4497909, "lon": 133.8496, "category": "銀行", "category_id": "0402596", "time": ["09:00-15:00"], "star": 4.33, "review": 2}, {"name": "鳥取銀行 ATM 倉吉中央支店", "address": "鳥取県倉吉市上井町1-200", "lat": 35.4497936, "lon": 133.8496556, "category": "銀行", "category_id": "0402596", "time": [], "star": 3.0, "review": 1}, {"name": "セブン銀行 ハートインJR倉吉駅店", "address": "鳥取県倉吉市上井195-3", "lat": 35.4545501, "lon": 133.849498, "category": "ATM", "category_id": "0402785", "time": ["00:00-24:00"], "star": 0.0, "review": 0}, {"name": "JAバンク 鳥取中央農業協同組合(JA鳥取中央)河北支所", "address": "鳥取県倉吉市大平町362-7", "lat": 35.4557762, "lon": 133.848669, "category": "銀行", "category_id": "0402596", "time": [], "star": 0.0, "review": 1}, {"name": "山陰合同銀行 ATM 倉吉駅前支店", "address": "鳥取県倉吉市上井町2-2-3", "lat": 35.4531922, "lon": 133.849179, "category": "ATM", "category_id": "0402785", "time": [], "star": 0.0, "review": 0}, {"name": "ゆうちょ銀行 倉吉上井一郵便局", "address": "鳥取県倉吉市上井町1-168", "lat": 35.449735, "lon": 133.850464, "category": "銀行", "category_id": "0402596", "time": [], "star": 4.0, "review": 1}, {"name": "銀行ATM イーネット ファミリーマート倉吉駅前通り 共同出張所", "address": "鳥取県倉吉市山根620-1 ", "lat": 35.451386, "lon": 133.848987, "category": "ATM", "category_id": "0402785", "time": ["00:00-24:00"], "star": 0.0, "review": 0}, {"name": "JAバンク ATM 鳥取中央農業協同組合(JA鳥取中央)河北支所", "address": "鳥取県倉吉市大平町362-7", "lat": 35.4557734, "lon": 133.8486361, "category": "ATM", "category_id": "0402785", "time": [], "star": 0.0, "review": 0}, {"name": "山陰合同銀行 ATM 倉吉パープルタウン", "address": "鳥取県倉吉市山根546-3 パープルタウン", "lat": 35.448178, "lon": 133.847812, "category": "ATM", "category_id": "0402785", "time": [], "star": 0.0, "review": 0}, {"name": "山陰合同銀行 ATM 倉吉記念病院", "address": "鳥取県倉吉市上井字山田25-1 倉吉病院", "lat": 35.4517386, "lon": 133.855963, "category": "ATM", "category_id": "0402785", "time": [], "star": 0.0, "review": 0}, {"name": "鳥取銀行三朝出張所", "address": "鳥取県倉吉市上井町1丁目200", "lat": 35.4497992, "lon": 133.8496583, "category": "銀行", "category_id": "0402596", "time": [], "star": 3.0, "review": 1}, {"name": "鳥取銀行 ATM パープルタウン", "address": "鳥取県倉吉市山根557-1", "lat": 35.4482477, "lon": 133.847926, "category": "ATM", "category_id": "0402785", "time": [], "star": 0.0, "review": 0}, {"name": "倉吉信用金庫 倉吉駅前支店", "address": "鳥取県倉吉市上井町2-3-9", "lat": 35.4528905, "lon": 133.8485584, "category": "信用金庫", "category_id": "0401098", "time": ["09:00-15:00"], "star": 3.0, "review": 2}, {"name": "鳥取銀行ATM 羽合支店", "address": "鳥取県倉吉市上井町1丁目200", "lat": 35.4497643, "lon": 133.8496552, "category": "ATM", "category_id": "0402785", "time": [], "star": 0.0, "review": 0}, {"name": "ゆうちょ銀行 ATM 倉吉上井一郵便局", "address": "鳥取県倉吉市上井町1-168", "lat": 35.449735, "lon": 133.850464, "category": "ATM", "category_id": "0402785", "time": [], "star": 0.0, "review": 0},